,CASE_ENQUIRY_ID,OPEN_DT,TARGET_DT,CLOSED_DT,OnTime_Status,CASE_STATUS,CLOSURE_REASON,CASE_TITLE,SUBJECT,REASON,TYPE,QUEUE,Department,SubmittedPhoto,ClosedPhoto,Location,fire_district,pwd_district,city_council_district,police_district,neighborhood,neighborhood_services_district,ward,precinct,land_usage,LOCATION_STREET_NAME,LOCATION_ZIPCODE,Property_Type,Property_ID,LATITUDE,LONGITUDE,Source,Geocoded_Location
469729,101001241129,01/02/2015 10:19:50 AM,12/22/2016 10:19:50 AM,01/05/2015 08:42:10 AM,ONTIME,Closed,Case Closed NOBASE: No Basis,Contractors Complaint,Inspectional Services,Building,Contractors Complaint,ISD_Building (INTERNAL),ISD,,,14-16 Rockview St  Jamaica Plain  MA  02130,9.0,02,6.0,E13,Jamaica Plain,11.0,19,1904.0,,14-16 Rockview St,2130.0,Address,353184.0,42.3594,-71.0587,Constituent Call,"(0, 0)"
469904,101001241392,01/02/2015 02:28:06 PM,12/22/2016 02:28:06 PM,01/09/2015 08:38:02 AM,ONTIME,Closed,Case Closed NOVIO: No Violation Found/No Cause,Contractors Complaint,Inspectional Services,Building,Contractors Complaint,ISD_Building (INTERNAL),ISD,,,22 Rockview St  Jamaica Plain  MA  02130,9.0,02,6.0,E13,Jamaica Plain,11.0,Ward 19,1904.0,R2,22 Rockview St,2130.0,Address,117855.0,42.3156,-71.109,Constituent Call,"(42.3156, -71.109)"
470510,101001242267,01/05/2015 10:20:52 AM,12/25/2016 10:20:52 AM,01/07/2015 08:14:51 AM,ONTIME,Closed,Case Closed NOBASE: No Basis,Contractors Complaint,Inspectional Services,Building,Contractors Complaint,ISD_Building (INTERNAL),ISD,,,10-12 Barker St  Brighton  MA  02135,11.0,04,9.0,D14,Allston / Brighton,15.0,Ward 22,2212.0,R2,10-12 Barker St,2135.0,Address,8185.0,42.3545,-71.1545,Constituent Call,"(42.3545, -71.1545)"
470688,101001242527,01/05/2015 02:51:14 PM,12/25/2016 02:51:13 PM,01/20/2015 10:00:21 AM,ONTIME,Closed,Case Closed ROA: Refer to Other Agency/Division,Contractors Complaint,Inspectional Services,Building,Contractors Complaint,ISD_Building (INTERNAL),ISD,,,110 Chelsea St  East Boston  MA  02128,1.0,09,1.0,A7,East Boston,1.0,Ward 1,104.0,R3,110 Chelsea St,2128.0,Address,30307.0,42.3727,-71.0358,Constituent Call,"(42.3727, -71.0358)"
471110,101001243149,01/06/2015 02:06:51 PM,12/26/2016 02:06:50 PM,03/03/2015 09:03:18 AM,ONTIME,Closed,Case Closed NOVIO: No Violation Found/No Cause,Contractors Complaint,Inspectional Services,Building,Contractors Complaint,ISD_Building (INTERNAL),ISD,,,559 Ashmont St  Dorchester  MA  02122,8.0,07,3.0,C11,Dorchester,7.0,Ward 16,1610.0,R3,559 Ashmont St,2122.0,Address,5501.0,42.2893,-71.0508,Constituent Call,"(42.2893, -71.0508)"
471123,101001243165,01/06/2015 02:16:33 PM,12/26/2016 02:16:32 PM,01/09/2015 08:36:17 AM,ONTIME,Closed,Case Closed ROA: Refer to Other Agency/Division,Contractors Complaint,Inspectional Services,Building,Contractors Complaint,ISD_Building (INTERNAL),ISD,,,145 Marcella St  Roxbury  MA  02119,9.0,10B,7.0,B2,Roxbury,13.0,Ward 11,1101.0,R3,145 Marcella St,2119.0,Address,89546.0,42.3254,-71.0965,Constituent Call,"(42.3254, -71.0965)"
471134,101001243178,01/06/2015 02:34:39 PM,12/26/2016 02:34:39 PM,02/27/2015 03:27:34 PM,ONTIME,Closed,Case Closed NOVIO: No Violation Found/No Cause,Contractors Complaint,Inspectional Services,Building,Contractors Complaint,ISD_Building (INTERNAL),ISD,,,64 G St  South Boston  MA  02127,6.0,05,2.0,C6,South Boston / South Boston Waterfront,5.0,Ward 7,703.0,R2,64 G St,2127.0,Address,61660.0,42.3339,-71.044,Constituent Call,"(42.3339, -71.044)"
471366,101001243491,01/07/2015 09:25:46 AM,12/27/2016 09:25:45 AM,05/14/2015 03:08:27 PM,ONTIME,Closed,Case Closed. Closed date : 2015-05-14 15:08:27.613 NOBASE: No Basis,Contractors Complaint,Inspectional Services,Building,Contractors Complaint,ISD_Building (INTERNAL),ISD,,,INTERSECTION of Tremont St & Union Park  Roxbury  MA,4.0,1C,2.0,D4,South End,4.0,Ward 3,307.0,,INTERSECTION Tremont St & Union Park,,Intersection,8549.0,42.3436,-71.0723,Constituent Call,"(42.3436, -71.0723)"
471520,101001243722,01/07/2015 01:49:53 PM,12/27/2016 01:49:53 PM,04/06/2015 02:39:19 PM,ONTIME,Closed,Case Closed CORR: Corrected,Contractors Complaint,Inspectional Services,Building,Contractors Complaint,ISD_Building (INTERNAL),ISD,,,217 M St  South Boston  MA  02127,6.0,05,2.0,C6,South Boston / South Boston Waterfront,5.0,Ward 7,701.0,R3,217 M St,2127.0,Address,88075.0,42.3308,-71.0334,Constituent Call,"(42.3308, -71.0334)"
472159,101001244623,01/09/2015 08:14:06 AM,12/29/2016 08:14:06 AM,01/12/2015 08:15:16 AM,ONTIME,Closed,Case Closed CORR: Corrected,Contractors Complaint,Inspectional Services,Building,Contractors Complaint,ISD_Building (INTERNAL),ISD,,,75 Ruthven St  Dorchester  MA  02121,9.0,10B,7.0,B2,Roxbury,13.0,Ward 12,1209.0,R3,75 Ruthven St,2121.0,Address,120023.0,42.3132,-71.0915,Constituent Call,"(42.3132, -71.0915)"
472162,101001244629,01/09/2015 08:22:20 AM,12/29/2016 08:22:20 AM,01/12/2015 08:27:11 AM,ONTIME,Closed,Case Closed CORR: Corrected,Contractors Complaint,Inspectional Services,Building,Contractors Complaint,ISD_Building (INTERNAL),ISD,,,75 Ruthven St  Dorchester  MA  02121,9.0,10B,7.0,B2,Roxbury,13.0,Ward 12,1209.0,R3,75 Ruthven St,2121.0,Address,120023.0,42.3132,-71.0915,Constituent Call,"(42.3132, -71.0915)"
472458,101001245064,01/09/2015 02:43:57 PM,12/29/2016 02:43:56 PM,01/15/2015 08:28:22 AM,ONTIME,Closed,Case Closed REINSP: Issues Found  Re-Inspection,Contractors Complaint,Inspectional Services,Building,Contractors Complaint,ISD_Building (INTERNAL),ISD,,,9-11 Chestnut Sq  Jamaica Plain  MA  02130,9.0,02,6.0,E13,Jamaica Plain,11.0,Ward 19,1904.0,CM,9-11 Chestnut Sq,2130.0,Address,31289.0,42.3154,-71.1069,Constituent Call,"(42.3154, -71.1069)"
472645,101001245329,01/10/2015 02:42:33 PM,12/30/2016 02:42:33 PM,01/14/2015 08:28:37 AM,ONTIME,Closed,Case Closed CORR: Corrected,Contractors Complaint,Inspectional Services,Building,Contractors Complaint,ISD_Building (INTERNAL),ISD,,,80 Frankfort St  East Boston  MA  02128,1.0,09,1.0,A7,East Boston,1.0,Ward 1,102.0,R4,80 Frankfort St,2128.0,Address,60583.0,42.3712,-71.0339,Constituent Call,"(42.3712, -71.0339)"
473040,101001245901,01/12/2015 10:39:01 AM,01/01/2017 10:39:00 AM,01/29/2015 09:01:05 AM,ONTIME,Closed,Case Closed NOBASE: No Basis,Contractors Complaint,Inspectional Services,Building,Contractors Complaint,ISD_Building (INTERNAL),ISD,,,227 Maple St  West Roxbury  MA  02132,12.0,06,6.0,E5,West Roxbury,12.0,Ward 20,2020.0,R2,227 Maple St,2132.0,Address,89335.0,42.2936,-71.1591,Constituent Call,"(42.2936, -71.1591)"
473202,101001246202,01/12/2015 04:35:25 PM,01/01/2017 04:35:24 PM,01/15/2015 08:18:04 AM,ONTIME,Closed,Case Closed ROA: Refer to Other Agency/Division,Contractors Complaint,Inspectional Services,Building,Contractors Complaint,ISD_Building (INTERNAL),ISD,,,INTERSECTION of Prince St & Salem St  Boston  MA,3.0,1B,1.0,A1,Downtown / Financial District,3.0,Ward 3,303.0,,INTERSECTION Prince St & Salem St,,Intersection,7971.0,42.3652,-71.0555,Constituent Call,"(42.3652, -71.0555)"
473385,101001246458,01/13/2015 09:28:15 AM,01/02/2017 09:28:14 AM,03/02/2015 12:37:19 PM,ONTIME,Closed,Case Closed ADCLSD: Administratively Closed,Contractors Complaint,Inspectional Services,Building,Contractors Complaint,ISD_Building (INTERNAL),ISD,,,302 K St  South Boston  MA  02127,6.0,05,2.0,C6,South Boston / South Boston Waterfront,5.0,Ward 6,606.0,R4,302 K St,2127.0,Address,80556.0,42.3333,-71.0372,Constituent Call,"(42.3333, -71.0372)"
473818,101001247087,01/14/2015 10:00:43 AM,01/03/2017 10:00:42 AM,04/09/2015 03:16:20 PM,ONTIME,Closed,Case Closed NOBASE: No Basis,Contractors Complaint,Inspectional Services,Building,Contractors Complaint,ISD_Building (INTERNAL),ISD,,,435 E Seventh St  South Boston  MA  02127,6.0,05,2.0,C6,South Boston / South Boston Waterfront,5.0,Ward 7,703.0,CM,435 E Seventh St,2127.0,Address,125276.0,42.332,-71.0425,Constituent Call,"(42.332, -71.0425)"
474383,101001247917,01/15/2015 01:00:01 PM,01/04/2017 01:00:01 PM,04/03/2015 08:45:30 AM,ONTIME,Closed,Case Closed CORR: Corrected,Contractors Complaint,Inspectional Services,Building,Contractors Complaint,ISD_Building (INTERNAL),ISD,,,495 Summer St  Boston  MA  02210,6.0,05,2.0,C6,South Boston / South Boston Waterfront,5.0,Ward 6,601.0,E,495 Summer St,2210.0,Address,132021.0,42.3455,-71.0416,Constituent Call,"(42.3455, -71.0416)"
474651,101001248308,01/16/2015 09:32:02 AM,01/05/2017 09:32:02 AM,02/04/2015 10:37:01 AM,ONTIME,Closed,Case Closed VIOISS: Violation Filed,Contractors Complaint,Inspectional Services,Building,Contractors Complaint,ISD_Building (INTERNAL),ISD,,,323 W Fourth St  South Boston  MA  02127,6.0,05,2.0,C6,South Boston / South Boston Waterfront,5.0,06,603.0,RL,323 W Fourth St,2127.0,Address,60177.0,42.3376,-71.0514,Constituent Call,"(42.3376, -71.0514)"
474667,101001248351,01/16/2015 10:11:12 AM,01/05/2017 10:11:12 AM,02/04/2015 10:37:49 AM,ONTIME,Closed,Case Closed CORR: Corrected,Contractors Complaint,Inspectional Services,Building,Contractors Complaint,ISD_Building (INTERNAL),ISD,,,INTERSECTION of Seaport Blvd & Sleeper St  Boston  MA,6.0,05,2.0,C6,South Boston / South Boston Waterfront,5.0,Ward 6,601.0,,INTERSECTION Seaport Blvd & Sleeper St,,Intersection,8312.0,42.3532,-71.0485,Constituent Call,"(42.3532, -71.0485)"
474900,101001248670,01/16/2015 01:32:55 PM,01/05/2017 01:32:55 PM,01/29/2015 08:41:27 AM,ONTIME,Closed,Case Closed CORR: Corrected,Contractors Complaint,Inspectional Services,Building,Contractors Complaint,ISD_Building (INTERNAL),ISD,,,51 E Concord St  Roxbury  MA  02118,4.0,1C,2.0,D4,South End,6.0,Ward 8,802.0,CM,51 E Concord St,2118.0,Address,41834.0,42.3367,-71.0737,Constituent Call,"(42.3367, -71.0737)"
475305,101001249274,01/19/2015 07:45:32 AM,01/08/2017 07:45:32 AM,01/20/2015 03:31:02 PM,ONTIME,Closed,Case Closed PERMIS: Permit Issued,Contractors Complaint,Inspectional Services,Building,Contractors Complaint,ISD_Building (INTERNAL),ISD,,,39 N Bennet St  Boston  MA  02113,3.0,1B,1.0,A1,Downtown / Financial District,3.0,Ward 3,302.0,E,39 N Bennet St,2113.0,Address,14397.0,42.3659,-71.0548,Constituent Call,"(42.3659, -71.0548)"
475932,101001249959,01/20/2015 08:14:55 AM,01/09/2017 08:14:54 AM,02/04/2015 10:38:27 AM,ONTIME,Closed,Case Closed VIOISS: Violation Filed,Contractors Complaint,Inspectional Services,Building,Contractors Complaint,ISD_Building (INTERNAL),ISD,,,323 W Fourth St  South Boston  MA  02127,6.0,05,2.0,C6,South Boston / South Boston Waterfront,5.0,06,603.0,RL,323 W Fourth St,2127.0,Address,60177.0,42.3376,-71.0514,Constituent Call,"(42.3376, -71.0514)"
476043,101001250131,01/20/2015 10:22:27 AM,01/09/2017 10:22:27 AM,01/26/2015 09:33:22 AM,ONTIME,Closed,Case Closed REINSP: Issues Found  Re-Inspection,Contractors Complaint,Inspectional Services,Building,Contractors Complaint,ISD_Building (INTERNAL),ISD,,,180 Heath St  Jamaica Plain  MA  02130,9.0,10A,6.0,E13,Jamaica Plain,11.0,Ward 10,1006.0,R3,180 Heath St,2130.0,Address,72320.0,42.3259,-71.1048,Constituent Call,"(42.3259, -71.1048)"
476224,101001250428,01/20/2015 01:44:45 PM,01/09/2017 01:44:44 PM,,ONTIME,Open,,Contractors Complaint,Inspectional Services,Building,Contractors Complaint,ISD_Building (INTERNAL),ISD,,,108 Boston St  Dorchester  MA  02125,6.0,03,2.0,C6,Dorchester,5.0,Ward 7,708.0,R3,108 Boston St,2125.0,Address,17069.0,42.3258,-71.0587,Constituent Call,"(42.3258, -71.0587)"
476364,101001250636,01/20/2015 04:44:47 PM,01/09/2017 04:44:47 PM,01/22/2015 03:20:39 PM,ONTIME,Closed,Case Closed CORR: Corrected,Contractors Complaint,Inspectional Services,Building,Contractors Complaint,ISD_Building (INTERNAL),ISD,,,20 Sheafe St  Boston  MA  02113,3.0,1B,1.0,A1,Downtown / Financial District,3.0,Ward 3,303.0,A,20 Sheafe St,2113.0,Address,126521.0,42.3662,-71.0558,Constituent Call,"(42.3662, -71.0558)"
476701,101001251157,01/21/2015 12:58:38 PM,01/10/2017 12:58:37 PM,01/21/2015 12:59:30 PM,ONTIME,Closed,Case Closed Case Invalid not a contractor complaint,Contractors Complaint,Inspectional Services,Building,Contractors Complaint,ISD_Building (INTERNAL),ISD,,,330 Bowdoin St  Dorchester  MA  02125,7.0,03,3.0,C11,Dorchester,8.0,Ward 15,1504.0,E,330 Bowdoin St,2125.0,Address,192201.0,42.3084,-71.065,Constituent Call,"(42.3084, -71.065)"
477453,101001252373,01/23/2015 09:24:03 AM,01/12/2017 09:24:03 AM,02/25/2015 03:50:48 PM,ONTIME,Closed,Case Closed TFA: Tenant Failed Apt\Was Not Home,Contractors Complaint,Inspectional Services,Building,Contractors Complaint,ISD_Building (INTERNAL),ISD,,,109 Murdock St  Brighton  MA  02135,11.0,04,9.0,D14,Allston / Brighton,15.0,Ward 22,2206.0,R3,109 Murdock St,2135.0,Address,99475.0,42.3534,-71.1459,Constituent Call,"(42.3534, -71.1459)"
485644,101001263497,01/30/2015 04:27:24 AM,01/19/2017 04:27:23 AM,02/25/2015 10:09:16 AM,ONTIME,Closed,Case Closed NOVIO: No Violation Found/No Cause,Contractors Complaint,Inspectional Services,Building,Contractors Complaint,ISD_Building (INTERNAL),ISD,,,880-900 Boylston St  Boston  MA  02199,4.0,1C,2.0,D4,Back Bay,6.0,Ward 4,402.0,E,880-900 Boylston St,2199.0,Address,18415.0,42.3475,-71.0841,Constituent Call,"(42.3475, -71.0841)"
485998,101001264158,01/30/2015 10:15:04 AM,01/19/2017 10:15:04 AM,03/02/2015 01:18:43 PM,ONTIME,Closed,Case Closed NOVIO: No Violation Found/No Cause,Contractors Complaint,Inspectional Services,Building,Contractors Complaint,ISD_Building (INTERNAL),ISD,,,231 Dorchester St  South Boston  MA  02127,6.0,05,2.0,C6,South Boston / South Boston Waterfront,5.0,Ward 7,705.0,E,231 Dorchester St,2127.0,Address,48944.0,42.3332,-71.051,Constituent Call,"(42.3332, -71.051)"
486027,101001264208,01/30/2015 10:29:17 AM,01/19/2017 10:29:17 AM,02/03/2015 09:51:34 AM,ONTIME,Closed,Case Closed NOBASE: No Basis,Contractors Complaint,Inspectional Services,Building,Contractors Complaint,ISD_Building (INTERNAL),ISD,,,461 Walnut Ave  Jamaica Plain  MA  02130,9.0,02,7.0,E13,Jamaica Plain,11.0,11,1105.0,E,461 Walnut Ave,2130.0,Address,141960.0,42.3116,-71.0981,Constituent Call,"(42.3116, -71.0981)"
486032,101001264218,01/30/2015 10:31:43 AM,01/19/2017 10:31:42 AM,02/03/2015 10:40:57 AM,ONTIME,Closed,Case Closed PERMIS: Permit Issued,Contractors Complaint,Inspectional Services,Building,Contractors Complaint,ISD_Building (INTERNAL),ISD,,,10-18 John Eliot Sq  Roxbury  MA  02119,7.0,10B,7.0,B2,Roxbury,13.0,Ward 9,905.0,CM,10-18 John Eliot Sq,2119.0,Address,79850.0,42.3294,-71.0903,Constituent Call,"(42.3294, -71.0903)"
486038,101001264228,01/30/2015 10:34:50 AM,01/19/2017 10:34:50 AM,03/17/2015 03:57:53 PM,ONTIME,Closed,Case Closed NOBASE: No Basis,Contractors Complaint,Inspectional Services,Building,Contractors Complaint,ISD_Building (INTERNAL),ISD,,,INTERSECTION of Huntington Ave & Massachusetts Ave  Boston  MA,4.0,1C,7.0,D4,Back Bay,14.0,Ward 4,405.0,,INTERSECTION Huntington Ave & Massachusetts Ave,,Intersection,6433.0,42.3427,-71.0849,Constituent Call,"(42.3427, -71.0849)"
486179,101001264449,01/30/2015 11:41:34 AM,01/19/2017 11:41:34 AM,02/03/2015 01:17:57 PM,ONTIME,Closed,Case Closed NOVIO: No Violation Found/No Cause,Contractors Complaint,Inspectional Services,Building,Contractors Complaint,ISD_Building (INTERNAL),ISD,,,122-124 Salem St  Boston  MA  02113,3.0,1B,1.0,A1,Downtown / Financial District,3.0,Ward 3,304.0,CL,122-124 Salem St,2113.0,Address,121739.0,42.3649,-71.0557,Constituent Call,"(42.3649, -71.0557)"
493601,101001274906,02/04/2015 01:41:22 PM,01/24/2017 01:41:22 PM,02/12/2015 10:09:51 AM,ONTIME,Closed,Case Closed ROA: Refer to Other Agency/Division,Contractors Complaint,Inspectional Services,Building,Contractors Complaint,ISD_Building (INTERNAL),ISD,,,147 Marcella St  Roxbury  MA  02119,9.0,10B,7.0,B2,Roxbury,13.0,Ward 11,1101.0,R3,147 Marcella St,2119.0,Address,89547.0,42.3255,-71.0965,Constituent Call,"(42.3255, -71.0965)"
493668,101001274998,02/04/2015 01:58:34 PM,01/24/2017 01:58:34 PM,03/13/2015 09:01:14 AM,ONTIME,Closed,Case Closed CORR: Corrected,Contractors Complaint,Inspectional Services,Building,Contractors Complaint,ISD_Building (INTERNAL),ISD,,,909-911 E Second St  South Boston  MA  02127,6.0,05,2.0,C6,South Boston / South Boston Waterfront,5.0,Ward 6,609.0,R2,909-911 E Second St,2127.0,Address,124532.0,42.3373,-71.0268,Constituent Call,"(42.3373, -71.0268)"
493679,101001275017,02/04/2015 02:01:54 PM,01/24/2017 02:01:54 PM,04/08/2015 08:03:13 AM,ONTIME,Closed,Case Closed NOBASE: No Basis,Contractors Complaint,Inspectional Services,Building,Contractors Complaint,ISD_Building (INTERNAL),ISD,,,INTERSECTION of Church St & Piedmont St  Boston  MA,4.0,1C,2.0,A1,Back Bay,6.0,Ward 5,501.0,,INTERSECTION Church St & Piedmont St,,Intersection,3008.0,42.3499,-71.0685,Constituent Call,"(42.3499, -71.0685)"
496224,101001278984,02/05/2015 07:55:32 PM,01/25/2017 07:55:32 PM,02/13/2015 07:57:22 AM,ONTIME,Closed,Case Closed TICKET: Ticket Issued,Contractors Complaint,Inspectional Services,Building,Contractors Complaint,ISD_Building (INTERNAL),ISD,,,410 W Second St  South Boston  MA  02127,6.0,05,2.0,C6,South Boston / South Boston Waterfront,5.0,Ward 6,604.0,R1,410 W Second St,2127.0,Address,124723.0,42.3375,-71.0449,Constituent Call,"(42.3375, -71.0449)"
504415,101001290785,02/12/2015 10:21:36 AM,02/01/2017 10:21:35 AM,,ONTIME,Open,,Contractors Complaint,Inspectional Services,Building,Contractors Complaint,ISD_Building (INTERNAL),ISD,,,25 Athens St  South Boston  MA  02127,6.0,05,2.0,C6,South Boston / South Boston Waterfront,5.0,06,601.0,R1,25 Athens St,2127.0,Address,5766.0,42.343,-71.0564,Constituent Call,"(42.343, -71.0564)"
514156,101001303982,02/18/2015 11:22:09 AM,02/07/2017 11:22:08 AM,,ONTIME,Open,,Contractors Complaint,Inspectional Services,Building,Contractors Complaint,ISD_Building (INTERNAL),ISD,,,147 Marcella St  Roxbury  MA  02119,9.0,10B,7.0,B2,Roxbury,13.0,Ward 11,1101.0,R3,147 Marcella St,2119.0,Address,89547.0,42.3255,-71.0965,Constituent Call,"(42.3255, -71.0965)"
514557,101001304563,02/18/2015 02:43:48 PM,02/07/2017 02:43:47 PM,03/31/2015 08:30:48 AM,ONTIME,Closed,Case Closed NOVIO: No Violation Found/No Cause,Contractors Complaint,Inspectional Services,Building,Contractors Complaint,ISD_Building (INTERNAL),ISD,,,179 Massachusetts Ave  Boston  MA  02115,4.0,10A,7.0,D4,Back Bay,14.0,Ward 4,405.0,CM,179 Massachusetts Ave,2115.0,Address,91981.0,42.3457,-71.0873,Constituent Call,"(42.3457, -71.0873)"
515780,101001306469,02/19/2015 11:16:30 AM,02/08/2017 11:16:30 AM,02/27/2015 03:38:01 PM,ONTIME,Closed,Case Closed VIOISS: Violation Filed,Contractors Complaint,Inspectional Services,Building,Contractors Complaint,ISD_Building (INTERNAL),ISD,,,799 Columbia Rd  Dorchester  MA  02125,7.0,03,2.0,C11,Dorchester,5.0,Ward 7,709.0,R4,799 Columbia Rd,2125.0,Address,35432.0,42.3203,-71.0571,Constituent Call,"(42.3203, -71.0571)"
523201,101001317344,02/26/2015 10:11:44 AM,02/15/2017 10:11:44 AM,03/02/2015 03:07:29 PM,ONTIME,Closed,Case Closed NOVIO: No Violation Found/No Cause,Contractors Complaint,Inspectional Services,Building,Contractors Complaint,ISD_Building (INTERNAL),ISD,,,17-17R Clark St  Boston  MA  02113,3.0,1B,1.0,A1,Downtown / Financial District,3.0,Ward 3,301.0,CM,17-17R Clark St,2113.0,Address,163463.0,42.3651,-71.0527,Constituent Call,"(42.3651, -71.0527)"
526287,101001321944,03/02/2015 07:18:30 PM,02/19/2017 07:18:30 PM,03/09/2015 10:11:56 AM,ONTIME,Closed,Case Closed TICKET: Ticket Issued,Contractors Complaint,Inspectional Services,Building,Contractors Complaint,ISD_Building (INTERNAL),ISD,,,678 Massachusetts Ave  Roxbury  MA  02118,4.0,1C,2.0,D4,South End,6.0,Ward 8,802.0,R4,678 Massachusetts Ave,2118.0,Address,92565.0,42.3357,-71.0756,Constituent Call,"(42.3357, -71.0756)"
526361,101001322051,03/03/2015 07:55:05 AM,02/20/2017 07:55:04 AM,03/20/2015 09:12:09 AM,ONTIME,Closed,Case Closed ADCLSD: Administratively Closed,Contractors Complaint,Inspectional Services,Building,Contractors Complaint,ISD_Building (INTERNAL),ISD,,,INTERSECTION of D St & Gold St  South Boston  MA,6.0,05,2.0,C6,South Boston / South Boston Waterfront,5.0,Ward 6,603.0,,INTERSECTION D St & Gold St,,Intersection,3809.0,42.3378,-71.052,Constituent Call,"(42.3378, -71.052)"
529055,101001326147,03/06/2015 01:47:23 PM,02/23/2017 01:47:23 PM,03/20/2015 08:35:13 AM,ONTIME,Closed,Case Closed NOVIO: No Violation Found/No Cause,Contractors Complaint,Inspectional Services,Building,Contractors Complaint,ISD_Building (INTERNAL),ISD,,,712 E Fifth St  South Boston  MA  02127,6.0,05,2.0,C6,South Boston / South Boston Waterfront,5.0,Ward 6,608.0,CM,712 E Fifth St,2127.0,Address,58017.0,42.3342,-71.0317,Constituent Call,"(42.3342, -71.0317)"
529187,101001326351,03/06/2015 04:10:43 PM,02/23/2017 04:10:42 PM,03/19/2015 03:11:49 PM,ONTIME,Closed,Case Closed NOVIO: No Violation Found/No Cause,Contractors Complaint,Inspectional Services,Building,Contractors Complaint,ISD_Building (INTERNAL),ISD,,,319-329 A St  Boston  MA  02210,6.0,05,2.0,C6,South Boston / South Boston Waterfront,5.0,Ward 6,601.0,I,319-329 A St,2210.0,Address,29.0,42.3489,-71.049,Constituent Call,"(42.3489, -71.049)"
530568,101001328560,03/10/2015 08:54:20 AM,02/27/2017 08:54:20 AM,03/18/2015 08:48:55 AM,ONTIME,Closed,Case Closed NOVIO: No Violation Found/No Cause,Contractors Complaint,Inspectional Services,Building,Contractors Complaint,ISD_Building (INTERNAL),ISD,,,150 S Huntington Ave  Jamaica Plain  MA  02130,9.0,10A,8.0,E13,Jamaica Plain,11.0,Ward 10,1008.0,E,150 S Huntington Ave,2130.0,Address,169852.0,42.3268,-71.1102,Constituent Call,"(42.3268, -71.1102)"
531733,101001330374,03/11/2015 02:33:14 PM,02/28/2017 02:33:14 PM,03/31/2015 03:25:47 PM,ONTIME,Closed,Case Closed ADCLSD: Administratively Closed,Contractors Complaint,Inspectional Services,Building,Contractors Complaint,ISD_Building (INTERNAL),ISD,,,INTERSECTION of G St & E Sixth St  South Boston  MA,6.0,05,2.0,C6,South Boston / South Boston Waterfront,5.0,Ward 7,703.0,,INTERSECTION G St & E Sixth St,,Intersection,5157.0,42.333,-71.0442,Constituent Call,"(42.333, -71.0442)"
532132,101001330986,03/12/2015 09:39:17 AM,03/01/2017 09:39:16 AM,03/24/2015 08:05:37 AM,ONTIME,Closed,Case Closed CORR: Corrected,Contractors Complaint,Inspectional Services,Building,Contractors Complaint,ISD_Building (INTERNAL),ISD,,,846-848 E Broadway  South Boston  MA  02127,6.0,05,2.0,C6,South Boston / South Boston Waterfront,5.0,Ward 6,607.0,R2,846-848 E Broadway,2127.0,Address,21258.0,42.3359,-71.0305,Constituent Call,"(42.3359, -71.0305)"
534069,101001333752,03/16/2015 09:04:18 AM,03/05/2017 09:04:17 AM,04/16/2015 03:20:38 PM,ONTIME,Closed,Case Closed CORR: Corrected,Contractors Complaint,Inspectional Services,Building,Contractors Complaint,ISD_Building (INTERNAL),ISD,,,12 Mosgrove Ave  Roslindale  MA  02131,12.0,02,5.0,E5,Roslindale,10.0,Ward 19,1911.0,R2,12 Mosgrove Ave,2131.0,Address,97922.0,42.2919,-71.123,Constituent Call,"(42.2919, -71.123)"
534510,101001334390,03/16/2015 06:13:32 PM,03/05/2017 06:13:32 PM,03/19/2015 03:07:03 PM,ONTIME,Closed,Case Closed ROA: Refer to Other Agency/Division,Contractors Complaint,Inspectional Services,Building,Contractors Complaint,ISD_Building (INTERNAL),ISD,,,12 Wall St  Charlestown  MA  02129,3.0,1A,1.0,A15,Charlestown,2.0,Ward 2,206.0,R1,12 Wall St,2129.0,Address,141784.0,42.3798,-71.0656,Constituent Call,"(42.3798, -71.0656)"
534803,101001334805,03/17/2015 10:15:37 AM,03/06/2017 10:15:37 AM,04/13/2015 08:19:05 AM,ONTIME,Closed,Case Closed CORR: Corrected,Contractors Complaint,Inspectional Services,Building,Contractors Complaint,ISD_Building (INTERNAL),ISD,,,INTERSECTION of Harrison Ave & Traveler St  Roxbury  MA,4.0,1C,2.0,D4,South End,4.0,Ward 3,308.0,,INTERSECTION Harrison Ave & Traveler St,,Intersection,5699.0,42.3445,-71.064,Constituent Call,"(42.3445, -71.064)"
535722,101001336011,03/18/2015 09:55:18 AM,03/07/2017 09:55:18 AM,03/20/2015 03:38:15 PM,ONTIME,Closed,Case Closed ROA: Refer to Other Agency/Division,Contractors Complaint,Inspectional Services,Building,Contractors Complaint,ISD_Building (INTERNAL),ISD,,,103 E Brookline St  Roxbury  MA  02118,4.0,1C,2.0,D4,South End,6.0,Ward 8,802.0,CM,103 E Brookline St,2118.0,Address,22127.0,42.337,-71.0696,Constituent Call,"(42.337, -71.0696)"
536244,101001336706,03/18/2015 07:05:43 PM,03/07/2017 07:05:43 PM,05/11/2015 10:54:08 AM,ONTIME,Closed,Case Closed. Closed date : 2015-05-11 10:54:08.687 NOBASE: No Basis,Contractors Complaint,Inspectional Services,Building,Contractors Complaint,ISD_Building (INTERNAL),ISD,,,18 Grampian Way  Dorchester  MA  02125,7.0,03,3.0,C11,Dorchester,7.0,Ward 13,1310.0,R2,18 Grampian Way,2125.0,Address,65675.0,42.3112,-71.0516,Constituent Call,"(42.3112, -71.0516)"
536290,101001336756,03/18/2015 09:29:38 PM,03/07/2017 09:29:38 PM,03/19/2015 03:42:59 PM,ONTIME,Closed,Case Closed NOBASE: No Basis,Contractors Complaint,Inspectional Services,Building,Contractors Complaint,ISD_Building (INTERNAL),ISD,,,668 Lagrange St  West Roxbury  MA  02132,12.0,06,6.0,E5,West Roxbury,12.0,Ward 20,2017.0,R1,668 Lagrange St,2132.0,Address,82867.0,42.2881,-71.1661,Constituent Call,"(42.2881, -71.1661)"
536432,101001336976,03/19/2015 09:19:39 AM,03/08/2017 09:19:38 AM,04/09/2015 03:16:55 PM,ONTIME,Closed,Case Closed CORR: Corrected,Contractors Complaint,Inspectional Services,Building,Contractors Complaint,ISD_Building (INTERNAL),ISD,,,488 Dorchester Ave  South Boston  MA  02127,6.0,05,2.0,C6,South Boston / South Boston Waterfront,5.0,07,705.0,I,488 Dorchester Ave,2127.0,Address,48605.0,42.3322,-71.0568,Constituent Call,"(42.3322, -71.0568)"
536447,101001336994,03/19/2015 09:31:31 AM,03/08/2017 09:31:31 AM,03/23/2015 09:33:41 AM,ONTIME,Closed,Case Closed CORR: Corrected,Contractors Complaint,Inspectional Services,Building,Contractors Complaint,ISD_Building (INTERNAL),ISD,,,40 Washburn St  Dorchester  MA  02125,6.0,03,2.0,C6,Dorchester,5.0,Ward 7,708.0,R3,40 Washburn St,2125.0,Address,143413.0,42.3257,-71.0585,Constituent Call,"(42.3257, -71.0585)"
536949,101001337651,03/19/2015 04:15:04 PM,03/08/2017 04:15:03 PM,04/23/2015 08:49:42 AM,ONTIME,Closed,Case Closed ROA: Refer to Other Agency/Division,Contractors Complaint,Inspectional Services,Building,Contractors Complaint,ISD_Building (INTERNAL),ISD,,,341-347 Newbury St  Boston  MA  02115,4.0,1C,8.0,D4,Back Bay,14.0,Ward 5,509.0,C,341-347 Newbury St,2115.0,Address,168069.0,42.3486,-71.0871,Constituent Call,"(42.3486, -71.0871)"
538362,101001339653,03/23/2015 11:20:21 AM,03/12/2017 11:20:21 AM,04/23/2015 03:38:13 PM,ONTIME,Closed,Case Closed ADCLSD: Administratively Closed,Contractors Complaint,Inspectional Services,Building,Contractors Complaint,ISD_Building (INTERNAL),ISD,,,341 Newbury St  Boston  MA  02115,4.0,1C,8.0,D4,Back Bay,14.0,Ward 5,509.0,C,341 Newbury St,2115.0,Address,101563.0,42.3487,-71.0869,Constituent Call,"(42.3487, -71.0869)"
538625,101001339991,03/23/2015 03:20:08 PM,03/12/2017 03:20:07 PM,03/30/2015 08:15:17 AM,ONTIME,Closed,Case Closed ROA: Refer to Other Agency/Division,Contractors Complaint,Inspectional Services,Building,Contractors Complaint,ISD_Building (INTERNAL),ISD,,,147 Marcella St  Roxbury  MA  02119,9.0,10B,7.0,B2,Roxbury,13.0,Ward 11,1101.0,R3,147 Marcella St,2119.0,Address,89547.0,42.3255,-71.0965,Constituent Call,"(42.3255, -71.0965)"
538652,101001340023,03/23/2015 03:49:37 PM,03/12/2017 03:49:36 PM,04/08/2015 07:51:59 AM,ONTIME,Closed,Case Closed PERMIS: Permit Issued,Contractors Complaint,Inspectional Services,Building,Contractors Complaint,ISD_Building (INTERNAL),ISD,,,50 Park Plz  Boston  MA  02116,4.0,1C,2.0,A1,Downtown / Financial District,6.0,05,501.0,C,50 Park Plz,2116.0,Address,157315.0,42.3513,-71.0692,Constituent Call,"(42.3513, -71.0692)"
539220,101001340796,03/24/2015 01:31:33 PM,03/13/2017 01:31:33 PM,05/11/2015 02:32:05 PM,ONTIME,Closed,Case Closed. Closed date : 2015-05-11 14:32:05.36 CORR: Corrected,Contractors Complaint,Inspectional Services,Building,Contractors Complaint,ISD_Building (INTERNAL),ISD,,,INTERSECTION of Harrison Ave & Traveler St  Roxbury  MA,4.0,1C,2.0,D4,South End,4.0,Ward 3,308.0,,INTERSECTION Harrison Ave & Traveler St,,Intersection,5699.0,42.3445,-71.064,Constituent Call,"(42.3445, -71.064)"
540359,101001342359,03/26/2015 09:10:49 AM,03/15/2017 09:10:49 AM,04/08/2015 08:23:39 AM,ONTIME,Closed,Case Closed PERMIS: Permit Issued,Contractors Complaint,Inspectional Services,Building,Contractors Complaint,ISD_Building (INTERNAL),ISD,,,24-30 Peterborough St  Boston  MA  02215,4.0,10A,8.0,D4,Fenway / Kenmore / Audubon Circle / Longwood,14.0,Ward 5,502.0,CM,24-30 Peterborough St,2215.0,Address,168714.0,42.3438,-71.0961,Constituent Call,"(42.3438, -71.0961)"
540374,101001342378,03/26/2015 09:20:54 AM,03/15/2017 09:20:54 AM,04/07/2015 05:29:30 PM,ONTIME,Closed,Case Closed ADCLSD: Administratively Closed,Contractors Complaint,Inspectional Services,Building,Contractors Complaint,ISD_Building (INTERNAL),ISD,,,171-173 W Eighth St  South Boston  MA  02127,6.0,05,2.0,C6,South Boston / South Boston Waterfront,5.0,Ward 7,705.0,CM,171-173 W Eighth St,2127.0,Address,52526.0,42.334,-71.0527,Constituent Call,"(42.334, -71.0527)"
540477,101001342520,03/26/2015 10:51:07 AM,03/15/2017 10:51:07 AM,03/27/2015 09:01:35 AM,ONTIME,Closed,Case Closed CORR: Corrected,Contractors Complaint,Inspectional Services,Building,Contractors Complaint,ISD_Building (INTERNAL),ISD,,,245 Sumner St  East Boston  MA  02128,1.0,09,1.0,A7,East Boston,1.0,Ward 1,103.0,I,245 Sumner St,2128.0,Address,132336.0,42.3679,-71.0385,Constituent Call,"(42.3679, -71.0385)"
540622,101001342725,03/26/2015 01:17:20 PM,03/15/2017 01:17:20 PM,03/27/2015 09:53:11 AM,ONTIME,Closed,Case Closed ADCLSD: Administratively Closed,Contractors Complaint,Inspectional Services,Building,Contractors Complaint,ISD_Building (INTERNAL),ISD,,,INTERSECTION of Sullivan St & Wesley St  Charlestown  MA,3.0,1A,1.0,A15,Charlestown,2.0,Ward 2,206.0,,INTERSECTION Sullivan St & Wesley St,,Intersection,8455.0,42.3785,-71.0659,Constituent Call,"(42.3785, -71.0659)"
541082,101001343444,03/27/2015 11:37:04 AM,03/16/2017 11:37:04 AM,04/03/2015 08:15:49 AM,ONTIME,Closed,Case Closed ROA: Refer to Other Agency/Division,Contractors Complaint,Inspectional Services,Building,Contractors Complaint,ISD_Building (INTERNAL),ISD,,,240-244 Amory St  Jamaica Plain  MA  02130,9.0,02,6.0,E13,Jamaica Plain,11.0,11,1106.0,,240-244 Amory St,2130.0,Address,344846.0,42.3594,-71.0587,Constituent Call,"(0, 0)"
541557,101001344051,03/28/2015 09:28:05 AM,03/17/2017 09:28:05 AM,03/28/2015 09:35:33 AM,ONTIME,Closed,Case Closed Case Invalid Opened wrong eform.  See case no. 1344052.,Contractors Complaint,Inspectional Services,Building,Contractors Complaint,ISD_Building (INTERNAL),ISD,,,INTERSECTION of Centre St & Mount Vernon St  West Roxbury  MA,12.0,06,6.0,E5,West Roxbury,12.0,Ward 20,2014.0,,INTERSECTION Centre St & Mount Vernon St,,Intersection,2630.0,42.2829,-71.1573,Constituent Call,"(42.2829, -71.1573)"
542651,101001345620,03/31/2015 09:31:59 AM,03/20/2017 09:31:58 AM,04/02/2015 08:27:51 AM,ONTIME,Closed,Case Closed ADCLSD: Administratively Closed,Contractors Complaint,Inspectional Services,Building,Contractors Complaint,ISD_Building (INTERNAL),ISD,,,245 Commonwealth Ave  Boston  MA  02116,4.0,1C,8.0,D4,Back Bay,14.0,Ward 5,508.0,R4,245 Commonwealth Ave,2116.0,Address,39776.0,42.351,-71.0831,Constituent Call,"(42.351, -71.0831)"
542799,101001345821,03/31/2015 11:53:17 AM,03/20/2017 11:53:17 AM,05/14/2015 03:09:14 PM,ONTIME,Closed,Case Closed. Closed date : 2015-05-14 15:09:14.633 ROA: Refer to Other Agency/Division,Contractors Complaint,Inspectional Services,Building,Contractors Complaint,ISD_Building (INTERNAL),ISD,,,50 Union Park  Roxbury  MA  02118,4.0,1C,2.0,D4,South End,4.0,Ward 3,307.0,R4,50 Union Park,2118.0,Address,139206.0,42.3433,-71.0723,Constituent Call,"(42.3433, -71.0723)"
542906,101001345951,03/31/2015 01:30:08 PM,03/20/2017 01:30:08 PM,04/02/2015 03:18:40 PM,ONTIME,Closed,Case Closed ADCLSD: Administratively Closed,Contractors Complaint,Inspectional Services,Building,Contractors Complaint,ISD_Building (INTERNAL),ISD,,,84 Glenellen Rd  West Roxbury  MA  02132,12.0,06,6.0,E5,West Roxbury,12.0,Ward 20,2015.0,R1,84 Glenellen Rd,2132.0,Address,64381.0,42.2676,-71.1635,Constituent Call,"(42.2676, -71.1635)"
542916,101001345967,03/31/2015 01:39:01 PM,03/20/2017 01:39:01 PM,04/15/2015 08:40:40 AM,ONTIME,Closed,Case Closed NOBASE: No Basis,Contractors Complaint,Inspectional Services,Building,Contractors Complaint,ISD_Building (INTERNAL),ISD,,,36-38 Melrose St  Boston  MA  02116,4.0,1C,2.0,A1,Back Bay,6.0,Ward 5,501.0,R2,36-38 Melrose St,2116.0,Address,93971.0,42.3491,-71.0685,Constituent Call,"(42.3491, -71.0685)"
543273,101001346480,04/01/2015 08:38:50 AM,03/21/2017 08:38:49 AM,04/03/2015 07:56:16 AM,ONTIME,Closed,Case Closed NOBASE: No Basis,Contractors Complaint,Inspectional Services,Building,Contractors Complaint,ISD_Building (INTERNAL),ISD,,,47 Woodbrier Rd  West Roxbury  MA  02132,12.0,06,6.0,E5,West Roxbury,12.0,Ward 20,2005.0,R1,47 Woodbrier Rd,2132.0,Address,151452.0,42.2715,-71.1595,Constituent Call,"(42.2715, -71.1595)"
543290,101001346507,04/01/2015 08:50:27 AM,03/21/2017 08:50:27 AM,04/03/2015 08:11:03 AM,ONTIME,Closed,Case Closed NOBASE: No Basis,Contractors Complaint,Inspectional Services,Building,Contractors Complaint,ISD_Building (INTERNAL),ISD,,,266 Lamartine St  Jamaica Plain  MA  02130,9.0,02,6.0,E13,Jamaica Plain,11.0,19,1906.0,R1,266 Lamartine St,2130.0,Address,83549.0,42.3139,-71.1066,Constituent Call,"(42.3139, -71.1066)"
543300,101001346520,04/01/2015 08:56:04 AM,03/21/2017 08:56:03 AM,04/06/2015 04:00:09 PM,ONTIME,Closed,Case Closed ROA: Refer to Other Agency/Division,Contractors Complaint,Inspectional Services,Building,Contractors Complaint,ISD_Building (INTERNAL),ISD,,,INTERSECTION of Sullivan St & Wesley St  Charlestown  MA,3.0,1A,1.0,A15,Charlestown,2.0,Ward 2,206.0,,INTERSECTION Sullivan St & Wesley St,,Intersection,8455.0,42.3785,-71.0659,Constituent Call,"(42.3785, -71.0659)"
543303,101001346525,04/01/2015 08:59:23 AM,03/21/2017 08:59:23 AM,04/13/2015 08:18:29 AM,ONTIME,Closed,Case Closed CORR: Corrected,Contractors Complaint,Inspectional Services,Building,Contractors Complaint,ISD_Building (INTERNAL),ISD,,,INTERSECTION of Harrison Ave & Traveler St  Roxbury  MA,4.0,1C,2.0,D4,South End,4.0,Ward 3,308.0,,INTERSECTION Harrison Ave & Traveler St,,Intersection,5699.0,42.3445,-71.064,Constituent Call,"(42.3445, -71.064)"
544186,101001347720,04/02/2015 11:25:24 AM,03/22/2017 11:25:24 AM,04/15/2015 09:53:42 AM,ONTIME,Closed,Case Closed CORR: Corrected,Contractors Complaint,Inspectional Services,Building,Contractors Complaint,ISD_Building (INTERNAL),ISD,,,INTERSECTION of Lamartine St & Lamartine Ter  Jamaica Plain  MA,9.0,02,6.0,E13,Jamaica Plain,11.0,Ward 19,1906.0,,INTERSECTION Lamartine St & Lamartine Ter,,Intersection,6738.0,42.3138,-71.1069,Constituent Call,"(42.3138, -71.1069)"
544191,101001347728,04/02/2015 11:37:06 AM,03/22/2017 11:37:05 AM,04/23/2015 08:52:58 AM,ONTIME,Closed,Case Closed ADCLSD: Administratively Closed,Contractors Complaint,Inspectional Services,Building,Contractors Complaint,ISD_Building (INTERNAL),ISD,,,273-275 Lamartine St  Jamaica Plain  MA  02130,9.0,02,6.0,E13,Jamaica Plain,11.0,Ward 19,1904.0,R3,273-275 Lamartine St,2130.0,Address,83555.0,42.3138,-71.1072,Constituent Call,"(42.3138, -71.1072)"
544211,101001347753,04/02/2015 11:48:59 AM,03/22/2017 11:48:58 AM,04/09/2015 03:19:27 PM,ONTIME,Closed,Case Closed ADCLSD: Administratively Closed,Contractors Complaint,Inspectional Services,Building,Contractors Complaint,ISD_Building (INTERNAL),ISD,,,INTERSECTION of P St & E Second St  South Boston  MA,6.0,05,2.0,C6,South Boston / South Boston Waterfront,5.0,Ward 6,609.0,,INTERSECTION P St & E Second St,,Intersection,7757.0,42.3375,-71.0272,Constituent Call,"(42.3375, -71.0272)"
544989,101001348862,04/03/2015 02:08:55 PM,03/23/2017 02:08:54 PM,04/07/2015 08:39:54 AM,ONTIME,Closed,Case Closed REINSP: Issues Found  Re-Inspection,Contractors Complaint,Inspectional Services,Building,Contractors Complaint,ISD_Building (INTERNAL),ISD,,,47 Woodbrier Rd  West Roxbury  MA  02132,12.0,06,6.0,E5,West Roxbury,12.0,Ward 20,2005.0,R1,47 Woodbrier Rd,2132.0,Address,151452.0,42.2715,-71.1595,Constituent Call,"(42.2715, -71.1595)"
545632,101001349749,04/06/2015 08:02:14 AM,03/26/2017 08:02:13 AM,04/08/2015 09:13:28 AM,ONTIME,Closed,Case Closed ROA: Refer to Other Agency/Division,Contractors Complaint,Inspectional Services,Building,Contractors Complaint,ISD_Building (INTERNAL),ISD,,,936 Dorchester Ave  Dorchester  MA  02125,7.0,03,3.0,C11,Dorchester,7.0,Ward 13,1307.0,C,936 Dorchester Ave,2125.0,Address,48784.0,42.3189,-71.0565,Constituent Call,"(42.3189, -71.0565)"
545803,101001349988,04/06/2015 10:13:32 AM,03/26/2017 10:13:32 AM,04/08/2015 08:53:20 AM,ONTIME,Closed,Case Closed NOBASE: No Basis,Contractors Complaint,Inspectional Services,Building,Contractors Complaint,ISD_Building (INTERNAL),ISD,,,113 Richmond St  Dorchester  MA  02124,8.0,07,3.0,C11,Dorchester,7.0,Ward 17,1713.0,R2,113 Richmond St,2124.0,Address,115793.0,42.2748,-71.0635,Self Service,"(42.2748, -71.0635)"
546788,101001351325,04/07/2015 03:53:51 PM,03/27/2017 03:53:51 PM,04/16/2015 03:28:46 PM,ONTIME,Closed,Case Closed ADCLSD: Administratively Closed,Contractors Complaint,Inspectional Services,Building,Contractors Complaint,ISD_Building (INTERNAL),ISD,,,166 W Canton St  Roxbury  MA  02118,4.0,1C,2.0,D4,South End,6.0,Ward 4,401.0,R1,166 W Canton St,2118.0,Address,25591.0,42.3433,-71.0757,Constituent Call,"(42.3433, -71.0757)"
547856,101001352674,04/09/2015 09:24:22 AM,03/29/2017 09:24:21 AM,04/23/2015 09:15:27 AM,ONTIME,Closed,Case Closed NOBASE: No Basis,Contractors Complaint,Inspectional Services,Building,Contractors Complaint,ISD_Building (INTERNAL),ISD,,,90 Cushing Ave  Dorchester  MA  02125,7.0,03,3.0,C11,Dorchester,7.0,Ward 13,1306.0,E,90 Cushing Ave,2125.0,Address,45189.0,42.3138,-71.0632,Constituent Call,"(42.3138, -71.0632)"
547932,101001352772,04/09/2015 10:26:31 AM,03/29/2017 10:26:31 AM,05/13/2015 09:47:27 AM,ONTIME,Closed,Case Closed. Closed date : 2015-05-13 09:47:27.26 NOVIO: No Violation Found/No Cause,Contractors Complaint,Inspectional Services,Building,Contractors Complaint,ISD_Building (INTERNAL),ISD,,,68 Beachview Rd  East Boston  MA  02128,1.0,09,1.0,A7,East Boston,1.0,01,114.0,,68 Beachview Rd,2128.0,Address,344673.0,42.3594,-71.0587,Constituent Call,"(0, 0)"
548228,101001353209,04/09/2015 06:21:52 PM,03/29/2017 06:21:52 PM,04/09/2015 06:24:39 PM,ONTIME,Closed,Case Closed ADCLSD: Administratively Closed,Contractors Complaint,Inspectional Services,Building,Contractors Complaint,ISD_Building (INTERNAL),ISD,,,124-126 Hillside St  Mission Hill  MA  02120,9.0,10A,8.0,B2,Mission Hill,14.0,Ward 10,1005.0,R2,124-126 Hillside St,2120.0,Address,74162.0,42.3308,-71.1049,Constituent Call,"(42.3308, -71.1049)"
548234,101001353218,04/09/2015 06:37:45 PM,03/29/2017 06:37:45 PM,04/16/2015 03:27:06 PM,ONTIME,Closed,Case Closed NOBASE: No Basis,Contractors Complaint,Inspectional Services,Building,Contractors Complaint,ISD_Building (INTERNAL),ISD,,,166 W Canton St  Roxbury  MA  02118,4.0,1C,2.0,D4,South End,6.0,Ward 4,401.0,R1,166 W Canton St,2118.0,Address,25591.0,42.3433,-71.0757,Constituent Call,"(42.3433, -71.0757)"
548303,101001353327,04/10/2015 08:23:08 AM,03/30/2017 08:23:07 AM,04/14/2015 09:11:24 AM,ONTIME,Closed,Case Closed CORR: Corrected,Contractors Complaint,Inspectional Services,Building,Contractors Complaint,ISD_Building (INTERNAL),ISD,,,2 Bellflower St  Dorchester  MA  02125,6.0,03,2.0,C6,Dorchester,5.0,Ward 7,708.0,R1,2 Bellflower St,2125.0,Address,14015.0,42.3241,-71.0573,Constituent Call,"(42.3241, -71.0573)"
549280,101001354699,04/13/2015 09:23:28 AM,04/02/2017 09:23:27 AM,04/15/2015 10:00:30 AM,ONTIME,Closed,Case Closed VIOCOR: Violation Corrected,Contractors Complaint,Inspectional Services,Building,Contractors Complaint,ISD_Building (INTERNAL),ISD,,,41 Grove St  Boston  MA  02114,3.0,1B,8.0,A1,Beacon Hill,14.0,Ward 5,504.0,R4,41 Grove St,2114.0,Address,67552.0,42.3598,-71.0688,Constituent Call,"(42.3598, -71.0688)"
549335,101001354779,04/13/2015 10:14:16 AM,04/02/2017 10:14:16 AM,04/21/2015 12:41:34 PM,ONTIME,Closed,Case Closed REINSP: Issues Found  Re-Inspection,Contractors Complaint,Inspectional Services,Building,Contractors Complaint,ISD_Building (INTERNAL),ISD,,,42-44 Hutchings St  Dorchester  MA  02121,9.0,10B,7.0,B2,Roxbury,13.0,Ward 12,1207.0,CM,42-44 Hutchings St,2121.0,Address,76911.0,42.3102,-71.0895,Self Service,"(42.3102, -71.0895)"
549743,101001355341,04/13/2015 04:57:41 PM,04/02/2017 04:57:41 PM,04/21/2015 08:17:19 AM,ONTIME,Closed,Case Closed NOBASE: No Basis,Contractors Complaint,Inspectional Services,Building,Contractors Complaint,ISD_Building (INTERNAL),ISD,,,237 Marlborough St  Boston  MA  02116,4.0,1C,8.0,D4,Back Bay,14.0,Ward 5,508.0,R4,237 Marlborough St,2116.0,Address,90705.0,42.3523,-71.0818,Constituent Call,"(42.3523, -71.0818)"
550026,101001355762,04/14/2015 09:54:12 AM,04/03/2017 09:54:12 AM,04/15/2015 03:00:47 PM,ONTIME,Closed,Case Closed NOVIO: No Violation Found/No Cause,Contractors Complaint,Inspectional Services,Building,Contractors Complaint,ISD_Building (INTERNAL),ISD,,,519 Shawmut Ave  Roxbury  MA  02118,4.0,1C,7.0,D4,South End,6.0,09,902.0,,519 Shawmut Ave,2118.0,Address,347109.0,42.3594,-71.0587,Constituent Call,"(0, 0)"
550054,101001355802,04/14/2015 10:07:49 AM,04/03/2017 10:07:49 AM,05/11/2015 09:57:05 AM,ONTIME,Closed,Case Closed. Closed date : 2015-05-11 09:57:05.1 NOACC: Closed-No Access,Contractors Complaint,Inspectional Services,Building,Contractors Complaint,ISD_Building (INTERNAL),ISD,,,7 Nonquit St  Dorchester  MA  02125,7.0,03,7.0,B2,Dorchester,13.0,Ward 13,1305.0,E,7 Nonquit St,2125.0,Address,103068.0,42.318,-71.0683,Constituent Call,"(42.318, -71.0683)"
550062,101001355812,04/14/2015 10:11:34 AM,04/03/2017 10:11:33 AM,12/07/2015 10:03:29 AM,ONTIME,Closed,Case Closed. Closed date : 2015-12-07 10:03:29.673 ADCLSD: Administratively Closed,Contractors Complaint,Inspectional Services,Building,Contractors Complaint,ISD_Building (INTERNAL),ISD,,,53 Peter Parley Rd  Jamaica Plain  MA  02130,9.0,02,6.0,E13,Jamaica Plain,11.0,Ward 11,1107.0,R1,53 Peter Parley Rd,2130.0,Address,109691.0,42.3104,-71.0999,Constituent Call,"(42.3104, -71.0999)"
551467,101001357733,04/16/2015 09:14:29 AM,04/05/2017 09:14:29 AM,04/16/2015 09:27:00 AM,ONTIME,Closed,Case Closed Case Invalid,Contractors Complaint,Inspectional Services,Building,Contractors Complaint,ISD_Building (INTERNAL),ISD,,,350 Longwood Ave  Boston  MA  02115,4.0,10A,8.0,B2,Fenway / Kenmore / Audubon Circle / Longwood,14.0,Ward 4,410.0,RC,350 Longwood Ave,2115.0,Address,266047.0,42.3384,-71.1068,Constituent Call,"(42.3384, -71.1068)"
551925,101001358393,04/16/2015 04:45:49 PM,04/05/2017 04:45:49 PM,04/17/2015 03:37:39 PM,ONTIME,Closed,Case Closed NOVIO: No Violation Found/No Cause,Contractors Complaint,Inspectional Services,Building,Contractors Complaint,ISD_Building (INTERNAL),ISD,,,54 Blue Hill Ave  Roxbury  MA  02119,7.0,03,7.0,B2,Roxbury,13.0,Ward 8,807.0,R4,54 Blue Hill Ave,2119.0,Address,162125.0,42.3232,-71.0761,Constituent Call,"(42.3232, -71.0761)"
552139,101001358717,04/17/2015 09:54:14 AM,04/06/2017 09:54:14 AM,04/30/2015 10:58:44 AM,ONTIME,Closed,Case Closed ROA: Refer to Other Agency/Division,Contractors Complaint,Inspectional Services,Building,Contractors Complaint,ISD_Building (INTERNAL),ISD,,,INTERSECTION of Commonwealth Ave & Hospital Rd  Brighton  MA,11.0,04,9.0,D14,Allston / Brighton,15.0,Ward 21,2109.0,,INTERSECTION Commonwealth Ave & Hospital Rd,,Intersection,3356.0,42.3477,-71.1409,Constituent Call,"(42.3477, -71.1409)"
552733,101001359589,04/18/2015 04:38:15 PM,04/07/2017 04:38:15 PM,05/13/2015 10:04:29 AM,ONTIME,Closed,Case Closed. Closed date : 2015-05-13 10:04:29.947 NOBASE: No Basis,Contractors Complaint,Inspectional Services,Building,Contractors Complaint,ISD_Building (INTERNAL),ISD,,,INTERSECTION of Prescott St & Saratoga St  East Boston  MA,1.0,09,1.0,A7,East Boston,1.0,Ward 1,110.0,,INTERSECTION Prescott St & Saratoga St,,Intersection,7961.0,42.379,-71.0298,Constituent Call,"(42.379, -71.0298)"
553114,101001360118,04/20/2015 03:39:05 PM,04/09/2017 03:39:05 PM,04/29/2015 10:20:17 AM,ONTIME,Closed,Case Closed CORR: Corrected,Contractors Complaint,Inspectional Services,Building,Contractors Complaint,ISD_Building (INTERNAL),ISD,,,3 Pine Tree Ln  Hyde Park  MA  02136,12.0,08,5.0,E18,Hyde Park,10.0,Ward 18,1819.0,R1,3 Pine Tree Ln,2136.0,Address,110832.0,42.2497,-71.1405,Constituent Call,"(42.2497, -71.1405)"
554439,101001361979,04/23/2015 07:27:41 AM,04/12/2017 07:27:41 AM,04/27/2015 09:18:45 AM,ONTIME,Closed,Case Closed NOBASE: No Basis,Contractors Complaint,Inspectional Services,Building,Contractors Complaint,ISD_Building (INTERNAL),ISD,,,1663 Columbia Rd  South Boston  MA  02127,6.0,05,2.0,C6,South Boston / South Boston Waterfront,5.0,07,701.0,E,1663 Columbia Rd,2127.0,Address,156496.0,42.3291,-71.0352,Constituent Call,"(42.3291, -71.0352)"
555404,101001363293,04/24/2015 02:19:27 PM,04/13/2017 02:19:27 PM,04/24/2015 02:24:11 PM,ONTIME,Closed,Case Closed Case Invalid,Contractors Complaint,Inspectional Services,Building,Contractors Complaint,ISD_Building (INTERNAL),ISD,,,47 B St  South Boston  MA  02127,6.0,05,2.0,C6,South Boston / South Boston Waterfront,5.0,06,601.0,,47 B St,2127.0,Address,161746.0,42.3396,-71.0551,Constituent Call,"(42.3396, -71.0551)"
555406,101001363296,04/24/2015 02:22:42 PM,04/13/2017 02:22:42 PM,05/01/2015 03:19:07 PM,ONTIME,Closed,Case Closed CORR: Corrected,Contractors Complaint,Inspectional Services,Building,Contractors Complaint,ISD_Building (INTERNAL),ISD,,,47 B St  South Boston  MA  02127,6.0,05,2.0,C6,South Boston / South Boston Waterfront,5.0,06,601.0,,47 B St,2127.0,Address,161746.0,42.3396,-71.0551,Constituent Call,"(42.3396, -71.0551)"
556859,101001365350,04/28/2015 10:40:20 AM,04/17/2017 10:40:20 AM,05/08/2015 10:21:34 AM,ONTIME,Closed,Case Closed. Closed date : 2015-05-08 10:21:34.58 NOVIO: No Violation Found/No Cause,Contractors Complaint,Inspectional Services,Building,Contractors Complaint,ISD_Building (INTERNAL),ISD,,,1 Morton Pl  East Boston  MA  02128,1.0,09,1.0,A7,East Boston,1.0,Ward 1,106.0,R2,1 Morton Pl,2128.0,Address,97598.0,42.3761,-71.0384,Constituent Call,"(42.3761, -71.0384)"
557616,101001366351,04/29/2015 10:27:56 AM,04/18/2017 10:27:56 AM,05/18/2015 10:14:12 AM,ONTIME,Closed,Case Closed. Closed date : 2015-05-18 10:14:12.417 NOBASE: No Basis,Contractors Complaint,Inspectional Services,Building,Contractors Complaint,ISD_Building (INTERNAL),ISD,,,8-10 Winter St  Hyde Park  MA  02136,12.0,08,5.0,E18,Hyde Park,10.0,Ward 18,1818.0,R2,8-10 Winter St,2136.0,Address,171888.0,42.2485,-71.1279,Constituent Call,"(42.2485, -71.1279)"
557667,101001366429,04/29/2015 11:21:19 AM,04/18/2017 11:21:19 AM,05/07/2015 11:51:37 AM,ONTIME,Closed,Case Closed. Closed date : 2015-05-07 11:51:37.763 NOBASE: No Basis,Contractors Complaint,Inspectional Services,Building,Contractors Complaint,ISD_Building (INTERNAL),ISD,,,840 E Broadway  South Boston  MA  02127,6.0,05,2.0,C6,South Boston / South Boston Waterfront,5.0,Ward 6,607.0,R3,840 E Broadway,2127.0,Address,21250.0,42.3359,-71.0308,Constituent Call,"(42.3359, -71.0308)"
557702,101001366476,04/29/2015 11:56:00 AM,04/18/2017 11:56:00 AM,05/01/2015 08:07:40 AM,ONTIME,Closed,Case Closed NOBASE: No Basis,Contractors Complaint,Inspectional Services,Building,Contractors Complaint,ISD_Building (INTERNAL),ISD,,,INTERSECTION of Brookline Ave & Riverway  Boston  MA,4.0,10A,8.0,B2,Fenway / Kenmore / Audubon Circle / Longwood,14.0,Ward 10,1004.0,,INTERSECTION Brookline Ave & Riverway,,Intersection,2059.0,42.3363,-71.1101,Constituent Call,"(42.3363, -71.1101)"
557865,101001366745,04/29/2015 04:00:27 PM,04/18/2017 04:00:27 PM,04/29/2015 04:06:35 PM,ONTIME,Closed,Case Closed Case Invalid,Contractors Complaint,Inspectional Services,Building,Contractors Complaint,ISD_Building (INTERNAL),ISD,,,24 Ruskin St  West Roxbury  MA  02132,12.0,06,6.0,E5,West Roxbury,12.0,Ward 20,2020.0,R1,24 Ruskin St,2132.0,Address,119532.0,42.2909,-71.1593,Constituent Call,"(42.2909, -71.1593)"
557874,101001366756,04/29/2015 04:07:35 PM,04/18/2017 04:07:35 PM,05/07/2015 11:50:41 AM,ONTIME,Closed,Case Closed. Closed date : 2015-05-07 11:50:41.14 NOBASE: No Basis,Contractors Complaint,Inspectional Services,Building,Contractors Complaint,ISD_Building (INTERNAL),ISD,,,INTERSECTION of Dorchester St & Jenkins St  South Boston  MA,6.0,05,2.0,C6,South Boston / South Boston Waterfront,5.0,Ward 7,706.0,,INTERSECTION Dorchester St & Jenkins St,,Intersection,4199.0,42.331,-71.0539,Constituent Call,"(42.331, -71.0539)"
558656,101001367865,05/01/2015 08:52:24 AM,04/20/2017 08:52:24 AM,05/22/2015 08:25:46 AM,ONTIME,Closed,Case Closed. Closed date : 2015-05-22 08:25:46.213 VIOLFND: Violation Found,Contractors Complaint,Inspectional Services,Building,Contractors Complaint,ISD_Building (INTERNAL),ISD,,,22-24 Lyndhurst St  Dorchester  MA  02124,8.0,07,4.0,C11,Dorchester,8.0,Ward 17,1706.0,R1,22-24 Lyndhurst St,2124.0,Address,87869.0,42.2927,-71.0708,Constituent Call,"(42.2927, -71.0708)"
558673,101001367884,05/01/2015 09:09:39 AM,04/20/2017 09:09:39 AM,06/23/2015 08:11:31 AM,ONTIME,Closed,Case Closed. Closed date : 2015-06-23 08:11:31.77 NOVIO: No Violation Found/No Cause,Contractors Complaint,Inspectional Services,Building,Contractors Complaint,ISD_Building (INTERNAL),ISD,,,266-266B Lamartine St  Jamaica Plain  MA  02130,9.0,02,6.0,E13,Jamaica Plain,11.0,19,1906.0,,266-266B Lamartine St,2130.0,Address,354109.0,42.3594,-71.0587,Constituent Call,"(0, 0)"
558687,101001367903,05/01/2015 09:19:50 AM,04/20/2017 09:19:50 AM,,ONTIME,Open,,Contractors Complaint,Inspectional Services,Building,Contractors Complaint,ISD_Building (INTERNAL),ISD,,,INTERSECTION of Heath St & Walden St  Mission Hill  MA,9.0,10A,6.0,E13,Mission Hill,11.0,Ward 10,1006.0,,INTERSECTION Heath St & Walden St,,Intersection,5844.0,42.3261,-71.1046,Constituent Call,"(42.3261, -71.1046)"
558782,101001368042,05/01/2015 11:04:58 AM,04/20/2017 11:04:57 AM,05/06/2015 09:20:17 AM,ONTIME,Closed,Case Closed. Closed date : 2015-05-06 09:20:17.567 NOBASE: No Basis,Contractors Complaint,Inspectional Services,Building,Contractors Complaint,ISD_Building (INTERNAL),ISD,,,4945 Washington St  West Roxbury  MA  02132,12.0,06,6.0,E5,West Roxbury,12.0,20,2010.0,CL,4945 Washington St,2132.0,Address,145404.0,42.2686,-71.1497,Constituent Call,"(42.2686, -71.1497)"
558812,101001368086,05/01/2015 11:49:54 AM,04/20/2017 11:49:54 AM,05/06/2015 10:08:00 AM,ONTIME,Closed,Case Closed. Closed date : 2015-05-06 10:08:00.32 NOBASE: No Basis,Contractors Complaint,Inspectional Services,Building,Contractors Complaint,ISD_Building (INTERNAL),ISD,,,125 Temple St  West Roxbury  MA  02132,12.0,06,6.0,E5,West Roxbury,12.0,Ward 20,2013.0,R1,125 Temple St,2132.0,Address,134244.0,42.2815,-71.1637,Constituent Call,"(42.2815, -71.1637)"
559676,101001369481,05/04/2015 11:44:00 AM,04/23/2017 11:44:31 AM,05/05/2015 03:36:45 PM,ONTIME,Closed,Case Closed. Closed date : 2015-05-05 15:36:45.097 CORR: Corrected,Contractors Complaint,Inspectional Services,Building,Contractors Complaint,ISD_Building (INTERNAL),ISD,,,17 Court St  Boston  MA  02108,3.0,1B,1.0,A1,Downtown / Financial District,3.0,Ward 3,306.0,E,17 Court St,2108.0,Address,163942.0,42.3593,-71.0584,Constituent Call,"(42.3593, -71.0584)"
559832,101001369710,05/04/2015 02:27:00 PM,04/23/2017 02:27:48 PM,05/13/2015 09:31:24 AM,ONTIME,Closed,Case Closed. Closed date : 2015-05-13 09:31:24.543 NOVIO: No Violation Found/No Cause,Contractors Complaint,Inspectional Services,Building,Contractors Complaint,ISD_Building (INTERNAL),ISD,,,62 Bremen St  East Boston  MA  02128,1.0,09,1.0,A7,East Boston,1.0,Ward 1,103.0,R3,62 Bremen St,2128.0,Address,19885.0,42.3702,-71.0376,Constituent Call,"(42.3702, -71.0376)"
560152,101001370215,05/05/2015 09:13:00 AM,04/24/2017 09:13:43 AM,06/05/2015 03:32:47 PM,ONTIME,Closed,Case Closed. Closed date : 2015-06-05 15:32:47.17 CORR: Corrected,Contractors Complaint,Inspectional Services,Building,Contractors Complaint,ISD_Building (INTERNAL),ISD,,,11 Atlantic St  South Boston  MA  02127,6.0,05,2.0,C6,South Boston / South Boston Waterfront,5.0,Ward 7,704.0,R1,11 Atlantic St,2127.0,Address,6361.0,42.3342,-71.0464,Constituent Call,"(42.3342, -71.0464)"
560162,101001370228,05/05/2015 09:22:00 AM,04/24/2017 09:22:01 AM,05/11/2015 10:15:36 AM,ONTIME,Closed,Case Closed. Closed date : 2015-05-11 10:15:36.36 NOBASE: No Basis,Contractors Complaint,Inspectional Services,Building,Contractors Complaint,ISD_Building (INTERNAL),ISD,,,34-36 Grampian Way  Dorchester  MA  02125,7.0,03,3.0,C11,Dorchester,7.0,13,1310.0,,34-36 Grampian Way,2125.0,Address,352806.0,42.3594,-71.0587,Constituent Call,"(0, 0)"
560187,101001370260,05/05/2015 09:43:00 AM,04/24/2017 09:43:59 AM,05/12/2015 02:35:42 PM,ONTIME,Closed,Case Closed. Closed date : 2015-05-12 14:35:42.86 ADCLSD: Administratively Closed,Contractors Complaint,Inspectional Services,Building,Contractors Complaint,ISD_Building (INTERNAL),ISD,,,246 Seaver St  Dorchester  MA  02121,9.0,10B,7.0,B2,Roxbury,13.0,Ward 12,1207.0,E,246 Seaver St,2121.0,Address,124160.0,42.3068,-71.087,Constituent Call,"(42.3068, -71.087)"
560199,101001370275,05/05/2015 09:53:00 AM,04/24/2017 09:53:40 AM,05/18/2015 03:31:22 PM,ONTIME,Closed,Case Closed. Closed date : 2015-05-18 15:31:22.443 ROA: Refer to Other Agency/Division,Contractors Complaint,Inspectional Services,Building,Contractors Complaint,ISD_Building (INTERNAL),ISD,,,55 Cliffmont St  Roslindale  MA  02131,12.0,08,5.0,E18,Roslindale,10.0,18,1809.0,,55 Cliffmont St,2131.0,Address,350242.0,42.3594,-71.0587,Constituent Call,"(0, 0)"
560475,101001370634,05/05/2015 01:52:00 PM,04/24/2017 01:52:12 PM,05/08/2015 02:28:10 PM,ONTIME,Closed,Case Closed. Closed date : 2015-05-08 14:28:10.38 NOVIO: No Violation Found/No Cause,Contractors Complaint,Inspectional Services,Building,Contractors Complaint,ISD_Building (INTERNAL),ISD,,,INTERSECTION of Blagden St & Exeter St  Boston  MA,4.0,1C,2.0,D4,Back Bay,6.0,Ward 4,402.0,,INTERSECTION Blagden St & Exeter St,,Intersection,1475.0,42.3487,-71.0791,Constituent Call,"(42.3487, -71.0791)"
560588,101001370778,05/05/2015 03:19:00 PM,04/24/2017 03:19:13 PM,05/14/2015 03:29:05 PM,ONTIME,Closed,Case Closed. Closed date : 2015-05-14 15:29:05.047 CORR: Corrected,Contractors Complaint,Inspectional Services,Building,Contractors Complaint,ISD_Building (INTERNAL),ISD,,,INTERSECTION of K St & E Seventh St  South Boston  MA,6.0,05,2.0,C6,South Boston / South Boston Waterfront,5.0,Ward 7,702.0,,INTERSECTION K St & E Seventh St,,Intersection,6591.0,42.3323,-71.0373,Constituent Call,"(42.3323, -71.0373)"
560700,101001370939,05/05/2015 06:07:00 PM,04/24/2017 06:07:28 PM,05/15/2015 11:07:06 AM,ONTIME,Closed,Case Closed. Closed date : 2015-05-15 11:07:06.13 NOVIO: No Violation Found/No Cause,Contractors Complaint,Inspectional Services,Building,Contractors Complaint,ISD_Building (INTERNAL),ISD,,,7 E Springfield St  Roxbury  MA  02118,4.0,1C,2.0,D4,Roxbury,6.0,08,802.0,,7 E Springfield St,2118.0,Address,352741.0,42.3594,-71.0587,Constituent Call,"(0, 0)"
561467,101001372086,05/07/2015 06:59:00 AM,04/26/2017 06:59:36 AM,05/08/2015 09:45:21 AM,ONTIME,Closed,Case Closed. Closed date : 2015-05-08 09:45:21.897 Case Invalid Case not entered correctly.  New case created: H203667-101001373231,Contractors Complaint,Inspectional Services,Building,Contractors Complaint,ISD_Building (INTERNAL),ISD,,,INTERSECTION of Bunker Hill Industrial Park & New Rutherford Ave  Charlestown  MA,3.0,1A,1.0,A15,Charlestown,2.0,Ward 2,201.0,,INTERSECTION Bunker Hill Industrial Park & New Rutherford Ave,,Intersection,2205.0,42.3795,-71.071,Employee Generated,"(42.3795, -71.071)"
561675,101001372415,05/07/2015 10:48:00 AM,04/26/2017 10:48:37 AM,05/11/2015 01:34:31 PM,ONTIME,Closed,Case Closed. Closed date : 2015-05-11 13:34:31.633 NOBASE: No Basis,Contractors Complaint,Inspectional Services,Building,Contractors Complaint,ISD_Building (INTERNAL),ISD,,,30-32 Catawba St  Roxbury  MA  02119,9.0,10B,7.0,B2,Roxbury,13.0,Ward 12,1205.0,R1,30-32 Catawba St,2119.0,Address,26431.0,42.3199,-71.084,Constituent Call,"(42.3199, -71.084)"
561723,101001372490,05/07/2015 11:30:00 AM,04/26/2017 11:30:24 AM,06/30/2015 02:54:20 PM,ONTIME,Closed,Case Closed. Closed date : 2015-06-30 14:54:20.247 ROA: Refer to Other Agency/Division,Contractors Complaint,Inspectional Services,Building,Contractors Complaint,ISD_Building (INTERNAL),ISD,,,INTERSECTION of Edinboro St & Essex St  Boston  MA,4.0,1C,2.0,A1,Downtown / Financial District,4.0,Ward 3,308.0,,INTERSECTION Edinboro St & Essex St,,Intersection,4424.0,42.3525,-71.0598,Constituent Call,"(42.3525, -71.0598)"
561751,101001372542,05/07/2015 11:57:00 AM,04/26/2017 11:57:11 AM,05/15/2015 03:51:05 PM,ONTIME,Closed,Case Closed. Closed date : 2015-05-15 15:51:05.04 REINSP: Issues Found  Re-Inspection,Contractors Complaint,Inspectional Services,Building,Contractors Complaint,ISD_Building (INTERNAL),ISD,,,125 Temple St  West Roxbury  MA  02132,12.0,06,6.0,E5,West Roxbury,12.0,Ward 20,2013.0,R1,125 Temple St,2132.0,Address,134244.0,42.2815,-71.1637,Constituent Call,"(42.2815, -71.1637)"
561892,101001372758,05/07/2015 03:05:00 PM,04/26/2017 03:05:50 PM,05/14/2015 03:29:41 PM,ONTIME,Closed,Case Closed. Closed date : 2015-05-14 15:29:41.27 CORR: Corrected,Contractors Complaint,Inspectional Services,Building,Contractors Complaint,ISD_Building (INTERNAL),ISD,,,607 E Eighth St  South Boston  MA  02127,6.0,05,2.0,C6,South Boston / South Boston Waterfront,5.0,Ward 7,702.0,R3,607 E Eighth St,2127.0,Address,52326.0,42.3313,-71.0369,Constituent Call,"(42.3313, -71.0369)"
561976,101001372900,05/07/2015 06:10:00 PM,04/26/2017 06:10:52 PM,05/22/2015 08:20:35 AM,ONTIME,Closed,Case Closed. Closed date : 2015-05-22 08:20:35.587 NOBASE: No Basis,Contractors Complaint,Inspectional Services,Building,Contractors Complaint,ISD_Building (INTERNAL),ISD,,,INTERSECTION of Public Alley No. 820 & Saint Botolph St  Boston  MA,9.0,10A,7.0,D4,Back Bay,13.0,Ward 4,408.0,,INTERSECTION Public Alley No. 820 & Saint Botolph St,,Intersection,8015.0,42.3419,-71.0844,Constituent Call,"(42.3419, -71.0844)"
562145,101001373158,05/08/2015 08:54:00 AM,04/27/2017 08:54:19 AM,05/13/2015 11:48:13 AM,ONTIME,Closed,Case Closed. Closed date : 2015-05-13 11:48:13.333 NOBASE: No Basis,Contractors Complaint,Inspectional Services,Building,Contractors Complaint,ISD_Building (INTERNAL),ISD,,,21 Wall St  Charlestown  MA  02129,3.0,1A,1.0,A15,Charlestown,2.0,Ward 2,205.0,R3,21 Wall St,2129.0,Address,326442.0,42.3801,-71.066,Constituent Call,"(42.3801, -71.066)"
562192,101001373231,05/08/2015 09:42:00 AM,04/27/2017 09:42:19 AM,05/19/2015 08:34:29 AM,ONTIME,Closed,Case Closed. Closed date : 2015-05-19 08:34:29.713 NOVIO: No Violation Found/No Cause,Contractors Complaint,Inspectional Services,Building,Contractors Complaint,ISD_Building (INTERNAL),ISD,,,INTERSECTION of Bunker Hill Industrial Park & New Rutherford Ave  Charlestown  MA,3.0,1A,1.0,A15,Charlestown,2.0,Ward 2,201.0,,INTERSECTION Bunker Hill Industrial Park & New Rutherford Ave,,Intersection,2205.0,42.3795,-71.071,Constituent Call,"(42.3795, -71.071)"
562243,101001373303,05/08/2015 10:38:47 AM,04/27/2017 10:38:47 AM,05/08/2015 10:39:27 AM,ONTIME,Closed,Case Closed. Closed date : 2015-05-08 10:39:27.913 Duplicate of Existing Case,Contractors Complaint,Inspectional Services,Building,Contractors Complaint,ISD_Building (INTERNAL),ISD,,,70 Bremen St  East Boston  MA  02128,1.0,09,1.0,A7,East Boston,1.0,01,103.0,,70 Bremen St,2128.0,Address,350924.0,42.3594,-71.0587,Constituent Call,"(0, 0)"
563003,101001374510,05/11/2015 10:17:00 AM,04/30/2017 10:17:11 AM,05/19/2015 08:35:56 AM,ONTIME,Closed,Case Closed. Closed date : 2015-05-19 08:35:56.917 CORR: Corrected,Contractors Complaint,Inspectional Services,Building,Contractors Complaint,ISD_Building (INTERNAL),ISD,,,103 Ninth St  Charlestown  MA  02129,3.0,1A,1.0,A15,Charlestown,2.0,02,202.0,,103 Ninth St,2129.0,Address,343904.0,42.3756,-71.0517,Constituent Call,"(42.3756, -71.0517)"
563010,101001374519,05/11/2015 10:24:00 AM,04/30/2017 10:24:38 AM,05/14/2015 03:49:28 PM,ONTIME,Closed,Case Closed. Closed date : 2015-05-14 15:49:28.487 CORR: Corrected,Contractors Complaint,Inspectional Services,Building,Contractors Complaint,ISD_Building (INTERNAL),ISD,,,607 E Eighth St  South Boston  MA  02127,6.0,05,2.0,C6,South Boston / South Boston Waterfront,5.0,Ward 7,702.0,R3,607 E Eighth St,2127.0,Address,52326.0,42.3313,-71.0369,Constituent Call,"(42.3313, -71.0369)"
563017,101001374533,05/11/2015 10:29:00 AM,04/30/2017 10:29:16 AM,07/23/2015 04:01:22 PM,ONTIME,Closed,Case Closed. Closed date : 2015-07-23 16:01:22.343 CORR: Corrected,Contractors Complaint,Inspectional Services,Building,Contractors Complaint,ISD_Building (INTERNAL),ISD,,,78 Waltham St  Roxbury  MA  02118,4.0,1C,2.0,D4,South End,4.0,Ward 3,307.0,CM,78 Waltham St,2118.0,Address,142448.0,42.3431,-71.0707,Constituent Call,"(42.3431, -71.0707)"
563031,101001374558,05/11/2015 10:45:00 AM,04/30/2017 10:45:28 AM,07/23/2015 04:02:32 PM,ONTIME,Closed,Case Closed. Closed date : 2015-07-23 16:02:32.227 NOBASE: No Basis,Contractors Complaint,Inspectional Services,Building,Contractors Complaint,ISD_Building (INTERNAL),ISD,,,370 Harrison Ave  Roxbury  MA  02118,4.0,1C,2.0,D4,South End,4.0,Ward 3,308.0,I,370 Harrison Ave,2118.0,Address,69830.0,42.3441,-71.0636,Constituent Call,"(42.3441, -71.0636)"
563062,101001374604,05/11/2015 11:14:00 AM,04/30/2017 11:14:55 AM,06/30/2015 02:52:30 PM,ONTIME,Closed,Case Closed. Closed date : 2015-06-30 14:52:30.913 NOBASE: No Basis,Contractors Complaint,Inspectional Services,Building,Contractors Complaint,ISD_Building (INTERNAL),ISD,,,INTERSECTION of Harrison Ave & Traveler St  Roxbury  MA,4.0,1C,2.0,D4,South End,4.0,Ward 3,308.0,,INTERSECTION Harrison Ave & Traveler St,,Intersection,5699.0,42.3445,-71.064,Constituent Call,"(42.3445, -71.064)"
563072,101001374615,05/11/2015 11:21:00 AM,04/30/2017 11:21:56 AM,06/02/2015 09:03:32 AM,ONTIME,Closed,Case Closed. Closed date : 2015-06-02 09:03:32.707 NOBASE: No Basis,Contractors Complaint,Inspectional Services,Building,Contractors Complaint,ISD_Building (INTERNAL),ISD,,,INTERSECTION of Blagden St & Exeter St  Boston  MA,4.0,1C,2.0,D4,Back Bay,6.0,Ward 4,402.0,,INTERSECTION Blagden St & Exeter St,,Intersection,1475.0,42.3487,-71.0791,Constituent Call,"(42.3487, -71.0791)"
563227,101001374840,05/11/2015 02:06:00 PM,04/30/2017 02:06:16 PM,05/14/2015 09:25:39 AM,ONTIME,Closed,Case Closed. Closed date : 2015-05-14 09:25:39.4 VIOLFND: Violation Found,Contractors Complaint,Inspectional Services,Building,Contractors Complaint,ISD_Building (INTERNAL),ISD,,,804 E Fifth St  South Boston  MA  02127,6.0,05,2.0,C6,South Boston / South Boston Waterfront,5.0,Ward 6,609.0,R2,804 E Fifth St,2127.0,Address,58083.0,42.3342,-71.0284,Constituent Call,"(42.3342, -71.0284)"
563248,101001374871,05/11/2015 02:26:00 PM,04/30/2017 02:26:26 PM,05/21/2015 03:54:40 PM,ONTIME,Closed,Case Closed. Closed date : 2015-05-21 15:54:40.13 CORR: Corrected,Contractors Complaint,Inspectional Services,Building,Contractors Complaint,ISD_Building (INTERNAL),ISD,,,9 Ashland St  Dorchester  MA  02122,7.0,07,3.0,C11,Dorchester,7.0,Ward 16,1602.0,R1,9 Ashland St,2122.0,Address,5227.0,42.3003,-71.0538,Constituent Call,"(42.3003, -71.0538)"
563511,101001375240,05/12/2015 07:55:00 AM,05/01/2017 07:55:27 AM,05/13/2015 09:53:41 AM,ONTIME,Closed,Case Closed. Closed date : 2015-05-13 09:53:41.543 NOBASE: No Basis,Contractors Complaint,Inspectional Services,Building,Contractors Complaint,ISD_Building (INTERNAL),ISD,,,INTERSECTION of Bremen St & Maverick St  East Boston  MA,1.0,09,1.0,A7,East Boston,1.0,Ward 1,103.0,,INTERSECTION Bremen St & Maverick St,,Intersection,1905.0,42.3697,-71.0379,Constituent Call,"(42.3697, -71.0379)"
563517,101001375253,05/12/2015 08:03:39 AM,05/01/2017 08:03:39 AM,05/12/2015 08:31:39 AM,ONTIME,Closed,Case Closed. Closed date : 2015-05-12 08:31:39.98 Case Invalid Duplicate,Contractors Complaint,Inspectional Services,Building,Contractors Complaint,ISD_Building (INTERNAL),ISD,,,84 Bremen St  East Boston  MA  02128,1.0,09,1.0,A7,East Boston,1.0,Ward 1,103.0,R3,84 Bremen St,2128.0,Address,19891.0,42.3706,-71.0371,Constituent Call,"(42.3706, -71.0371)"
563520,101001375258,05/12/2015 08:05:00 AM,05/01/2017 08:05:43 AM,05/12/2015 08:14:07 AM,ONTIME,Closed,Case Closed. Closed date : 2015-05-12 08:14:07.837 ADCLSD: Administratively Closed,Contractors Complaint,Inspectional Services,Building,Contractors Complaint,ISD_Building (INTERNAL),ISD,,,84 Bremen St  East Boston  MA  02128,1.0,09,1.0,A7,East Boston,1.0,Ward 1,103.0,R3,84 Bremen St,2128.0,Address,19891.0,42.3706,-71.0371,Constituent Call,"(42.3706, -71.0371)"
563528,101001375274,05/12/2015 08:14:00 AM,05/01/2017 08:14:36 AM,05/13/2015 09:13:30 AM,ONTIME,Closed,Case Closed. Closed date : 2015-05-13 09:13:30.537 NOVIO: No Violation Found/No Cause,Contractors Complaint,Inspectional Services,Building,Contractors Complaint,ISD_Building (INTERNAL),ISD,,,70 Bremen St  East Boston  MA  02128,1.0,09,1.0,A7,East Boston,1.0,01,103.0,,70 Bremen St,2128.0,Address,350924.0,42.3594,-71.0587,Constituent Call,"(0, 0)"
563589,101001375360,05/12/2015 09:03:00 AM,05/01/2017 09:03:09 AM,05/26/2015 02:55:04 PM,ONTIME,Closed,Case Closed. Closed date : 2015-05-26 14:55:04.08 VIOLFND: Violation Found,Contractors Complaint,Inspectional Services,Building,Contractors Complaint,ISD_Building (INTERNAL),ISD,,,48-50 Gold St  South Boston  MA  02127,6.0,05,2.0,C6,South Boston / South Boston Waterfront,5.0,06,601.0,I,48-50 Gold St,2127.0,Address,65129.0,42.3399,-71.0552,Self Service,"(42.3399, -71.0552)"
563655,101001375462,05/12/2015 10:10:00 AM,05/01/2017 10:10:45 AM,05/14/2015 08:21:22 AM,ONTIME,Closed,Case Closed. Closed date : 2015-05-14 08:21:22.47 ROA: Refer to Other Agency/Division,Contractors Complaint,Inspectional Services,Building,Contractors Complaint,ISD_Building (INTERNAL),ISD,,,19 Cheshire St  Jamaica Plain  MA  02130,9.0,02,6.0,E13,Jamaica Plain,11.0,Ward 19,1906.0,R1,19 Cheshire St,2130.0,Address,30796.0,42.3122,-71.1092,Constituent Call,"(42.3122, -71.1092)"
563716,101001375547,05/12/2015 11:03:00 AM,05/01/2017 11:03:17 AM,07/23/2015 03:57:13 PM,ONTIME,Closed,Case Closed. Closed date : 2015-07-23 15:57:13.77 NOBASE: No Basis,Contractors Complaint,Inspectional Services,Building,Contractors Complaint,ISD_Building (INTERNAL),ISD,,,213 Harrison Ave  Boston  MA  02111,4.0,1C,2.0,A1,Boston,4.0,03,308.0,R3,213 Harrison Ave,2111.0,Address,69812.0,42.3481,-71.0627,Constituent Call,"(42.3481, -71.0627)"
563811,101001375703,05/12/2015 12:57:00 PM,05/01/2017 12:57:06 PM,05/14/2015 09:26:17 AM,ONTIME,Closed,Case Closed. Closed date : 2015-05-14 09:26:17.017 VIOLFND: Violation Found,Contractors Complaint,Inspectional Services,Building,Contractors Complaint,ISD_Building (INTERNAL),ISD,,,809 E Fifth St  South Boston  MA  02127,6.0,05,2.0,C6,South Boston / South Boston Waterfront,5.0,Ward 6,609.0,R2,809 E Fifth St,2127.0,Address,58088.0,42.3339,-71.0282,Constituent Call,"(42.3339, -71.0282)"
563834,101001375735,05/12/2015 01:18:00 PM,05/01/2017 01:18:14 PM,05/26/2015 02:56:16 PM,ONTIME,Closed,Case Closed. Closed date : 2015-05-26 14:56:16.62 CORR: Corrected,Contractors Complaint,Inspectional Services,Building,Contractors Complaint,ISD_Building (INTERNAL),ISD,,,509 E Fifth St  South Boston  MA  02127,6.0,05,2.0,C6,South Boston / South Boston Waterfront,5.0,Ward 6,606.0,RC,509 E Fifth St,2127.0,Address,57835.0,42.3337,-71.0404,Constituent Call,"(42.3337, -71.0404)"
563895,101001375825,05/12/2015 02:30:00 PM,05/01/2017 02:30:13 PM,05/15/2015 08:29:56 AM,ONTIME,Closed,Case Closed. Closed date : 2015-05-15 08:29:56.387 ADCLSD: Administratively Closed,Contractors Complaint,Inspectional Services,Building,Contractors Complaint,ISD_Building (INTERNAL),ISD,,,295-297 Beacon St  Boston  MA  02116,4.0,1C,8.0,D4,Back Bay,14.0,Ward 5,507.0,CM,295-297 Beacon St,2116.0,Address,161901.0,42.3529,-71.0809,Constituent Call,"(42.3529, -71.0809)"
564191,101001376251,05/13/2015 08:43:00 AM,05/02/2017 08:43:22 AM,06/30/2015 02:51:40 PM,ONTIME,Closed,Case Closed. Closed date : 2015-06-30 14:51:40.543 ADCLSD: Administratively Closed,Contractors Complaint,Inspectional Services,Building,Contractors Complaint,ISD_Building (INTERNAL),ISD,,,90 Waltham St  Roxbury  MA  02118,4.0,1C,2.0,D4,South End,4.0,Ward 3,307.0,A,90 Waltham St,2118.0,Address,142517.0,42.3434,-71.0711,Constituent Call,"(42.3434, -71.0711)"
564255,101001376353,05/13/2015 09:17:00 AM,05/02/2017 09:17:43 AM,05/14/2015 08:15:50 AM,ONTIME,Closed,Case Closed. Closed date : 2015-05-14 08:15:50.27 ROA: Refer to Other Agency/Division,Contractors Complaint,Inspectional Services,Building,Contractors Complaint,ISD_Building (INTERNAL),ISD,,,INTERSECTION of Florian St & Hunter St  Roslindale  MA,12.0,02,6.0,E18,Jamaica Plain,10.0,Ward 19,1912.0,,INTERSECTION Florian St & Hunter St,,Intersection,4967.0,42.2877,-71.1172,Constituent Call,"(42.2877, -71.1172)"
564267,101001376365,05/13/2015 09:23:00 AM,05/02/2017 09:23:08 AM,05/14/2015 08:14:52 AM,ONTIME,Closed,Case Closed. Closed date : 2015-05-14 08:14:52.55 ROA: Refer to Other Agency/Division,Contractors Complaint,Inspectional Services,Building,Contractors Complaint,ISD_Building (INTERNAL),ISD,,,31 Plainfield St  Jamaica Plain  MA  02130,9.0,02,6.0,E13,Jamaica Plain,11.0,Ward 11,1108.0,R3,31 Plainfield St,2130.0,Address,110999.0,42.3034,-71.1073,Constituent Call,"(42.3034, -71.1073)"
564336,101001376455,05/13/2015 10:23:00 AM,05/02/2017 10:23:36 AM,05/21/2015 08:44:54 AM,ONTIME,Closed,Case Closed. Closed date : 2015-05-21 08:44:54.433 VIOLFND: Violation Found,Contractors Complaint,Inspectional Services,Building,Contractors Complaint,ISD_Building (INTERNAL),ISD,,,65 Paine St  Roslindale  MA  02131,12.0,02,5.0,E18,Roslindale,10.0,Ward 18,1807.0,R1,65 Paine St,2131.0,Address,106371.0,42.2856,-71.1081,Constituent Call,"(42.2856, -71.1081)"
564873,101001377214,05/14/2015 08:18:00 AM,05/03/2017 08:18:45 AM,06/12/2015 10:14:48 AM,ONTIME,Closed,Case Closed. Closed date : 2015-06-12 10:14:48.333 CORR: Corrected,Contractors Complaint,Inspectional Services,Building,Contractors Complaint,ISD_Building (INTERNAL),ISD,,,129 Wood Ave  Hyde Park  MA  02136,12.0,08,5.0,E18,Hyde Park,10.0,Ward 18,1808.0,R1,129 Wood Ave,2136.0,Address,151214.0,42.2704,-71.1105,Constituent Call,"(42.2704, -71.1105)"
564952,101001377339,05/14/2015 09:24:00 AM,05/03/2017 09:24:22 AM,05/26/2015 02:56:45 PM,ONTIME,Closed,Case Closed. Closed date : 2015-05-26 14:56:45.247 CORR: Corrected,Contractors Complaint,Inspectional Services,Building,Contractors Complaint,ISD_Building (INTERNAL),ISD,,,808 E Fifth St  South Boston  MA  02127,6.0,05,2.0,C6,South Boston / South Boston Waterfront,5.0,Ward 6,609.0,R3,808 E Fifth St,2127.0,Address,58087.0,42.3342,-71.0282,Constituent Call,"(42.3342, -71.0282)"
565238,101001377710,05/14/2015 03:07:00 PM,05/03/2017 03:07:23 PM,06/10/2015 03:49:47 PM,ONTIME,Closed,Case Closed. Closed date : 2015-06-10 15:49:47.24 CORR: Corrected,Contractors Complaint,Inspectional Services,Building,Contractors Complaint,ISD_Building (INTERNAL),ISD,,,6 Aldo Ter  Hyde Park  MA  02136,12.0,08,5.0,E18,Hyde Park,10.0,Ward 18,1818.0,R1,6 Aldo Ter,2136.0,Address,1801.0,42.2501,-71.1189,Constituent Call,"(42.2501, -71.1189)"
565490,101001378068,05/15/2015 08:30:00 AM,05/04/2017 08:30:58 AM,05/25/2015 05:50:54 AM,ONTIME,Closed,Case Closed. Closed date : 2015-05-25 05:50:54.273 TICKET: Ticket Issued,Contractors Complaint,Inspectional Services,Building,Contractors Complaint,ISD_Building (INTERNAL),ISD,,,129 Brooks St  Brighton  MA  02135,11.0,04,9.0,D14,Allston / Brighton,15.0,Ward 22,2207.0,R2,129 Brooks St,2135.0,Address,22371.0,42.3532,-71.1633,Constituent Call,"(42.3532, -71.1633)"
565590,101001378209,05/15/2015 10:18:13 AM,05/04/2017 10:18:13 AM,05/19/2015 09:54:57 AM,ONTIME,Closed,Case Closed. Closed date : 2015-05-19 09:54:57.647 Case Invalid No eForm attached or case details.,Contractors Complaint,Inspectional Services,Building,Contractors Complaint,ISD_Building (INTERNAL),ISD,,,431 E Seventh St  South Boston  MA  02127,6.0,05,2.0,C6,South Boston / South Boston Waterfront,5.0,Ward 7,703.0,R3,431 E Seventh St,2127.0,Address,125275.0,42.332,-71.0427,Constituent Call,"(42.332, -71.0427)"
565683,101001378347,05/15/2015 11:56:00 AM,05/04/2017 11:56:10 AM,05/29/2015 09:25:14 AM,ONTIME,Closed,Case Closed. Closed date : 2015-05-29 09:25:14.183 CORR: Corrected,Contractors Complaint,Inspectional Services,Building,Contractors Complaint,ISD_Building (INTERNAL),ISD,,,431 E Seventh St  South Boston  MA  02127,6.0,05,2.0,C6,South Boston / South Boston Waterfront,5.0,Ward 7,703.0,R3,431 E Seventh St,2127.0,Address,125275.0,42.332,-71.0427,Constituent Call,"(42.332, -71.0427)"
566254,101001379168,05/17/2015 01:23:00 PM,05/06/2017 01:23:11 PM,06/03/2015 11:22:54 AM,ONTIME,Closed,Case Closed. Closed date : 2015-06-03 11:22:54.34 NOBASE: No Basis,Contractors Complaint,Inspectional Services,Building,Contractors Complaint,ISD_Building (INTERNAL),ISD,,,760-800 Boylston St  Boston  MA  02199,4.0,1C,2.0,D4,Back Bay,6.0,Ward 4,402.0,C,760-800 Boylston St,2199.0,Address,18392.0,42.3475,-71.0813,Constituent Call,"(42.3475, -71.0813)"
566496,101001379528,05/18/2015 09:52:00 AM,05/07/2017 09:52:42 AM,06/08/2015 01:01:47 PM,ONTIME,Closed,Case Closed. Closed date : 2015-06-08 13:01:47.6 CORR: Corrected,Contractors Complaint,Inspectional Services,Building,Contractors Complaint,ISD_Building (INTERNAL),ISD,,,33 H St  South Boston  MA  02127,6.0,05,2.0,C6,South Boston / South Boston Waterfront,5.0,06,605.0,,33 H St,2127.0,Address,343469.0,42.3594,-71.0587,Constituent Call,"(0, 0)"
566857,101001380058,05/18/2015 04:00:00 PM,05/07/2017 04:00:34 PM,05/27/2015 02:36:29 PM,ONTIME,Closed,Case Closed. Closed date : 2015-05-27 14:36:29.9 NOBASE: No Basis,Contractors Complaint,Inspectional Services,Building,Contractors Complaint,ISD_Building (INTERNAL),ISD,,,408 E Eighth St  South Boston  MA  02127,6.0,05,2.0,C6,South Boston / South Boston Waterfront,5.0,07,703.0,R1,408 E Eighth St,2127.0,Address,52136.0,42.3314,-71.0447,Constituent Call,"(42.3314, -71.0447)"
567389,101001380811,05/19/2015 02:27:26 PM,05/08/2017 02:27:26 PM,05/19/2015 02:27:57 PM,ONTIME,Closed,Case Closed. Closed date : 2015-05-19 14:27:57.097 Case Invalid complaint not under proper category,Contractors Complaint,Inspectional Services,Building,Contractors Complaint,ISD_Building (INTERNAL),ISD,,,600 Washington St  Brighton  MA  02135,11.0,04,9.0,D14,Allston / Brighton,15.0,Ward 22,2207.0,C,600 Washington St,2135.0,Address,156134.0,42.3504,-71.167,Constituent Call,"(42.3504, -71.167)"
567740,101001381376,05/20/2015 09:36:00 AM,05/09/2017 09:36:48 AM,,ONTIME,Open,,Contractors Complaint,Inspectional Services,Building,Contractors Complaint,ISD_Building (INTERNAL),ISD,,,INTERSECTION of Massachusetts Ave & Saint Botolph St  Boston  MA,9.0,1C,7.0,D4,Back Bay,13.0,Ward 4,408.0,,INTERSECTION Massachusetts Ave & Saint Botolph St,,Intersection,7140.0,42.3421,-71.0841,Constituent Call,"(42.3421, -71.0841)"
567760,101001381409,05/20/2015 09:50:00 AM,05/09/2017 09:50:50 AM,05/28/2015 02:15:11 PM,ONTIME,Closed,Case Closed. Closed date : 2015-05-28 14:15:11.067 ROA: Refer to Other Agency/Division,Contractors Complaint,Inspectional Services,Building,Contractors Complaint,ISD_Building (INTERNAL),ISD,,,250 New Rutherford Ave  Charlestown  MA  02129,3.0,1A,1.0,A15,Charlestown,2.0,02,201.0,E,250 New Rutherford Ave,2129.0,Address,158387.0,42.3749,-71.069,Constituent Call,"(42.3749, -71.069)"
567766,101001381417,05/20/2015 09:53:00 AM,05/09/2017 09:53:57 AM,06/05/2015 12:11:27 PM,ONTIME,Closed,Case Closed. Closed date : 2015-06-05 12:11:27.197 NOBASE: No Basis,Contractors Complaint,Inspectional Services,Building,Contractors Complaint,ISD_Building (INTERNAL),ISD,,,31 Plainfield St  Jamaica Plain  MA  02130,9.0,02,6.0,E13,Jamaica Plain,11.0,Ward 11,1108.0,R3,31 Plainfield St,2130.0,Address,110999.0,42.3034,-71.1073,Constituent Call,"(42.3034, -71.1073)"
567848,101001381529,05/20/2015 11:01:00 AM,05/09/2017 11:01:32 AM,05/26/2015 08:50:40 AM,ONTIME,Closed,Case Closed. Closed date : 2015-05-26 08:50:40.453 NOBASE: No Basis,Contractors Complaint,Inspectional Services,Building,Contractors Complaint,ISD_Building (INTERNAL),ISD,,,26 Hancock St  Boston  MA  02114,3.0,1B,1.0,A1,Beacon Hill,3.0,Ward 3,306.0,CM,26 Hancock St,2114.0,Address,165945.0,42.3602,-71.0642,Constituent Call,"(42.3602, -71.0642)"
567918,101001381639,05/20/2015 12:15:00 PM,05/09/2017 12:15:30 PM,05/27/2015 08:47:51 AM,ONTIME,Closed,Case Closed. Closed date : 2015-05-27 08:47:51.143 ADCLSD: Administratively Closed,Contractors Complaint,Inspectional Services,Building,Contractors Complaint,ISD_Building (INTERNAL),ISD,,,341 Newbury St  Boston  MA  02115,4.0,1C,8.0,D4,Back Bay,14.0,Ward 5,509.0,C,341 Newbury St,2115.0,Address,101563.0,42.3487,-71.0869,Constituent Call,"(42.3487, -71.0869)"
568126,101001381927,05/20/2015 05:41:15 PM,05/09/2017 05:41:15 PM,05/20/2015 05:44:22 PM,ONTIME,Closed,Case Closed. Closed date : 2015-05-20 17:44:22.04 Case Invalid case referred to bpd,Contractors Complaint,Inspectional Services,Building,Contractors Complaint,ISD_Building (INTERNAL),ISD,,,407 Dudley St  Roxbury  MA  02119,7.0,10B,7.0,B2,Roxbury,13.0,08,807.0,E,407 Dudley St,2119.0,Address,49731.0,42.3255,-71.0754,Constituent Call,"(42.3255, -71.0754)"
568476,101001382481,05/21/2015 12:03:56 PM,05/10/2017 12:03:56 PM,05/21/2015 12:13:34 PM,ONTIME,Closed,Case Closed. Closed date : 2015-05-21 12:13:34.843 Case Invalid Wrong eform. See case no. 1382485.,Contractors Complaint,Inspectional Services,Building,Contractors Complaint,ISD_Building (INTERNAL),ISD,,,34 Stimson Rd  West Roxbury  MA  02132,12.0,06,6.0,E5,West Roxbury,12.0,Ward 20,2015.0,R1,34 Stimson Rd,2132.0,Address,130637.0,42.2612,-71.1596,Constituent Call,"(42.2612, -71.1596)"
568479,101001382485,05/21/2015 12:06:00 PM,05/10/2017 12:06:10 PM,06/02/2015 01:53:18 PM,ONTIME,Closed,Case Closed. Closed date : 2015-06-02 13:53:18.107 NOBASE: No Basis,Contractors Complaint,Inspectional Services,Building,Contractors Complaint,ISD_Building (INTERNAL),ISD,,,34 Stimson Rd  West Roxbury  MA  02132,12.0,06,6.0,E5,West Roxbury,12.0,Ward 20,2015.0,R1,34 Stimson Rd,2132.0,Address,130637.0,42.2612,-71.1596,Constituent Call,"(42.2612, -71.1596)"
568573,101001382619,05/21/2015 02:40:00 PM,05/10/2017 02:40:17 PM,05/25/2015 09:27:32 AM,ONTIME,Closed,Case Closed. Closed date : 2015-05-25 09:27:32.877 NOVIO: No Violation Found/No Cause,Contractors Complaint,Inspectional Services,Building,Contractors Complaint,ISD_Building (INTERNAL),ISD,,,5 Exeter St  Boston  MA  02116,4.0,1C,8.0,D4,Back Bay,14.0,Ward 5,508.0,R2,5 Exeter St,2116.0,Address,55341.0,42.3527,-71.0812,Constituent Call,"(42.3527, -71.0812)"
568581,101001382627,05/21/2015 02:46:00 PM,05/10/2017 02:46:24 PM,05/25/2015 09:27:34 AM,ONTIME,Closed,Case Closed. Closed date : 2015-05-25 09:27:34.1 NOVIO: No Violation Found/No Cause,Contractors Complaint,Inspectional Services,Building,Contractors Complaint,ISD_Building (INTERNAL),ISD,,,227 Marlborough St  Boston  MA  02116,4.0,1C,8.0,D4,Back Bay,14.0,Ward 5,508.0,CM,227 Marlborough St,2116.0,Address,90662.0,42.3524,-71.0815,Constituent Call,"(42.3524, -71.0815)"
568584,101001382632,05/21/2015 02:49:00 PM,05/10/2017 02:49:53 PM,05/26/2015 04:50:51 PM,ONTIME,Closed,Case Closed. Closed date : 2015-05-26 16:50:51.977 CORR: Corrected,Contractors Complaint,Inspectional Services,Building,Contractors Complaint,ISD_Building (INTERNAL),ISD,,,227 Beacon St  Boston  MA  02116,4.0,1C,8.0,D4,Back Bay,14.0,Ward 5,507.0,CM,227 Beacon St,2116.0,Address,10301.0,42.3537,-71.0778,Constituent Call,"(42.3537, -71.0778)"
568872,101001383115,05/22/2015 10:16:00 AM,05/11/2017 10:16:30 AM,05/29/2015 09:27:56 AM,ONTIME,Closed,Case Closed. Closed date : 2015-05-29 09:27:56.85 CORR: Corrected,Contractors Complaint,Inspectional Services,Building,Contractors Complaint,ISD_Building (INTERNAL),ISD,,,808 E Fifth St  South Boston  MA  02127,6.0,05,2.0,C6,South Boston / South Boston Waterfront,5.0,Ward 6,609.0,R3,808 E Fifth St,2127.0,Address,58087.0,42.3342,-71.0282,Constituent Call,"(42.3342, -71.0282)"
569140,101001393509,05/22/2015 04:48:00 PM,05/11/2017 04:48:01 PM,,ONTIME,Open,,Contractors Complaint,Inspectional Services,Building,Contractors Complaint,ISD_Building (INTERNAL),ISD,,,0 Vicksburg St  South Boston  MA  02127,6.0,05,2.0,C6,South Boston / South Boston Waterfront,5.0,Ward 6,605.0,RL,0 Vicksburg St,2127.0,Address,140430.0,42.3375,-71.0404,Constituent Call,"(42.3375, -71.0404)"
569256,101001393680,05/23/2015 10:43:00 AM,05/12/2017 10:43:28 AM,06/02/2015 01:55:13 PM,ONTIME,Closed,Case Closed. Closed date : 2015-06-02 13:55:13.187 NOBASE: No Basis,Contractors Complaint,Inspectional Services,Building,Contractors Complaint,ISD_Building (INTERNAL),ISD,,,65 Leland Rd  Chestnut Hill  MA  02467,,06,6.0,E5,Chestnut Hill,12.0,20,2006.0,R1,65 Leland Rd,2467.0,Address,85012.0,42.299,-71.1443,Constituent Call,"(42.299, -71.1443)"
570072,101001394914,05/26/2015 01:18:00 PM,05/15/2017 01:18:10 PM,05/29/2015 03:53:27 PM,ONTIME,Closed,Case Closed. Closed date : 2015-05-29 15:53:27.45 NOVIO: No Violation Found/No Cause,Contractors Complaint,Inspectional Services,Building,Contractors Complaint,ISD_Building (INTERNAL),ISD,,,9 -9F Park Street Pl  Boston  MA  02108,3.0,1B,1.0,A1,Downtown / Financial District,3.0,Ward 3,306.0,C,9 -9F Park Street Pl,2108.0,Address,173047.0,42.3576,-71.0628,Constituent Call,"(42.3576, -71.0628)"
570701,101001395763,05/27/2015 10:56:00 AM,05/16/2017 10:56:33 AM,06/01/2015 10:04:49 AM,ONTIME,Closed,Case Closed. Closed date : 2015-06-01 10:04:49.997 PERMIS: Permit Issued,Contractors Complaint,Inspectional Services,Building,Contractors Complaint,ISD_Building (INTERNAL),ISD,,,587 Saratoga St  East Boston  MA  02128,1.0,09,1.0,A7,East Boston,1.0,Ward 1,110.0,RL,587 Saratoga St,2128.0,Address,122707.0,42.3813,-71.0231,Self Service,"(42.3813, -71.0231)"
570706,101001395776,05/27/2015 11:02:00 AM,05/16/2017 11:02:27 AM,06/17/2015 09:20:05 AM,ONTIME,Closed,Case Closed. Closed date : 2015-06-17 09:20:05.55 PERMIS: Permit Issued,Contractors Complaint,Inspectional Services,Building,Contractors Complaint,ISD_Building (INTERNAL),ISD,,,296-302 Cambridge St  Boston  MA  02114,3.0,1B,8.0,A1,Beacon Hill,14.0,05,504.0,,296-302 Cambridge St,2114.0,Address,350616.0,42.3594,-71.0587,Constituent Call,"(0, 0)"
570736,101001395818,05/27/2015 11:25:00 AM,05/16/2017 11:25:42 AM,05/29/2015 07:38:48 AM,ONTIME,Closed,Case Closed. Closed date : 2015-05-29 07:38:48.613 NOVIO: No Violation Found/No Cause,Contractors Complaint,Inspectional Services,Building,Contractors Complaint,ISD_Building (INTERNAL),ISD,,,35-37 Wyvern St  Roslindale  MA  02131,12.0,02,6.0,E18,Roslindale,10.0,19,1912.0,,35-37 Wyvern St,2131.0,Address,355551.0,42.3594,-71.0587,Constituent Call,"(0, 0)"
570864,101001395973,05/27/2015 01:04:00 PM,05/16/2017 01:04:26 PM,06/03/2015 03:43:31 PM,ONTIME,Closed,Case Closed. Closed date : 2015-06-03 15:43:31.593 ADCLSD: Administratively Closed,Contractors Complaint,Inspectional Services,Building,Contractors Complaint,ISD_Building (INTERNAL),ISD,,,20 Upton St  Roxbury  MA  02118,4.0,1C,2.0,D4,South End,6.0,Ward 9,901.0,CM,20 Upton St,2118.0,Address,139559.0,42.3421,-71.0721,Constituent Call,"(42.3421, -71.0721)"
570877,101001395987,05/27/2015 01:17:00 PM,05/16/2017 01:17:20 PM,05/29/2015 09:36:26 AM,ONTIME,Closed,Case Closed. Closed date : 2015-05-29 09:36:26.043 VIOISS: Violation Filed,Contractors Complaint,Inspectional Services,Building,Contractors Complaint,ISD_Building (INTERNAL),ISD,,,11 Dorchester St  South Boston  MA  02127,6.0,05,2.0,C6,South Boston / South Boston Waterfront,5.0,06,604.0,C,11 Dorchester St,2127.0,Address,48841.0,42.3372,-71.0438,Constituent Call,"(42.3372, -71.0438)"
570881,101001395990,05/27/2015 01:19:00 PM,05/16/2017 01:19:21 PM,06/22/2015 09:15:22 AM,ONTIME,Closed,Case Closed. Closed date : 2015-06-22 09:15:22.53 NOBASE: No Basis,Contractors Complaint,Inspectional Services,Building,Contractors Complaint,ISD_Building (INTERNAL),ISD,,,795 E Third St  South Boston  MA  02127,6.0,05,2.0,C6,South Boston / South Boston Waterfront,5.0,Ward 6,607.0,R3,795 E Third St,2127.0,Address,135137.0,42.3365,-71.0279,Constituent Call,"(42.3365, -71.0279)"
570942,101001396072,05/27/2015 02:35:00 PM,05/16/2017 02:35:07 PM,06/02/2015 09:12:54 AM,ONTIME,Closed,Case Closed. Closed date : 2015-06-02 09:12:54.067 CORR: Corrected,Contractors Complaint,Inspectional Services,Building,Contractors Complaint,ISD_Building (INTERNAL),ISD,,,812 E Sixth St  South Boston  MA  02127,6.0,05,2.0,C6,South Boston / South Boston Waterfront,5.0,Ward 6,609.0,I,812 E Sixth St,2127.0,Address,127887.0,42.3337,-71.028,Constituent Call,"(42.3337, -71.028)"
570972,101001396123,05/27/2015 03:11:57 PM,05/16/2017 03:11:57 PM,05/27/2015 03:57:05 PM,ONTIME,Closed,Case Closed. Closed date : 2015-05-27 15:57:05.137 Case Invalid,Contractors Complaint,Inspectional Services,Building,Contractors Complaint,ISD_Building (INTERNAL),ISD,,,1626-1628 Columbia Rd  South Boston  MA  02127,6.0,05,2.0,C6,South Boston / South Boston Waterfront,5.0,Ward 7,701.0,CM,1626-1628 Columbia Rd,2127.0,Address,35104.0,42.3298,-71.0366,Constituent Call,"(42.3298, -71.0366)"
571322,101001396640,05/28/2015 09:15:00 AM,05/17/2017 09:15:16 AM,06/03/2015 03:31:54 PM,ONTIME,Closed,Case Closed. Closed date : 2015-06-03 15:31:54.117 NOVIO: No Violation Found/No Cause,Contractors Complaint,Inspectional Services,Building,Contractors Complaint,ISD_Building (INTERNAL),ISD,,,728-730 Tremont St  Roxbury  MA  02118,4.0,1C,7.0,D4,South End,6.0,09,902.0,,728-730 Tremont St,2118.0,Address,350936.0,42.3594,-71.0587,Constituent Call,"(0, 0)"
571460,101001396828,05/28/2015 11:10:00 AM,05/17/2017 11:10:37 AM,06/05/2015 03:29:39 PM,ONTIME,Closed,Case Closed. Closed date : 2015-06-05 15:29:39.47 ADCLSD: Administratively Closed,Contractors Complaint,Inspectional Services,Building,Contractors Complaint,ISD_Building (INTERNAL),ISD,,,INTERSECTION of E Fifth St & P St  South Boston  MA,6.0,05,2.0,C6,South Boston / South Boston Waterfront,5.0,Ward 6,609.0,,INTERSECTION E Fifth St & P St,,Intersection,4915.0,42.3341,-71.0271,Constituent Call,"(42.3341, -71.0271)"
572171,101001397851,05/29/2015 09:51:00 AM,05/18/2017 09:51:46 AM,06/02/2015 02:34:56 PM,ONTIME,Closed,Case Closed. Closed date : 2015-06-02 14:34:56.09 NOVIO: No Violation Found/No Cause,Contractors Complaint,Inspectional Services,Building,Contractors Complaint,ISD_Building (INTERNAL),ISD,,,103 Ninth St  Charlestown  MA  02129,3.0,1A,1.0,A15,Charlestown,2.0,02,202.0,,103 Ninth St,2129.0,Address,343904.0,42.3756,-71.0517,Constituent Call,"(42.3756, -71.0517)"
572349,101001398088,05/29/2015 11:52:00 AM,05/18/2017 11:52:41 AM,07/01/2015 04:21:21 PM,ONTIME,Closed,Case Closed. Closed date : 2015-07-01 16:21:21.437 NOBASE: No Basis,Contractors Complaint,Inspectional Services,Building,Contractors Complaint,ISD_Building (INTERNAL),ISD,,,200 W Brookline St  Roxbury  MA  02118,4.0,1C,2.0,D4,South End,6.0,Ward 4,403.0,CM,200 W Brookline St,2118.0,Address,22335.0,42.3433,-71.0768,Constituent Call,"(42.3433, -71.0768)"
573318,101001399501,06/01/2015 09:11:00 AM,05/21/2017 09:11:42 AM,06/05/2015 08:54:32 AM,ONTIME,Closed,Case Closed. Closed date : 2015-06-05 08:54:32.637 NOBASE: No Basis,Contractors Complaint,Inspectional Services,Building,Contractors Complaint,ISD_Building (INTERNAL),ISD,,,101 Myrtle St  Boston  MA  02114,3.0,1B,8.0,A1,Beacon Hill,14.0,Ward 5,504.0,R4,101 Myrtle St,2114.0,Address,99638.0,42.3594,-71.0682,Constituent Call,"(42.3594, -71.0682)"
573896,101001400323,06/02/2015 08:48:36 AM,05/22/2017 08:48:36 AM,06/02/2015 08:49:52 AM,ONTIME,Closed,Case Closed. Closed date : 2015-06-02 08:49:52.9 Case Invalid,Contractors Complaint,Inspectional Services,Building,Contractors Complaint,ISD_Building (INTERNAL),ISD,,,103 Ninth St  Charlestown  MA  02129,3.0,1A,1.0,A15,Charlestown,2.0,02,202.0,,103 Ninth St,2129.0,Address,343904.0,42.3756,-71.0517,Constituent Call,"(42.3756, -71.0517)"
573909,101001400346,06/02/2015 09:02:00 AM,05/22/2017 09:02:22 AM,06/03/2015 02:24:25 PM,ONTIME,Closed,Case Closed. Closed date : 2015-06-03 14:24:25.237 NOBASE: No Basis,Contractors Complaint,Inspectional Services,Building,Contractors Complaint,ISD_Building (INTERNAL),ISD,,,INTERSECTION of Fleet St & Moon St  Boston  MA,3.0,1B,1.0,A1,Downtown / Financial District,3.0,Ward 3,303.0,,INTERSECTION Fleet St & Moon St,,Intersection,4946.0,42.3644,-71.0524,Constituent Call,"(42.3644, -71.0524)"
574444,101001401146,06/03/2015 07:55:00 AM,05/23/2017 07:55:57 AM,06/03/2015 03:44:05 PM,ONTIME,Closed,Case Closed. Closed date : 2015-06-03 15:44:05.513 NOACC: Closed-No Access,Contractors Complaint,Inspectional Services,Building,Contractors Complaint,ISD_Building (INTERNAL),ISD,,,INTERSECTION of Guild St & Millmont St  Roxbury  MA,7.0,10B,7.0,B2,Roxbury,13.0,Ward 9,905.0,,INTERSECTION Guild St & Millmont St,,Intersection,5519.0,42.3273,-71.0901,Constituent Call,"(42.3273, -71.0901)"
574620,101001401452,06/03/2015 10:31:00 AM,05/23/2017 10:31:25 AM,06/05/2015 09:03:13 AM,ONTIME,Closed,Case Closed. Closed date : 2015-06-05 09:03:13.687 CLOSED: Closed/No Permit,Contractors Complaint,Inspectional Services,Building,Contractors Complaint,ISD_Building (INTERNAL),ISD,,,INTERSECTION of Cotting St & Nashua St  Boston  MA,3.0,1B,8.0,A1,Downtown / Financial District,3.0,Ward 3,305.0,,INTERSECTION Cotting St & Nashua St,,Intersection,3600.0,42.3653,-71.0641,Constituent Call,"(42.3653, -71.0641)"
574680,101001401552,06/03/2015 11:26:00 AM,05/23/2017 11:26:49 AM,06/10/2015 02:36:40 PM,ONTIME,Closed,Case Closed. Closed date : 2015-06-10 14:36:40.917 NOBASE: No Basis,Contractors Complaint,Inspectional Services,Building,Contractors Complaint,ISD_Building (INTERNAL),ISD,,,835 E Fifth St  South Boston  MA  02127,6.0,05,2.0,C6,South Boston / South Boston Waterfront,5.0,Ward 6,609.0,R1,835 E Fifth St,2127.0,Address,58113.0,42.334,-71.027,Constituent Call,"(42.334, -71.027)"
574696,101001401567,06/03/2015 11:34:00 AM,05/23/2017 11:34:04 AM,09/30/2015 04:03:37 PM,ONTIME,Closed,Case Closed. Closed date : 2015-09-30 16:03:37.323 CORR: Corrected,Contractors Complaint,Inspectional Services,Building,Contractors Complaint,ISD_Building (INTERNAL),ISD,,,INTERSECTION of Clarendon St & Stuart St  Boston  MA,4.0,1C,2.0,D4,Back Bay,6.0,Ward 4,402.0,,INTERSECTION Clarendon St & Stuart St,,Intersection,3072.0,42.3489,-71.0744,Constituent Call,"(42.3489, -71.0744)"
574787,101001401695,06/03/2015 01:23:00 PM,05/23/2017 01:23:53 PM,06/12/2015 08:08:39 AM,ONTIME,Closed,Case Closed. Closed date : 2015-06-12 08:08:39.8 VIOISS: Violation Filed,Contractors Complaint,Inspectional Services,Building,Contractors Complaint,ISD_Building (INTERNAL),ISD,,,511 Massachusetts Ave  Roxbury  MA  02118,7.0,10B,7.0,D4,Roxbury,13.0,Ward 9,903.0,R4,511 Massachusetts Ave,2118.0,Address,92278.0,42.3389,-71.0803,Constituent Call,"(42.3389, -71.0803)"
575136,101001402201,06/04/2015 08:42:00 AM,05/24/2017 08:42:05 AM,06/08/2015 03:59:38 PM,ONTIME,Closed,Case Closed. Closed date : 2015-06-08 15:59:38.703 NOBASE: No Basis,Contractors Complaint,Inspectional Services,Building,Contractors Complaint,ISD_Building (INTERNAL),ISD,,,21 Salem St  Charlestown  MA  02129,3.0,1A,1.0,A15,Charlestown,2.0,Ward 2,206.0,R3,21 Salem St,2129.0,Address,121972.0,42.3776,-71.0658,Constituent Call,"(42.3776, -71.0658)"
575279,101001402427,06/04/2015 11:19:00 AM,05/24/2017 11:19:02 AM,07/09/2015 09:54:38 AM,ONTIME,Closed,Case Closed. Closed date : 2015-07-09 09:54:38.817 NOVIO: No Violation Found/No Cause,Contractors Complaint,Inspectional Services,Building,Contractors Complaint,ISD_Building (INTERNAL),ISD,,,120 W Newton St  Roxbury  MA  02118,4.0,1C,7.0,D4,South End,6.0,Ward 4,404.0,R1,120 W Newton St,2118.0,Address,102379.0,42.3417,-71.0771,Constituent Call,"(42.3417, -71.0771)"
575400,101001402596,06/04/2015 01:46:00 PM,05/24/2017 01:46:28 PM,06/12/2015 12:32:28 PM,ONTIME,Closed,Case Closed. Closed date : 2015-06-12 12:32:28.01 CORR: Corrected,Contractors Complaint,Inspectional Services,Building,Contractors Complaint,ISD_Building (INTERNAL),ISD,,,117 Beacon St  Boston  MA  02116,4.0,1C,8.0,D4,Back Bay,14.0,Ward 5,506.0,R1,117 Beacon St,2116.0,Address,9517.0,42.3549,-71.0734,Constituent Call,"(42.3549, -71.0734)"
575734,101001403029,06/05/2015 07:20:00 AM,05/25/2017 07:20:03 AM,06/08/2015 07:26:09 AM,ONTIME,Closed,Case Closed. Closed date : 2015-06-08 07:26:09.433 REINSP: Issues Found  Re-Inspection,Contractors Complaint,Inspectional Services,Building,Contractors Complaint,ISD_Building (INTERNAL),ISD,,,214 Lincoln St  Allston  MA  02134,11.0,04,9.0,D14,Allston / Brighton,15.0,Ward 22,2202.0,C,214 Lincoln St,2134.0,Address,85975.0,42.3578,-71.1371,Constituent Call,"(42.3578, -71.1371)"
575785,101001403118,06/05/2015 09:02:00 AM,05/25/2017 09:02:07 AM,09/30/2015 03:56:25 PM,ONTIME,Closed,Case Closed. Closed date : 2015-09-30 15:56:25.67 CORR: Corrected,Contractors Complaint,Inspectional Services,Building,Contractors Complaint,ISD_Building (INTERNAL),ISD,,,5 Cortes St  Boston  MA  02116,4.0,1C,2.0,A1,Back Bay,6.0,Ward 5,501.0,A,5 Cortes St,2116.0,Address,43216.0,42.3484,-71.0699,Constituent Call,"(42.3484, -71.0699)"
576025,101001403465,06/05/2015 02:00:00 PM,05/25/2017 02:00:40 PM,06/22/2015 09:35:04 AM,ONTIME,Closed,Case Closed. Closed date : 2015-06-22 09:35:04.07 ADCLSD: Administratively Closed,Contractors Complaint,Inspectional Services,Building,Contractors Complaint,ISD_Building (INTERNAL),ISD,,,INTERSECTION of E Fifth St & P St  South Boston  MA,6.0,05,2.0,C6,South Boston / South Boston Waterfront,5.0,Ward 6,609.0,,INTERSECTION E Fifth St & P St,,Intersection,4915.0,42.3341,-71.0271,Constituent Call,"(42.3341, -71.0271)"
576285,101001403864,06/06/2015 01:07:00 PM,05/26/2017 01:07:17 PM,06/12/2015 03:49:53 PM,ONTIME,Closed,Case Closed. Closed date : 2015-06-12 15:49:53.58 NOVIO: No Violation Found/No Cause,Contractors Complaint,Inspectional Services,Building,Contractors Complaint,ISD_Building (INTERNAL),ISD,,,24 N Mead St  Charlestown  MA  02129,3.0,1A,1.0,A15,Charlestown,2.0,02,,R1,24 N Mead St,2129.0,Address,93574.0,42.382,-71.0666,Constituent Call,"(42.382, -71.0666)"
576290,101001403870,06/06/2015 01:18:00 PM,05/26/2017 01:18:51 PM,06/15/2015 09:42:28 AM,ONTIME,Closed,Case Closed. Closed date : 2015-06-15 09:42:28.73 ROA: Refer to Other Agency/Division,Contractors Complaint,Inspectional Services,Building,Contractors Complaint,ISD_Building (INTERNAL),ISD,,,287 Centre St  Jamaica Plain  MA  02130,9.0,10A,6.0,E13,Jamaica Plain,11.0,Ward 10,1007.0,E,287 Centre St,2130.0,Address,173737.0,42.3231,-71.1017,Constituent Call,"(42.3231, -71.1017)"
576494,101001404199,06/07/2015 06:21:00 PM,05/27/2017 06:21:49 PM,06/12/2015 10:09:51 AM,ONTIME,Closed,Case Closed. Closed date : 2015-06-12 10:09:51.807 CORR: Corrected,Contractors Complaint,Inspectional Services,Building,Contractors Complaint,ISD_Building (INTERNAL),ISD,,,56 Stella Rd  Roslindale  MA  02131,12.0,02,5.0,E18,Roslindale,10.0,18,1807.0,,56 Stella Rd,2131.0,Address,352182.0,42.3594,-71.0587,Constituent Call,"(0, 0)"
577225,101001405318,06/09/2015 08:09:00 AM,05/29/2017 08:09:02 AM,06/30/2015 02:44:15 PM,ONTIME,Closed,Case Closed. Closed date : 2015-06-30 14:44:15.083 ADCLSD: Administratively Closed,Contractors Complaint,Inspectional Services,Building,Contractors Complaint,ISD_Building (INTERNAL),ISD,,,INTERSECTION of Mason St & West St  Boston  MA,3.0,1C,2.0,A1,Downtown / Financial District,4.0,Ward 3,308.0,,INTERSECTION Mason St & West St,,Intersection,7130.0,42.3548,-71.0627,Constituent Call,"(42.3548, -71.0627)"
577269,101001405410,06/09/2015 08:54:00 AM,05/29/2017 08:54:28 AM,07/01/2015 08:23:18 AM,ONTIME,Closed,Case Closed. Closed date : 2015-07-01 08:23:18.3 ADCLSD: Administratively Closed,Contractors Complaint,Inspectional Services,Building,Contractors Complaint,ISD_Building (INTERNAL),ISD,,,117 Townsend St  Dorchester  MA  02121,9.0,10B,7.0,B2,Roxbury,13.0,Ward 12,1208.0,R3,117 Townsend St,2121.0,Address,136415.0,42.3179,-71.0897,Constituent Call,"(42.3179, -71.0897)"
577396,101001405587,06/09/2015 10:30:00 AM,05/29/2017 10:30:18 AM,06/12/2015 02:34:56 PM,ONTIME,Closed,Case Closed. Closed date : 2015-06-12 14:34:56.333 NOBASE: No Basis,Contractors Complaint,Inspectional Services,Building,Contractors Complaint,ISD_Building (INTERNAL),ISD,,,INTERSECTION of Cotting St & Nashua St  Boston  MA,3.0,1B,8.0,A1,Downtown / Financial District,3.0,Ward 3,305.0,,INTERSECTION Cotting St & Nashua St,,Intersection,3600.0,42.3653,-71.0641,Constituent Call,"(42.3653, -71.0641)"
578011,101001406467,06/10/2015 09:54:28 AM,05/30/2017 09:54:28 AM,06/10/2015 09:57:02 AM,ONTIME,Closed,Case Closed. Closed date : 2015-06-10 09:57:02.29 Case Invalid,Contractors Complaint,Inspectional Services,Building,Contractors Complaint,ISD_Building (INTERNAL),ISD,,,607 E Eighth St  South Boston  MA  02127,6.0,05,2.0,C6,South Boston / South Boston Waterfront,5.0,Ward 7,702.0,R3,607 E Eighth St,2127.0,Address,52326.0,42.3313,-71.0369,Constituent Call,"(42.3313, -71.0369)"
578013,101001406469,06/10/2015 09:55:00 AM,05/30/2017 09:55:03 AM,06/22/2015 09:38:59 AM,ONTIME,Closed,Case Closed. Closed date : 2015-06-22 09:38:59.933 NOBASE: No Basis,Contractors Complaint,Inspectional Services,Building,Contractors Complaint,ISD_Building (INTERNAL),ISD,,,607 E Eighth St  South Boston  MA  02127,6.0,05,2.0,C6,South Boston / South Boston Waterfront,5.0,Ward 7,702.0,R3,607 E Eighth St,2127.0,Address,52326.0,42.3313,-71.0369,Constituent Call,"(42.3313, -71.0369)"
578219,101001406743,06/10/2015 02:00:00 PM,05/30/2017 02:00:59 PM,06/12/2015 03:55:55 PM,ONTIME,Closed,Case Closed. Closed date : 2015-06-12 15:55:55.63 NOVIO: No Violation Found/No Cause,Contractors Complaint,Inspectional Services,Building,Contractors Complaint,ISD_Building (INTERNAL),ISD,,,52 Brighton St  Charlestown  MA  02129,3.0,1A,1.0,A15,Charlestown,2.0,02,,CL,52 Brighton St,2129.0,Address,155579.0,42.3852,-71.0774,Constituent Call,"(42.3852, -71.0774)"
578554,101001407298,06/11/2015 09:33:00 AM,05/31/2017 09:33:12 AM,06/15/2015 02:31:38 PM,ONTIME,Closed,Case Closed. Closed date : 2015-06-15 14:31:38.96 NOBASE: No Basis,Contractors Complaint,Inspectional Services,Building,Contractors Complaint,ISD_Building (INTERNAL),ISD,,,341 Beacon St  Boston  MA  02116,4.0,1C,8.0,D4,Back Bay,14.0,Ward 5,508.0,CM,341 Beacon St,2116.0,Address,11130.0,42.3524,-71.083,Constituent Call,"(42.3524, -71.083)"
578611,101001407369,06/11/2015 10:15:00 AM,05/31/2017 10:15:27 AM,06/22/2015 09:39:46 AM,ONTIME,Closed,Case Closed. Closed date : 2015-06-22 09:39:46.393 ADCLSD: Administratively Closed,Contractors Complaint,Inspectional Services,Building,Contractors Complaint,ISD_Building (INTERNAL),ISD,,,INTERSECTION of Dorchester Ave & Middle St  South Boston  MA,6.0,05,2.0,C6,South Boston / South Boston Waterfront,5.0,Ward 7,705.0,,INTERSECTION Dorchester Ave & Middle St,,Intersection,4168.0,42.3324,-71.057,Constituent Call,"(42.3324, -71.057)"
578846,101001407759,06/11/2015 02:18:00 PM,05/31/2017 02:18:24 PM,06/12/2015 10:01:49 AM,ONTIME,Closed,Case Closed. Closed date : 2015-06-12 10:01:49.047 NOVIO: No Violation Found/No Cause,Contractors Complaint,Inspectional Services,Building,Contractors Complaint,ISD_Building (INTERNAL),ISD,,,35 Northampton St  Roxbury  MA  02118,7.0,10B,2.0,D4,Roxbury,6.0,08,802.0,E,35 Northampton St,2118.0,Address,158137.0,42.334,-71.0751,Constituent Call,"(42.334, -71.0751)"
