,CASE_ENQUIRY_ID,OPEN_DT,TARGET_DT,CLOSED_DT,OnTime_Status,CASE_STATUS,CLOSURE_REASON,CASE_TITLE,SUBJECT,REASON,TYPE,QUEUE,Department,SubmittedPhoto,ClosedPhoto,Location,fire_district,pwd_district,city_council_district,police_district,neighborhood,neighborhood_services_district,ward,precinct,land_usage,LOCATION_STREET_NAME,LOCATION_ZIPCODE,Property_Type,Property_ID,LATITUDE,LONGITUDE,Source,Geocoded_Location
469532,101001240846,01/01/2015 03:03:22 PM,04/01/2015 03:03:21 PM,,OVERDUE,Open,,Maintenance Complaint - Residential,Inspectional Services,Housing,Maintenance Complaint - Residential,ISD_Housing (INTERNAL),ISD,,,72 Gardner St  Allston  MA  02134,11.0,04,9.0,D14,Allston / Brighton,15.0,Ward 21,2104.0,A,72 Gardner St,2134.0,Address,239609.0,42.354,-71.1273,Self Service,"(42.354, -71.1273)"
470813,101001242702,01/05/2015 08:44:39 PM,04/05/2015 08:44:38 PM,01/13/2015 02:58:57 PM,ONTIME,Closed,Case Closed :,Maintenance Complaint - Residential,Inspectional Services,Housing,Maintenance Complaint - Residential,ISD_Housing (INTERNAL),ISD,,,19 Harlem St  Dorchester  MA  02121,7.0,03,4.0,B3,Greater Mattapan,8.0,Ward 14,1402.0,R2,19 Harlem St,2121.0,Address,247169.0,42.3001,-71.081,Constituent Call,"(42.3001, -71.081)"
470918,101001242855,01/06/2015 09:17:05 AM,04/06/2015 09:17:04 AM,,OVERDUE,Open,,Maintenance Complaint - Residential,Inspectional Services,Housing,Maintenance Complaint - Residential,ISD_Housing (INTERNAL),ISD,,,32-34 Elm Hill Park  Dorchester  MA  02121,9.0,10B,7.0,B2,Roxbury,13.0,Ward 12,1202.0,R2,32-34 Elm Hill Park,2121.0,Address,53257.0,42.3132,-71.0817,Constituent Call,"(42.3132, -71.0817)"
471504,101001243694,01/07/2015 01:17:28 PM,04/07/2015 01:17:27 PM,,OVERDUE,Open,,Maintenance Complaint - Residential,Inspectional Services,Housing,Maintenance Complaint - Residential,ISD_Housing (INTERNAL),ISD,,,1170 Tremont St  Mission Hill  MA  02120,7.0,10B,7.0,B2,Roxbury,13.0,Ward 9,904.0,E,1170 Tremont St,2120.0,Address,173666.0,42.3344,-71.0888,Constituent Call,"(42.3344, -71.0888)"
472060,101001244478,01/08/2015 05:06:58 PM,04/08/2015 05:06:58 PM,,OVERDUE,Open,,Maintenance Complaint - Residential,Inspectional Services,Housing,Maintenance Complaint - Residential,ISD_Housing (INTERNAL),ISD,,,105 Warren Ave  Hyde Park  MA  02136,12.0,08,5.0,E18,Hyde Park,10.0,Ward 18,1816.0,R1,105 Warren Ave,2136.0,Address,142818.0,42.2496,-71.1141,Constituent Call,"(42.2496, -71.1141)"
472310,101001244833,01/09/2015 11:12:03 AM,04/09/2015 11:12:03 AM,,OVERDUE,Open,,Maintenance Complaint - Residential,Inspectional Services,Housing,Maintenance Complaint - Residential,ISD_Housing (INTERNAL),ISD,,,711 Washington St  Dorchester  MA  02124,8.0,07,4.0,C11,Dorchester,9.0,Ward 17,1708.0,R2,711 Washington St,2124.0,Address,332612.0,42.2866,-71.0714,Constituent Call,"(42.2866, -71.0714)"
472794,101001245564,01/11/2015 05:51:31 PM,04/11/2015 05:51:31 PM,,OVERDUE,Open,,Maintenance Complaint - Residential,Inspectional Services,Housing,Maintenance Complaint - Residential,ISD_Housing (INTERNAL),ISD,,,167 Homestead St  Dorchester  MA  02121,9.0,10B,7.0,B2,Roxbury,13.0,Ward 12,1207.0,A,167 Homestead St,2121.0,Address,253170.0,42.3101,-71.0879,Constituent Call,"(42.3101, -71.0879)"
472796,101001245568,01/11/2015 06:39:16 PM,04/11/2015 06:39:16 PM,,OVERDUE,Open,,Maintenance Complaint - Residential,Inspectional Services,Housing,Maintenance Complaint - Residential,ISD_Housing (INTERNAL),ISD,,,9 Higgins St  Allston  MA  02134,11.0,04,9.0,D14,Allston / Brighton,15.0,Ward 21,2106.0,R4,9 Higgins St,2134.0,Address,251524.0,42.3529,-71.1359,Constituent Call,"(42.3529, -71.1359)"
472824,101001245605,01/11/2015 10:47:11 PM,04/11/2015 10:47:11 PM,,OVERDUE,Open,,Maintenance Complaint - Residential,Inspectional Services,Housing,Maintenance Complaint - Residential,ISD_Housing (INTERNAL),ISD,,,30 Alaska St  Roxbury  MA  02119,7.0,10B,7.0,B2,Roxbury,13.0,Ward 12,1204.0,R3,30 Alaska St,2119.0,Address,176331.0,42.321,-71.0781,Constituent Call,"(42.321, -71.0781)"
473243,101001246260,01/12/2015 07:30:53 PM,04/12/2015 07:30:53 PM,,OVERDUE,Open,,Maintenance Complaint - Residential,Inspectional Services,Housing,Maintenance Complaint - Residential,ISD_Housing (INTERNAL),ISD,,,345-345R Centre St  Jamaica Plain  MA  02130,9.0,10A,6.0,E13,Jamaica Plain,11.0,Ward 10,1009.0,RC,345-345R Centre St,2130.0,Address,27992.0,42.3228,-71.1063,Constituent Call,"(42.3228, -71.1063)"
474094,101001247503,01/14/2015 05:33:25 PM,04/14/2015 05:33:24 PM,,OVERDUE,Open,,Maintenance Complaint - Residential,Inspectional Services,Housing,Maintenance Complaint - Residential,ISD_Housing (INTERNAL),ISD,,,24 Whitfield St  Dorchester  MA  02124,8.0,07,4.0,B3,Dorchester,9.0,Ward 17,1705.0,R3,24 Whitfield St,2124.0,Address,336334.0,42.2902,-71.0739,Constituent Call,"(42.2902, -71.0739)"
474568,101001248178,01/15/2015 09:40:24 PM,04/15/2015 09:40:24 PM,,OVERDUE,Open,,Maintenance Complaint - Residential,Inspectional Services,Housing,Maintenance Complaint - Residential,ISD_Housing (INTERNAL),ISD,,,174-176 Calumet St  Mission Hill  MA  02120,9.0,10A,8.0,B2,Mission Hill,14.0,Ward 10,1005.0,CM,174-176 Calumet St,2120.0,Address,24953.0,42.3296,-71.1015,Constituent Call,"(42.3296, -71.1015)"
475107,101001248990,01/17/2015 12:59:22 PM,04/17/2015 12:59:22 PM,,OVERDUE,Open,,Maintenance Complaint - Residential,Inspectional Services,Housing,Maintenance Complaint - Residential,ISD_Housing (INTERNAL),ISD,,,103-103A Hudson St  Boston  MA  02111,4.0,1C,2.0,A1,Downtown / Financial District,4.0,Ward 3,308.0,R4,103-103A Hudson St,2111.0,Address,75849.0,42.3482,-71.0612,Constituent Call,"(42.3482, -71.0612)"
475124,101001249014,01/17/2015 03:09:50 PM,04/17/2015 03:09:49 PM,,OVERDUE,Open,,Maintenance Complaint - Residential,Inspectional Services,Housing,Maintenance Complaint - Residential,ISD_Housing (INTERNAL),ISD,,,270 Babcock St  Boston  MA  02215,11.0,04,9.0,D14,Allston / Brighton,14.0,Ward 21,2103.0,RC,270 Babcock St,2215.0,Address,181226.0,42.3527,-71.1214,Constituent Call,"(42.3527, -71.1214)"
475148,101001249049,01/17/2015 07:05:02 PM,04/17/2015 07:05:02 PM,,OVERDUE,Open,,Maintenance Complaint - Residential,Inspectional Services,Housing,Maintenance Complaint - Residential,ISD_Housing (INTERNAL),ISD,,,9 Higgins St  Allston  MA  02134,11.0,04,9.0,D14,Allston / Brighton,15.0,Ward 21,2106.0,R4,9 Higgins St,2134.0,Address,251524.0,42.3529,-71.1359,Constituent Call,"(42.3529, -71.1359)"
475325,101001249298,01/19/2015 08:59:44 AM,04/19/2015 08:59:44 AM,,OVERDUE,Open,,Maintenance Complaint - Residential,Inspectional Services,Housing,Maintenance Complaint - Residential,ISD_Housing (INTERNAL),ISD,,,20 Thorn St  Mattapan  MA  02126,8.0,08,5.0,E18,Hyde Park,9.0,Ward 18,1805.0,A,20 Thorn St,2126.0,Address,135770.0,42.2641,-71.1037,Constituent Call,"(42.2641, -71.1037)"
476134,101001250273,01/20/2015 11:52:54 AM,04/20/2015 11:52:53 AM,,OVERDUE,Open,,Maintenance Complaint - Residential,Inspectional Services,Housing,Maintenance Complaint - Residential,ISD_Housing (INTERNAL),ISD,,,155 Eustis St  Roxbury  MA  02119,7.0,10B,7.0,B2,Roxbury,13.0,Ward 8,803.0,R3,155 Eustis St,2119.0,Address,231227.0,42.3285,-71.0776,Constituent Call,"(42.3285, -71.0776)"
476354,101001250626,01/20/2015 04:32:21 PM,04/20/2015 04:32:20 PM,,OVERDUE,Open,,Maintenance Complaint - Residential,Inspectional Services,Housing,Maintenance Complaint - Residential,ISD_Housing (INTERNAL),ISD,,,16 Wildwood St  Dorchester  MA  02124,8.0,07,4.0,B3,Greater Mattapan,9.0,Ward 14,1405.0,CD,16 Wildwood St,2124.0,Address,149712.0,42.2836,-71.0871,Constituent Call,"(42.2836, -71.0871)"
476407,101001250702,01/21/2015 02:04:03 AM,04/21/2015 02:04:03 AM,,OVERDUE,Open,,Maintenance Complaint - Residential,Inspectional Services,Housing,Maintenance Complaint - Residential,ISD_Housing (INTERNAL),ISD,,,20 Thorn St  Mattapan  MA  02126,8.0,08,5.0,E18,Hyde Park,9.0,Ward 18,1805.0,A,20 Thorn St,2126.0,Address,319305.0,42.2641,-71.1037,Constituent Call,"(42.2641, -71.1037)"
476409,101001250705,01/21/2015 04:03:38 AM,04/21/2015 04:03:38 AM,,OVERDUE,Open,,Maintenance Complaint - Residential,Inspectional Services,Housing,Maintenance Complaint - Residential,ISD_Housing (INTERNAL),ISD,,,20 Thorn St  Mattapan  MA  02126,8.0,08,5.0,E18,Hyde Park,9.0,Ward 18,1805.0,A,20 Thorn St,2126.0,Address,319312.0,42.2641,-71.1037,Constituent Call,"(42.2641, -71.1037)"
477168,101001251895,01/22/2015 12:24:21 PM,04/22/2015 12:24:21 PM,,OVERDUE,Open,,Maintenance Complaint - Residential,Inspectional Services,Housing,Maintenance Complaint - Residential,ISD_Housing (INTERNAL),ISD,,,703 Bennington St  East Boston  MA  02128,1.0,09,1.0,A7,East Boston,1.0,Ward 1,112.0,R3,703 Bennington St,2128.0,Address,14900.0,42.3844,-71.0129,Constituent Call,"(42.3844, -71.0129)"
477570,101001252544,01/23/2015 11:09:01 AM,04/23/2015 11:09:01 AM,02/04/2015 11:35:26 AM,ONTIME,Closed,Case Closed :,Maintenance Complaint - Residential,Inspectional Services,Housing,Maintenance Complaint - Residential,ISD_Housing (INTERNAL),ISD,,,15 Speedwell St  Dorchester  MA  02122,7.0,03,3.0,C11,Dorchester,8.0,Ward 15,1507.0,R3,15 Speedwell St,2122.0,Address,129306.0,42.3039,-71.0676,Constituent Call,"(42.3039, -71.0676)"
477650,101001252708,01/23/2015 01:29:54 PM,04/23/2015 01:29:54 PM,03/10/2015 10:02:54 AM,ONTIME,Closed,Case Closed :,Maintenance Complaint - Residential,Inspectional Services,Housing,Maintenance Complaint - Residential,ISD_Housing (INTERNAL),ISD,,,17-25 Trotter Ct  Roxbury  MA  02118,4.0,10B,7.0,D4,Roxbury,13.0,09,903.0,,17-25 Trotter Ct,2118.0,Address,350486.0,42.3594,-71.0587,Constituent Call,"(0, 0)"
477864,101001253014,01/24/2015 09:24:09 AM,04/24/2015 09:24:09 AM,,OVERDUE,Open,,Maintenance Complaint - Residential,Inspectional Services,Housing,Maintenance Complaint - Residential,ISD_Housing (INTERNAL),ISD,,,180 Corey Rd  Brighton  MA  02135,11.0,04,9.0,D14,Allston / Brighton,15.0,Ward 21,2110.0,A,180 Corey Rd,2135.0,Address,218904.0,42.3435,-71.1398,Constituent Call,"(42.3435, -71.1398)"
478372,101001253940,01/26/2015 09:04:38 AM,04/26/2015 09:04:37 AM,,OVERDUE,Open,,Maintenance Complaint - Residential,Inspectional Services,Housing,Maintenance Complaint - Residential,ISD_Housing (INTERNAL),ISD,,,7 Huckins St  Roxbury  MA  02119,7.0,03,7.0,B2,Roxbury,13.0,Ward 8,807.0,R2,7 Huckins St,2119.0,Address,75840.0,42.3238,-71.0756,Constituent Call,"(42.3238, -71.0756)"
478451,101001254133,01/26/2015 10:56:18 AM,04/26/2015 10:56:18 AM,01/26/2015 10:57:09 AM,ONTIME,Closed,Case Closed Case Invalid Opened in Error,Maintenance Complaint - Residential,Inspectional Services,Housing,Maintenance Complaint - Residential,ISD_Housing (INTERNAL),ISD,,,144 Marginal St  East Boston  MA  02128,1.0,09,1.0,A7,East Boston,1.0,01,101.0,,144 Marginal St,2128.0,Address,344150.0,42.3594,-71.0587,Constituent Call,"(0, 0)"
478628,101001254564,01/26/2015 07:41:43 PM,04/26/2015 07:41:43 PM,01/30/2015 10:20:04 AM,ONTIME,Closed,Case Closed :,Maintenance Complaint - Residential,Inspectional Services,Housing,Maintenance Complaint - Residential,ISD_Housing (INTERNAL),ISD,,,18 Livingstone St  Dorchester  MA  02124,8.0,07,4.0,B3,Greater Mattapan,9.0,Ward 14,1412.0,R3,18 Livingstone St,2124.0,Address,86838.0,42.2852,-71.0895,Constituent Call,"(42.2852, -71.0895)"
478635,101001254577,01/26/2015 08:29:06 PM,04/26/2015 08:29:06 PM,,OVERDUE,Open,,Maintenance Complaint - Residential,Inspectional Services,Housing,Maintenance Complaint - Residential,ISD_Housing (INTERNAL),ISD,,,15-17 Ackley Pl  Jamaica Plain  MA  02130,9.0,02,6.0,E13,Jamaica Plain,11.0,11,1106.0,,15-17 Ackley Pl,2130.0,Address,172165.0,42.3114,-71.1037,Constituent Call,"(42.3114, -71.1037)"
480290,101001256460,01/27/2015 10:12:02 PM,04/27/2015 10:12:02 PM,01/30/2015 10:30:18 AM,ONTIME,Closed,Case Closed ADCLSD: Administratively Closed,Maintenance Complaint - Residential,Inspectional Services,Housing,Maintenance Complaint - Residential,ISD_Housing (INTERNAL),ISD,,,18 Rosedale St  Dorchester  MA  02124,8.0,07,4.0,B3,Dorchester,9.0,Ward 17,1703.0,R3,18 Rosedale St,2124.0,Address,301246.0,42.2924,-71.0727,Constituent Call,"(42.2924, -71.0727)"
480622,101001256839,01/28/2015 07:50:10 AM,04/28/2015 07:50:10 AM,01/28/2015 07:57:23 AM,ONTIME,Closed,Case Closed Case Invalid Sent to Wrong Queue,Maintenance Complaint - Residential,Inspectional Services,Housing,Maintenance Complaint - Residential,ISD_Housing (INTERNAL),ISD,,,2 Faulkner Cir  Dorchester  MA  02122,7.0,07,3.0,C11,Dorchester,7.0,Ward 16,1601.0,R3,2 Faulkner Cir,2122.0,Address,56722.0,42.2997,-71.0619,Constituent Call,"(42.2997, -71.0619)"
481173,101001257508,01/28/2015 10:12:54 AM,04/28/2015 10:12:54 AM,,OVERDUE,Open,,Maintenance Complaint - Residential,Inspectional Services,Housing,Maintenance Complaint - Residential,ISD_Housing (INTERNAL),ISD,,,83 Spencer St  Dorchester  MA  02124,8.0,07,4.0,B3,Dorchester,9.0,Ward 17,1703.0,R3,83 Spencer St,2124.0,Address,129376.0,42.2941,-71.0764,Constituent Call,"(42.2941, -71.0764)"
481727,101001258162,01/28/2015 12:34:31 PM,04/28/2015 12:34:31 PM,,OVERDUE,Open,,Maintenance Complaint - Residential,Inspectional Services,Housing,Maintenance Complaint - Residential,ISD_Housing (INTERNAL),ISD,,,220 Waldemar Ave  East Boston  MA  02128,1.0,09,1.0,A7,East Boston,1.0,Ward 1,113.0,E,220 Waldemar Ave,2128.0,Address,325826.0,42.3933,-71.0091,Constituent Call,"(42.3933, -71.0091)"
484343,101001261553,01/29/2015 11:42:36 AM,04/29/2015 11:42:36 AM,,OVERDUE,Open,,Maintenance Complaint - Residential,Inspectional Services,Housing,Maintenance Complaint - Residential,ISD_Housing (INTERNAL),ISD,,,3227 Washington St  Jamaica Plain  MA  02130,9.0,02,6.0,E13,Jamaica Plain,11.0,Ward 11,1106.0,R2,3227 Washington St,2130.0,Address,331111.0,42.3121,-71.1023,Constituent Call,"(42.3121, -71.1023)"
484939,101001262404,01/29/2015 03:43:23 PM,04/29/2015 03:43:23 PM,,OVERDUE,Open,,Maintenance Complaint - Residential,Inspectional Services,Housing,Maintenance Complaint - Residential,ISD_Housing (INTERNAL),ISD,,,315-319 Blue Hill Ave  Dorchester  MA  02121,9.0,10B,7.0,B2,Roxbury,13.0,Ward 12,1206.0,E,315-319 Blue Hill Ave,2121.0,Address,162138.0,42.3137,-71.0797,Constituent Call,"(42.3137, -71.0797)"
485433,101001263162,01/29/2015 07:39:06 PM,04/29/2015 07:39:06 PM,02/20/2015 02:26:09 PM,ONTIME,Closed,Case Closed :,Maintenance Complaint - Residential,Inspectional Services,Housing,Maintenance Complaint - Residential,ISD_Housing (INTERNAL),ISD,,,22 Branchfield St  Dorchester  MA  02124,8.0,07,3.0,C11,Dorchester,7.0,Ward 17,1713.0,CD,22 Branchfield St,2124.0,Address,19571.0,42.2719,-71.0639,Constituent Call,"(42.2719, -71.0639)"
487281,101001266158,01/31/2015 05:31:05 PM,05/01/2015 05:31:05 PM,,OVERDUE,Open,,Maintenance Complaint - Residential,Inspectional Services,Housing,Maintenance Complaint - Residential,ISD_Housing (INTERNAL),ISD,,,2 Rutland Sq  Roxbury  MA  02118,4.0,1C,7.0,D4,South End,6.0,Ward 4,404.0,EA,2 Rutland Sq,2118.0,Address,169379.0,42.3409,-71.0779,Constituent Call,"(42.3409, -71.0779)"
487346,101001266265,01/31/2015 09:42:23 PM,05/01/2015 09:42:23 PM,,OVERDUE,Open,,Maintenance Complaint - Residential,Inspectional Services,Housing,Maintenance Complaint - Residential,ISD_Housing (INTERNAL),ISD,,,19 Lincoln St  Dorchester  MA  02122,7.0,07,3.0,C11,Dorchester,7.0,Ward 16,1601.0,R1,19 Lincoln St,2122.0,Address,264718.0,42.2997,-71.0593,Constituent Call,"(42.2997, -71.0593)"
487622,101001266689,02/01/2015 05:22:09 PM,05/02/2015 05:22:08 PM,02/09/2015 09:55:48 AM,ONTIME,Closed,Case Closed ADCLSD: Administratively Closed,Maintenance Complaint - Residential,Inspectional Services,Housing,Maintenance Complaint - Residential,ISD_Housing (INTERNAL),ISD,,,21 Eastman St  Dorchester  MA  02125,7.0,03,7.0,B2,Dorchester,13.0,07,710.0,,21 Eastman St,2125.0,Address,346935.0,42.3594,-71.0587,Self Service,"(0, 0)"
488023,101001267332,02/02/2015 12:13:13 PM,05/03/2015 12:13:13 PM,,OVERDUE,Open,,Maintenance Complaint - Residential,Inspectional Services,Housing,Maintenance Complaint - Residential,ISD_Housing (INTERNAL),ISD,,,241 Walnut Ave  Roxbury  MA  02119,9.0,10B,7.0,B2,Roxbury,13.0,Ward 11,1103.0,A,241 Walnut Ave,2119.0,Address,141915.0,42.3186,-71.0913,Constituent Call,"(42.3186, -71.0913)"
491171,101001271431,02/03/2015 04:33:15 PM,05/04/2015 04:33:15 PM,,OVERDUE,Open,,Maintenance Complaint - Residential,Inspectional Services,Housing,Maintenance Complaint - Residential,ISD_Housing (INTERNAL),ISD,,,1743 Commonwealth Ave  Brighton  MA  02135,11.0,04,9.0,D14,Allston / Brighton,15.0,Ward 21,2113.0,R1,1743 Commonwealth Ave,2135.0,Address,38579.0,42.3418,-71.1496,Constituent Call,"(42.3418, -71.1496)"
491287,101001271589,02/03/2015 05:15:57 PM,05/04/2015 05:15:57 PM,,OVERDUE,Open,,Maintenance Complaint - Residential,Inspectional Services,Housing,Maintenance Complaint - Residential,ISD_Housing (INTERNAL),ISD,,,5 Edwin St  Dorchester  MA  02124,8.0,07,3.0,C11,Dorchester,7.0,Ward 16,1606.0,A,5 Edwin St,2124.0,Address,228455.0,42.2887,-71.0629,Constituent Call,"(42.2887, -71.0629)"
495255,101001277494,02/05/2015 10:23:14 AM,05/06/2015 10:23:14 AM,,OVERDUE,Open,,Maintenance Complaint - Residential,Inspectional Services,Housing,Maintenance Complaint - Residential,ISD_Housing (INTERNAL),ISD,,,55 Codman Hill Ave  Dorchester  MA  02124,8.0,07,3.0,B3,Dorchester,7.0,Ward 17,1704.0,R2,55 Codman Hill Ave,2124.0,Address,34153.0,42.2795,-71.0731,Constituent Call,"(42.2795, -71.0731)"
498030,101001281886,02/07/2015 03:51:02 PM,05/08/2015 03:51:02 PM,,OVERDUE,Open,,Maintenance Complaint - Residential,Inspectional Services,Housing,Maintenance Complaint - Residential,ISD_Housing (INTERNAL),ISD,,,1304 Dorchester Ave  Dorchester  MA  02122,7.0,03,3.0,C11,Dorchester,8.0,Ward 15,1506.0,RC,1304 Dorchester Ave,2122.0,Address,224671.0,42.3061,-71.0585,Constituent Call,"(42.3061, -71.0585)"
498135,101001282059,02/07/2015 08:25:16 PM,05/08/2015 08:25:16 PM,,OVERDUE,Open,,Maintenance Complaint - Residential,Inspectional Services,Housing,Maintenance Complaint - Residential,ISD_Housing (INTERNAL),ISD,,,20 Princeton St  East Boston  MA  02128,1.0,09,1.0,A7,East Boston,1.0,Ward 1,107.0,R3,20 Princeton St,2128.0,Address,295897.0,42.3767,-71.0385,Constituent Call,"(42.3767, -71.0385)"
498327,101001282324,02/08/2015 11:48:53 AM,05/09/2015 11:48:52 AM,,OVERDUE,Open,,Maintenance Complaint - Residential,Inspectional Services,Housing,Maintenance Complaint - Residential,ISD_Housing (INTERNAL),ISD,,,506 Norfolk St  Mattapan  MA  02126,8.0,07,4.0,B3,Greater Mattapan,9.0,Ward 18,1802.0,R3,506 Norfolk St,2126.0,Address,283880.0,42.2791,-71.0891,Constituent Call,"(42.2791, -71.0891)"
498686,101001282839,02/08/2015 11:54:55 PM,05/09/2015 11:54:54 PM,,OVERDUE,Open,,Maintenance Complaint - Residential,Inspectional Services,Housing,Maintenance Complaint - Residential,ISD_Housing (INTERNAL),ISD,,,777 Lagrange St  West Roxbury  MA  02132,12.0,06,6.0,E5,West Roxbury,12.0,Ward 20,2017.0,CD,777 Lagrange St,2132.0,Address,82909.0,42.2911,-71.1682,Constituent Call,"(42.2911, -71.1682)"
498946,101001283176,02/09/2015 11:23:45 AM,05/10/2015 11:23:45 AM,,OVERDUE,Open,,Maintenance Complaint - Residential,Inspectional Services,Housing,Maintenance Complaint - Residential,ISD_Housing (INTERNAL),ISD,,,39 Maywood St  Roxbury  MA  02119,9.0,10B,7.0,B2,Roxbury,13.0,Ward 12,1206.0,CD,39 Maywood St,2119.0,Address,93348.0,42.3167,-71.0799,Constituent Call,"(42.3167, -71.0799)"
498947,101001283177,02/09/2015 11:24:03 AM,05/10/2015 11:24:02 AM,,OVERDUE,Open,,Maintenance Complaint - Residential,Inspectional Services,Housing,Maintenance Complaint - Residential,ISD_Housing (INTERNAL),ISD,,,25-27 Kenwood St  Dorchester  MA  02124,8.0,07,4.0,C11,Dorchester,8.0,Ward 17,1706.0,R2,25-27 Kenwood St,2124.0,Address,81386.0,42.2918,-71.0703,Constituent Call,"(42.2918, -71.0703)"
499665,101001284014,02/09/2015 05:17:26 PM,05/10/2015 05:17:26 PM,,OVERDUE,Open,,Maintenance Complaint - Residential,Inspectional Services,Housing,Maintenance Complaint - Residential,ISD_Housing (INTERNAL),ISD,,,91 Blue Hill Ave  Roxbury  MA  02119,7.0,10B,7.0,B2,Roxbury,13.0,Ward 12,1204.0,R3,91 Blue Hill Ave,2119.0,Address,16589.0,42.3222,-71.0774,Constituent Call,"(42.3222, -71.0774)"
499810,101001284185,02/09/2015 06:45:14 PM,05/10/2015 06:45:14 PM,,OVERDUE,Open,,Maintenance Complaint - Residential,Inspectional Services,Housing,Maintenance Complaint - Residential,ISD_Housing (INTERNAL),ISD,,,376 Riverway   Boston  MA  02115,4.0,10A,8.0,B2,Boston,14.0,10,1004.0,A,376 Riverway,2115.0,Address,300243.0,42.333,-71.1116,Constituent Call,"(42.333, -71.1116)"
500319,101001284824,02/10/2015 09:37:02 AM,05/11/2015 09:37:02 AM,,OVERDUE,Open,,Maintenance Complaint - Residential,Inspectional Services,Housing,Maintenance Complaint - Residential,ISD_Housing (INTERNAL),ISD,,,52-54 Irving St  Boston  MA  02114,3.0,1B,1.0,A1,Beacon Hill,3.0,Ward 3,306.0,A,52-54 Irving St,2114.0,Address,78976.0,42.3598,-71.0662,Self Service,"(42.3598, -71.0662)"
500777,101001285411,02/10/2015 12:30:18 PM,05/11/2015 12:30:18 PM,,OVERDUE,Open,,Maintenance Complaint - Residential,Inspectional Services,Housing,Maintenance Complaint - Residential,ISD_Housing (INTERNAL),ISD,,,64 Tennis Rd  Mattapan  MA  02126,8.0,07,5.0,B3,Greater Mattapan,9.0,Ward 18,1803.0,R1,64 Tennis Rd,2126.0,Address,134415.0,42.2765,-71.0965,Constituent Call,"(42.2765, -71.0965)"
501032,101001285749,02/10/2015 02:14:34 PM,05/11/2015 02:14:34 PM,04/07/2015 03:38:28 PM,ONTIME,Closed,Case Closed NOBASE: No Basis,Maintenance Complaint - Residential,Inspectional Services,Housing,Maintenance Complaint - Residential,ISD_Housing (INTERNAL),ISD,,,221 W Canton St  Boston  MA  02116,4.0,1C,2.0,D4,South End,6.0,Ward 4,402.0,CM,221 W Canton St,2116.0,Address,25716.0,42.3454,-71.0771,Constituent Call,"(42.3454, -71.0771)"
501942,101001287042,02/11/2015 12:02:01 AM,05/12/2015 12:02:01 AM,,OVERDUE,Open,,Maintenance Complaint - Residential,Inspectional Services,Housing,Maintenance Complaint - Residential,ISD_Housing (INTERNAL),ISD,,,706 Walk Hill St  Mattapan  MA  02126,8.0,07,4.0,B3,Greater Mattapan,9.0,Ward 14,1408.0,R3,706 Walk Hill St,2126.0,Address,326415.0,42.2779,-71.0941,Constituent Call,"(42.2779, -71.0941)"
503719,101001289689,02/11/2015 08:12:41 PM,05/12/2015 08:12:40 PM,,OVERDUE,Open,,Maintenance Complaint - Residential,Inspectional Services,Housing,Maintenance Complaint - Residential,ISD_Housing (INTERNAL),ISD,,,6 Linwood St  Roxbury  MA  02119,7.0,10B,7.0,B2,Roxbury,13.0,Ward 11,1101.0,R3,6 Linwood St,2119.0,Address,265052.0,42.3278,-71.0928,Constituent Call,"(42.3278, -71.0928)"
505092,101001291822,02/12/2015 04:02:17 PM,05/13/2015 04:02:17 PM,06/04/2015 11:45:40 AM,OVERDUE,Closed,Case Closed. Closed date : 2015-06-04 11:45:40.62 :,Maintenance Complaint - Residential,Inspectional Services,Housing,Maintenance Complaint - Residential,ISD_Housing (INTERNAL),ISD,,,8 Fairfield St  Boston  MA  02116,4.0,1C,8.0,D4,Back Bay,14.0,Ward 5,508.0,R4,8 Fairfield St,2116.0,Address,232400.0,42.352,-71.0831,Self Service,"(42.352, -71.0831)"
505324,101001292204,02/12/2015 06:59:38 PM,05/13/2015 06:59:38 PM,02/13/2015 10:47:22 AM,ONTIME,Closed,Case Closed Case Invalid no details or eForm attached.,Maintenance Complaint - Residential,Inspectional Services,Housing,Maintenance Complaint - Residential,ISD_Housing (INTERNAL),ISD,,,23 Snowden Way  Dorchester  MA  02124,8.0,07,4.0,B3,Greater Mattapan,9.0,Ward 14,1411.0,RL,23 Snowden Way,2124.0,Address,155010.0,42.2902,-71.093,Constituent Call,"(42.2902, -71.093)"
505325,101001292205,02/12/2015 07:01:05 PM,05/13/2015 07:01:05 PM,,OVERDUE,Open,,Maintenance Complaint - Residential,Inspectional Services,Housing,Maintenance Complaint - Residential,ISD_Housing (INTERNAL),ISD,,,19 Snow Hill St  Boston  MA  02113,3.0,1B,1.0,A1,Downtown / Financial District,3.0,Ward 3,303.0,R4,19 Snow Hill St,2113.0,Address,311820.0,42.3663,-71.0564,Constituent Call,"(42.3663, -71.0564)"
505412,101001292336,02/12/2015 08:26:40 PM,05/13/2015 08:26:40 PM,,OVERDUE,Open,,Maintenance Complaint - Residential,Inspectional Services,Housing,Maintenance Complaint - Residential,ISD_Housing (INTERNAL),ISD,,,95 Milton Ave  Dorchester  MA  02124,8.0,07,4.0,B3,Dorchester,9.0,Ward 17,1710.0,A,95 Milton Ave,2124.0,Address,95770.0,42.2823,-71.0766,Constituent Call,"(42.2823, -71.0766)"
505445,101001292378,02/12/2015 09:00:56 PM,05/13/2015 09:00:56 PM,,OVERDUE,Open,,Maintenance Complaint - Residential,Inspectional Services,Housing,Maintenance Complaint - Residential,ISD_Housing (INTERNAL),ISD,,,949 Blue Hill Ave  Dorchester  MA  02124,8.0,07,4.0,B3,Greater Mattapan,9.0,Ward 14,1411.0,R3,949 Blue Hill Ave,2124.0,Address,190359.0,42.292,-71.0893,Constituent Call,"(42.292, -71.0893)"
506191,101001293428,02/13/2015 12:04:29 PM,05/14/2015 12:04:28 PM,07/30/2015 10:37:31 AM,OVERDUE,Closed,Case Closed. Closed date : 2015-07-30 10:37:31.393 VIOLFND: Violation Found,Maintenance Complaint - Residential,Inspectional Services,Housing,Maintenance Complaint - Residential,ISD_Housing (INTERNAL),ISD,,,27 Garden St  Boston  MA  02114,3.0,1B,8.0,A1,Beacon Hill,14.0,Ward 5,504.0,A,27 Garden St,2114.0,Address,239257.0,42.3606,-71.0671,Constituent Call,"(42.3606, -71.0671)"
506264,101001293529,02/13/2015 12:48:05 PM,05/14/2015 12:48:05 PM,03/12/2015 03:05:57 PM,ONTIME,Closed,Case Closed :,Maintenance Complaint - Residential,Inspectional Services,Housing,Maintenance Complaint - Residential,ISD_Housing (INTERNAL),ISD,,,166 Chelsea St  East Boston  MA  02128,1.0,09,1.0,A7,East Boston,1.0,Ward 1,105.0,A,166 Chelsea St,2128.0,Address,205797.0,42.374,-71.0343,Constituent Call,"(42.374, -71.0343)"
506293,101001293567,02/13/2015 01:03:03 PM,05/14/2015 01:03:03 PM,08/13/2015 01:51:02 PM,OVERDUE,Closed,Case Closed. Closed date : 2015-08-13 13:51:02.33 VIOLFND: Violation Found,Maintenance Complaint - Residential,Inspectional Services,Housing,Maintenance Complaint - Residential,ISD_Housing (INTERNAL),ISD,,,162 Wachusett St  Jamaica Plain  MA  02130,12.0,02,6.0,E13,Jamaica Plain,10.0,Ward 19,1907.0,R3,162 Wachusett St,2130.0,Address,141129.0,42.2938,-71.1163,Constituent Call,"(42.2938, -71.1163)"
506746,101001294244,02/13/2015 06:41:38 PM,05/14/2015 06:41:38 PM,03/12/2015 03:34:05 PM,ONTIME,Closed,Case Closed :,Maintenance Complaint - Residential,Inspectional Services,Housing,Maintenance Complaint - Residential,ISD_Housing (INTERNAL),ISD,,,14 Harvard St  Dorchester  MA  02124,8.0,03,4.0,B3,Dorchester,9.0,Ward 17,1701.0,R3,14 Harvard St,2124.0,Address,248631.0,42.299,-71.0743,Constituent Call,"(42.299, -71.0743)"
507481,101001295264,02/14/2015 05:38:13 PM,05/15/2015 05:38:13 PM,03/16/2015 02:49:33 PM,ONTIME,Closed,Case Closed :,Maintenance Complaint - Residential,Inspectional Services,Housing,Maintenance Complaint - Residential,ISD_Housing (INTERNAL),ISD,,,4 Beale St  Dorchester  MA  02124,8.0,07,3.0,C11,Dorchester,7.0,Ward 16,1608.0,RC,4 Beale St,2124.0,Address,185663.0,42.2832,-71.0648,Constituent Call,"(42.2832, -71.0648)"
507499,101001295289,02/14/2015 06:33:19 PM,05/15/2015 06:33:18 PM,,OVERDUE,Open,,Maintenance Complaint - Residential,Inspectional Services,Housing,Maintenance Complaint - Residential,ISD_Housing (INTERNAL),ISD,,,1465 Blue Hill Ave  Mattapan  MA  02126,8.0,07,5.0,B3,Greater Mattapan,9.0,Ward 18,1803.0,CD,1465 Blue Hill Ave,2126.0,Address,16288.0,42.274,-71.0939,Constituent Call,"(42.274, -71.0939)"
507598,101001295456,02/15/2015 07:55:53 AM,05/16/2015 07:55:53 AM,03/13/2015 08:39:12 AM,ONTIME,Closed,Case Closed :,Maintenance Complaint - Residential,Inspectional Services,Housing,Maintenance Complaint - Residential,ISD_Housing (INTERNAL),ISD,,,22 Crawford St  Dorchester  MA  02121,9.0,10B,7.0,B2,Roxbury,13.0,Ward 12,1202.0,R3,22 Crawford St,2121.0,Address,220244.0,42.3107,-71.0847,Constituent Call,"(42.3107, -71.0847)"
508813,101001296856,02/15/2015 08:35:43 PM,05/16/2015 08:35:42 PM,,OVERDUE,Open,,Maintenance Complaint - Residential,Inspectional Services,Housing,Maintenance Complaint - Residential,ISD_Housing (INTERNAL),ISD,,,1057-1059 Washington St  Dorchester  MA  02124,8.0,07,3.0,C11,Dorchester,7.0,Ward 17,1713.0,R2,1057-1059 Washington St,2124.0,Address,145910.0,42.2752,-71.07,Constituent Call,"(42.2752, -71.07)"
509116,101001297204,02/16/2015 08:23:13 AM,05/17/2015 08:22:25 AM,03/14/2015 12:17:17 PM,ONTIME,Closed,Case Closed :,Maintenance Complaint - Residential,Inspectional Services,Housing,Maintenance Complaint - Residential,ISD_Housing (INTERNAL),ISD,,,784 Washington St  Dorchester  MA  02124,8.0,07,4.0,C11,Dorchester,8.0,Ward 17,1709.0,E,784 Washington St,2124.0,Address,332675.0,42.2842,-71.0709,Constituent Call,"(42.2842, -71.0709)"
509397,101001297544,02/16/2015 10:11:48 AM,05/17/2015 10:11:47 AM,,OVERDUE,Open,,Maintenance Complaint - Residential,Inspectional Services,Housing,Maintenance Complaint - Residential,ISD_Housing (INTERNAL),ISD,,,50 East St  Dorchester  MA  02122,7.0,03,3.0,C11,Dorchester,8.0,Ward 15,1504.0,CD,50 East St,2122.0,Address,50829.0,42.3073,-71.0609,Constituent Call,"(42.3073, -71.0609)"
509492,101001297652,02/16/2015 10:34:43 AM,05/17/2015 10:34:43 AM,,OVERDUE,Open,,Maintenance Complaint - Residential,Inspectional Services,Housing,Maintenance Complaint - Residential,ISD_Housing (INTERNAL),ISD,,,349 Dudley St  Roxbury  MA  02119,7.0,10B,7.0,B2,Roxbury,13.0,Ward 8,807.0,R3,349 Dudley St,2119.0,Address,226576.0,42.3267,-71.0764,Constituent Call,"(42.3267, -71.0764)"
509533,101001297708,02/16/2015 10:47:21 AM,05/17/2015 10:47:21 AM,,OVERDUE,Open,,Maintenance Complaint - Residential,Inspectional Services,Housing,Maintenance Complaint - Residential,ISD_Housing (INTERNAL),ISD,,,455 Meridian St  East Boston  MA  02128,1.0,09,1.0,A7,East Boston,1.0,Ward 1,108.0,R3,455 Meridian St,2128.0,Address,274715.0,42.3822,-71.0391,Constituent Call,"(42.3822, -71.0391)"
509599,101001297789,02/16/2015 11:10:31 AM,05/17/2015 11:10:31 AM,,OVERDUE,Open,,Maintenance Complaint - Residential,Inspectional Services,Housing,Maintenance Complaint - Residential,ISD_Housing (INTERNAL),ISD,,,320 Washington St  Dorchester  MA  02121,7.0,03,4.0,C11,Dorchester,8.0,Ward 14,1404.0,R3,320 Washington St,2121.0,Address,332420.0,42.3002,-71.0742,Constituent Call,"(42.3002, -71.0742)"
510223,101001298558,02/16/2015 02:30:36 PM,05/17/2015 02:30:36 PM,,OVERDUE,Open,,Maintenance Complaint - Residential,Inspectional Services,Housing,Maintenance Complaint - Residential,ISD_Housing (INTERNAL),ISD,,,128 Intervale St  Dorchester  MA  02121,7.0,03,4.0,B2,Roxbury,13.0,Ward 14,1401.0,A,128 Intervale St,2121.0,Address,258537.0,42.31,-71.0757,Constituent Call,"(42.31, -71.0757)"
510843,101001299344,02/16/2015 06:12:16 PM,05/17/2015 06:12:16 PM,,OVERDUE,Open,,Maintenance Complaint - Residential,Inspectional Services,Housing,Maintenance Complaint - Residential,ISD_Housing (INTERNAL),ISD,,,5 Salisbury Park  Dorchester  MA  02122,7.0,07,3.0,C11,Dorchester,7.0,Ward 16,1601.0,CM,5 Salisbury Park,2122.0,Address,122003.0,42.2994,-71.059,Constituent Call,"(42.2994, -71.059)"
511280,101001299906,02/17/2015 06:50:54 AM,05/18/2015 06:50:54 AM,,OVERDUE,Open,,Maintenance Complaint - Residential,Inspectional Services,Housing,Maintenance Complaint - Residential,ISD_Housing (INTERNAL),ISD,,,18 McNulty Ct  Charlestown  MA  02129,3.0,1A,1.0,A15,Charlestown,2.0,02,202.0,,18 McNulty Ct,2129.0,Address,167556.0,42.3782,-71.058,Constituent Call,"(42.3782, -71.058)"
512014,101001300970,02/17/2015 11:40:16 AM,05/18/2015 11:40:15 AM,02/25/2015 01:43:26 PM,ONTIME,Closed,Case Closed :,Maintenance Complaint - Residential,Inspectional Services,Housing,Maintenance Complaint - Residential,ISD_Housing (INTERNAL),ISD,,,30 Moultrie St  Dorchester  MA  02124,8.0,07,4.0,C11,Dorchester,8.0,Ward 17,1706.0,R1,30 Moultrie St,2124.0,Address,98055.0,42.2913,-71.0697,Constituent Call,"(42.2913, -71.0697)"
512552,101001301725,02/17/2015 03:21:28 PM,05/18/2015 03:21:28 PM,03/12/2015 04:54:40 PM,ONTIME,Closed,Case Closed :,Maintenance Complaint - Residential,Inspectional Services,Housing,Maintenance Complaint - Residential,ISD_Housing (INTERNAL),ISD,,,95-97 H St  South Boston  MA  02127,6.0,05,2.0,C6,South Boston / South Boston Waterfront,5.0,Ward 7,703.0,R2,95-97 H St,2127.0,Address,67917.0,42.3344,-71.0417,Constituent Call,"(42.3344, -71.0417)"
513449,101001302953,02/18/2015 12:50:22 AM,05/19/2015 12:50:22 AM,03/17/2015 12:28:43 PM,ONTIME,Closed,Case Closed :,Maintenance Complaint - Residential,Inspectional Services,Housing,Maintenance Complaint - Residential,ISD_Housing (INTERNAL),ISD,,,297 Hyde Park Ave  Jamaica Plain  MA  02130,12.0,02,6.0,E13,Jamaica Plain,10.0,Ward 19,1907.0,R3,297 Hyde Park Ave,2130.0,Address,257748.0,42.2914,-71.1182,Constituent Call,"(42.2914, -71.1182)"
513874,101001303605,02/18/2015 09:47:51 AM,05/19/2015 09:47:50 AM,,OVERDUE,Open,,Maintenance Complaint - Residential,Inspectional Services,Housing,Maintenance Complaint - Residential,ISD_Housing (INTERNAL),ISD,,,107 Heath St  Mission Hill  MA  02120,9.0,10A,6.0,E13,Mission Hill,11.0,Ward 10,1006.0,R3,107 Heath St,2120.0,Address,166161.0,42.3265,-71.1024,Constituent Call,"(42.3265, -71.1024)"
514844,101001304976,02/18/2015 04:58:42 PM,05/19/2015 04:58:42 PM,,OVERDUE,Open,,Maintenance Complaint - Residential,Inspectional Services,Housing,Maintenance Complaint - Residential,ISD_Housing (INTERNAL),ISD,,,57 Bicknell St  Dorchester  MA  02121,7.0,03,4.0,B3,Greater Mattapan,8.0,Ward 14,1402.0,A,57 Bicknell St,2121.0,Address,188622.0,42.2985,-71.0829,Constituent Call,"(42.2985, -71.0829)"
515433,101001305948,02/19/2015 08:59:16 AM,05/20/2015 08:59:16 AM,03/17/2015 01:08:55 PM,ONTIME,Closed,Case Closed :,Maintenance Complaint - Residential,Inspectional Services,Housing,Maintenance Complaint - Residential,ISD_Housing (INTERNAL),ISD,,,45 Saratoga St  East Boston  MA  02128,1.0,09,1.0,A7,East Boston,1.0,Ward 1,106.0,R3,45 Saratoga St,2128.0,Address,306047.0,42.3761,-71.0374,Constituent Call,"(42.3761, -71.0374)"
515685,101001306337,02/19/2015 10:37:06 AM,05/20/2015 10:37:06 AM,03/23/2015 08:13:47 AM,ONTIME,Closed,Case Closed VIOLFND: Violation Found,Maintenance Complaint - Residential,Inspectional Services,Housing,Maintenance Complaint - Residential,ISD_Housing (INTERNAL),ISD,,,23 Beale St  Dorchester  MA  02124,8.0,07,3.0,C11,Dorchester,7.0,Ward 16,1608.0,R3,23 Beale St,2124.0,Address,12814.0,42.2832,-71.0637,Constituent Call,"(42.2832, -71.0637)"
516004,101001306804,02/19/2015 01:15:42 PM,05/20/2015 01:15:41 PM,03/16/2015 01:03:57 PM,ONTIME,Closed,Case Closed :,Maintenance Complaint - Residential,Inspectional Services,Housing,Maintenance Complaint - Residential,ISD_Housing (INTERNAL),ISD,,,305 Hancock St  Dorchester  MA  02122,7.0,03,3.0,C11,Dorchester,8.0,15,1504.0,RC,305 Hancock St,2122.0,Address,165967.0,42.3081,-71.0588,Constituent Call,"(42.3081, -71.0588)"
516006,101001306806,02/19/2015 01:16:20 PM,05/20/2015 01:16:19 PM,,OVERDUE,Open,,Maintenance Complaint - Residential,Inspectional Services,Housing,Maintenance Complaint - Residential,ISD_Housing (INTERNAL),ISD,,,390 Commonwealth Ave  Boston  MA  02215,4.0,10A,8.0,D4,Back Bay,14.0,Ward 5,510.0,CM,390 Commonwealth Ave,2215.0,Address,40523.0,42.3486,-71.0903,Constituent Call,"(42.3486, -71.0903)"
516054,101001306875,02/19/2015 01:41:48 PM,05/20/2015 01:41:48 PM,,OVERDUE,Open,,Maintenance Complaint - Residential,Inspectional Services,Housing,Maintenance Complaint - Residential,ISD_Housing (INTERNAL),ISD,,,132 Myrtle St  Boston  MA  02114,3.0,1B,8.0,A1,Beacon Hill,14.0,Ward 5,504.0,CM,132 Myrtle St,2114.0,Address,99680.0,42.3591,-71.0695,Constituent Call,"(42.3591, -71.0695)"
516063,101001306886,02/19/2015 01:45:06 PM,05/20/2015 01:45:06 PM,,OVERDUE,Open,,Maintenance Complaint - Residential,Inspectional Services,Housing,Maintenance Complaint - Residential,ISD_Housing (INTERNAL),ISD,,,132 Myrtle St  Boston  MA  02114,3.0,1B,8.0,A1,Beacon Hill,14.0,Ward 5,504.0,CM,132 Myrtle St,2114.0,Address,99680.0,42.3591,-71.0695,Constituent Call,"(42.3591, -71.0695)"
516072,101001306905,02/19/2015 01:51:30 PM,05/20/2015 01:51:29 PM,,OVERDUE,Open,,Maintenance Complaint - Residential,Inspectional Services,Housing,Maintenance Complaint - Residential,ISD_Housing (INTERNAL),ISD,,,48 Irving St  Boston  MA  02114,3.0,1B,1.0,A1,Beacon Hill,3.0,Ward 3,306.0,A,48 Irving St,2114.0,Address,258962.0,42.3599,-71.0662,Constituent Call,"(42.3599, -71.0662)"
516197,101001307087,02/19/2015 03:12:53 PM,05/20/2015 03:12:53 PM,,OVERDUE,Open,,Maintenance Complaint - Residential,Inspectional Services,Housing,Maintenance Complaint - Residential,ISD_Housing (INTERNAL),ISD,,,56 Bragdon St  Roxbury  MA  02119,9.0,10B,6.0,E13,Jamaica Plain,11.0,Ward 11,1104.0,A,56 Bragdon St,2119.0,Address,19268.0,42.3184,-71.0987,Constituent Call,"(42.3184, -71.0987)"
516571,101001307604,02/19/2015 07:10:44 PM,05/20/2015 07:10:44 PM,07/30/2015 11:34:49 AM,OVERDUE,Closed,Case Closed. Closed date : 2015-07-30 11:34:49.58 VIOLFND: Violation Found,Maintenance Complaint - Residential,Inspectional Services,Housing,Maintenance Complaint - Residential,ISD_Housing (INTERNAL),ISD,,,261 Border St  East Boston  MA  02128,1.0,09,1.0,A7,East Boston,1.0,Ward 1,106.0,R3,261 Border St,2128.0,Address,190647.0,42.3769,-71.0397,Constituent Call,"(42.3769, -71.0397)"
516672,101001307744,02/19/2015 09:32:07 PM,05/20/2015 09:32:07 PM,04/14/2015 11:06:45 AM,ONTIME,Closed,Case Closed :,Maintenance Complaint - Residential,Inspectional Services,Housing,Maintenance Complaint - Residential,ISD_Housing (INTERNAL),ISD,,,158 Quincy St  Dorchester  MA  02125,7.0,03,7.0,B2,Roxbury,13.0,Ward 13,1301.0,R3,158 Quincy St,2125.0,Address,297059.0,42.3135,-71.076,Constituent Call,"(42.3135, -71.076)"
516699,101001307786,02/19/2015 10:13:05 PM,05/20/2015 10:13:04 PM,,OVERDUE,Open,,Maintenance Complaint - Residential,Inspectional Services,Housing,Maintenance Complaint - Residential,ISD_Housing (INTERNAL),ISD,,,24 Everett St  Brighton  MA  02135,11.0,04,9.0,D14,Allston / Brighton,15.0,Ward 22,2205.0,R4,24 Everett St,2135.0,Address,231927.0,42.3548,-71.139,Self Service,"(42.3548, -71.139)"
517429,101001308847,02/20/2015 02:01:38 PM,05/21/2015 02:01:38 PM,,OVERDUE,Open,,Maintenance Complaint - Residential,Inspectional Services,Housing,Maintenance Complaint - Residential,ISD_Housing (INTERNAL),ISD,,,133 Draper St  Dorchester  MA  02122,7.0,03,3.0,C11,Dorchester,8.0,Ward 15,1507.0,R2,133 Draper St,2122.0,Address,226214.0,42.306,-71.0656,Constituent Call,"(42.306, -71.0656)"
518505,101001310402,02/21/2015 05:44:31 PM,05/22/2015 05:44:31 PM,,OVERDUE,Open,,Maintenance Complaint - Residential,Inspectional Services,Housing,Maintenance Complaint - Residential,ISD_Housing (INTERNAL),ISD,,,19 Wilmore St  Mattapan  MA  02126,8.0,07,4.0,B3,Greater Mattapan,9.0,Ward 18,1802.0,R3,19 Wilmore St,2126.0,Address,150476.0,42.2778,-71.0925,Constituent Call,"(42.2778, -71.0925)"
518561,101001310504,02/21/2015 08:28:36 PM,05/22/2015 08:28:35 PM,08/12/2015 02:12:41 PM,OVERDUE,Closed,Case Closed. Closed date : 2015-08-12 14:12:41.693 VIOLFND: Violation Found,Maintenance Complaint - Residential,Inspectional Services,Housing,Maintenance Complaint - Residential,ISD_Housing (INTERNAL),ISD,,,1334 Commonwealth Ave  Allston  MA  02134,11.0,04,9.0,D14,Allston / Brighton,15.0,Ward 21,2108.0,RC,1334 Commonwealth Ave,2134.0,Address,214533.0,42.3479,-71.1353,Constituent Call,"(42.3479, -71.1353)"
518975,101001311163,02/22/2015 05:06:34 PM,05/23/2015 05:06:34 PM,03/12/2015 02:32:41 PM,ONTIME,Closed,Case Closed :,Maintenance Complaint - Residential,Inspectional Services,Housing,Maintenance Complaint - Residential,ISD_Housing (INTERNAL),ISD,,,111 Atlantic Ave  Boston  MA  02109,3.0,1B,1.0,A1,Boston,3.0,03,301.0,,111 Atlantic Ave,2109.0,Address,353198.0,42.3594,-71.0587,Constituent Call,"(0, 0)"
521725,101001315228,02/25/2015 12:54:48 AM,05/26/2015 12:54:47 AM,03/16/2015 12:37:41 PM,ONTIME,Closed,Case Closed :,Maintenance Complaint - Residential,Inspectional Services,Housing,Maintenance Complaint - Residential,ISD_Housing (INTERNAL),ISD,,,425 Old Colony Ave  South Boston  MA  02127,6.0,05,2.0,C6,South Boston / South Boston Waterfront,5.0,Ward 7,707.0,E,425 Old Colony Ave,2127.0,Address,173978.0,42.3258,-71.0528,Constituent Call,"(42.3258, -71.0528)"
522051,101001315733,02/25/2015 10:32:03 AM,05/26/2015 10:32:03 AM,03/16/2015 11:47:57 AM,ONTIME,Closed,Case Closed TICKET: Ticket Issued,Maintenance Complaint - Residential,Inspectional Services,Housing,Maintenance Complaint - Residential,ISD_Housing (INTERNAL),ISD,,,10-12 Ellis St  Hyde Park  MA  02136,12.0,08,5.0,E18,Hyde Park,10.0,Ward 18,1819.0,CM,10-12 Ellis St,2136.0,Address,52935.0,42.2494,-71.1318,Constituent Call,"(42.2494, -71.1318)"
523412,101001317649,02/26/2015 11:53:57 AM,05/27/2015 11:53:57 AM,03/16/2015 08:25:25 AM,ONTIME,Closed,Case Closed TICKET: Ticket Issued,Maintenance Complaint - Residential,Inspectional Services,Housing,Maintenance Complaint - Residential,ISD_Housing (INTERNAL),ISD,,,610 Cummins Hwy  Mattapan  MA  02126,8.0,07,5.0,B3,Greater Mattapan,9.0,Ward 18,1821.0,EA,610 Cummins Hwy,2126.0,Address,44910.0,42.2727,-71.107,Constituent Call,"(42.2727, -71.107)"
524786,101001319671,02/27/2015 06:46:59 PM,05/28/2015 06:46:59 PM,03/16/2015 03:46:06 PM,ONTIME,Closed,Case Closed :,Maintenance Complaint - Residential,Inspectional Services,Housing,Maintenance Complaint - Residential,ISD_Housing (INTERNAL),ISD,,,7-5 Scottfield Rd  Allston  MA  02134,11.0,04,9.0,D14,Allston / Brighton,15.0,Ward 21,2108.0,RC,7-5 Scottfield Rd,2134.0,Address,124010.0,42.3476,-71.1366,Self Service,"(42.3476, -71.1366)"
525644,101001321057,03/02/2015 10:15:57 AM,05/31/2015 10:15:57 AM,,OVERDUE,Open,,Maintenance Complaint - Residential,Inspectional Services,Housing,Maintenance Complaint - Residential,ISD_Housing (INTERNAL),ISD,,,121 Old Harbor St  South Boston  MA  02127,6.0,05,2.0,C6,South Boston / South Boston Waterfront,5.0,07,704.0,E,121 Old Harbor St,2127.0,Address,286744.0,42.3308,-71.0476,Self Service,"(42.3308, -71.0476)"
526523,101001322359,03/03/2015 09:34:41 AM,06/01/2015 09:34:40 AM,,OVERDUE,Open,,Maintenance Complaint - Residential,Inspectional Services,Housing,Maintenance Complaint - Residential,ISD_Housing (INTERNAL),ISD,,,43 Paragon Rd  West Roxbury  MA  02132,12.0,06,6.0,E5,West Roxbury,12.0,Ward 20,2016.0,R2,43 Paragon Rd,2132.0,Address,288270.0,42.2695,-71.1641,Constituent Call,"(42.2695, -71.1641)"
526571,101001322431,03/03/2015 10:07:47 AM,06/01/2015 10:07:47 AM,04/15/2015 01:49:08 PM,ONTIME,Closed,Case Closed :,Maintenance Complaint - Residential,Inspectional Services,Housing,Maintenance Complaint - Residential,ISD_Housing (INTERNAL),ISD,,,3 Howland St  Dorchester  MA  02121,9.0,10B,7.0,B2,Roxbury,13.0,Ward 12,1202.0,A,3 Howland St,2121.0,Address,253872.0,42.3115,-71.0835,Constituent Call,"(42.3115, -71.0835)"
528513,101001325339,03/05/2015 04:20:47 PM,06/03/2015 04:20:47 PM,03/16/2015 12:51:43 PM,ONTIME,Closed,Case Closed :,Maintenance Complaint - Residential,Inspectional Services,Housing,Maintenance Complaint - Residential,ISD_Housing (INTERNAL),ISD,,,225 River St  Mattapan  MA  02126,8.0,07,4.0,B3,Greater Mattapan,9.0,18,1801.0,E,225 River St,2126.0,Address,299421.0,42.272,-71.0801,Constituent Call,"(42.272, -71.0801)"
529269,101001326485,03/06/2015 07:48:10 PM,06/04/2015 07:48:09 PM,03/11/2015 10:58:06 AM,ONTIME,Closed,Case Closed :,Maintenance Complaint - Residential,Inspectional Services,Housing,Maintenance Complaint - Residential,ISD_Housing (INTERNAL),ISD,,,526 Talbot Ave  Dorchester  MA  02124,8.0,07,3.0,C11,Dorchester,8.0,Ward 16,1603.0,R3,526 Talbot Ave,2124.0,Address,133763.0,42.2875,-71.0649,Constituent Call,"(42.2875, -71.0649)"
529882,101001327512,03/09/2015 09:31:48 AM,06/07/2015 09:31:48 AM,03/11/2015 07:04:31 AM,ONTIME,Closed,Case Closed TICKET: Ticket Issued,Maintenance Complaint - Residential,Inspectional Services,Housing,Maintenance Complaint - Residential,ISD_Housing (INTERNAL),ISD,,,720 River St  Mattapan  MA  02126,8.0,08,5.0,E18,Hyde Park,9.0,Ward 18,1805.0,A,720 River St,2126.0,Address,116711.0,42.2634,-71.1022,Constituent Call,"(42.2634, -71.1022)"
531281,101001329649,03/11/2015 05:17:31 AM,06/09/2015 05:17:31 AM,,OVERDUE,Open,,Maintenance Complaint - Residential,Inspectional Services,Housing,Maintenance Complaint - Residential,ISD_Housing (INTERNAL),ISD,,,59 Hemenway St  Boston  MA  02115,4.0,10A,8.0,D4,Fenway / Kenmore / Audubon Circle / Longwood,14.0,Ward 4,407.0,CD,59 Hemenway St,2115.0,Address,72715.0,42.3449,-71.0899,Self Service,"(42.3449, -71.0899)"
532534,101001331513,03/12/2015 01:46:29 PM,06/10/2015 01:46:29 PM,03/16/2015 08:15:44 AM,ONTIME,Closed,Case Closed TICKET: Ticket Issued,Maintenance Complaint - Residential,Inspectional Services,Housing,Maintenance Complaint - Residential,ISD_Housing (INTERNAL),ISD,,,10-12 Ellis St  Hyde Park  MA  02136,12.0,08,5.0,E18,Hyde Park,10.0,Ward 18,1819.0,CM,10-12 Ellis St,2136.0,Address,52935.0,42.2494,-71.1318,Constituent Call,"(42.2494, -71.1318)"
536761,101001337381,03/19/2015 12:42:20 PM,06/17/2015 12:42:20 PM,,OVERDUE,Open,,Maintenance Complaint - Residential,Inspectional Services,Housing,Maintenance Complaint - Residential,ISD_Housing (INTERNAL),ISD,,,64 Fisher Ave  Mission Hill  MA  02120,9.0,10A,8.0,B2,Mission Hill,14.0,Ward 10,1005.0,R3,64 Fisher Ave,2120.0,Address,235854.0,42.3276,-71.1026,Constituent Call,"(42.3276, -71.1026)"
537227,101001338080,03/20/2015 09:53:09 AM,06/18/2015 09:53:09 AM,,OVERDUE,Open,,Maintenance Complaint - Residential,Inspectional Services,Housing,Maintenance Complaint - Residential,ISD_Housing (INTERNAL),ISD,,,121 Old Harbor St  South Boston  MA  02127,6.0,05,2.0,C6,South Boston / South Boston Waterfront,5.0,07,704.0,E,121 Old Harbor St,2127.0,Address,286744.0,42.3308,-71.0476,Self Service,"(42.3308, -71.0476)"
537878,101001338919,03/21/2015 12:54:16 PM,06/19/2015 12:54:16 PM,,OVERDUE,Open,,Maintenance Complaint - Residential,Inspectional Services,Housing,Maintenance Complaint - Residential,ISD_Housing (INTERNAL),ISD,,,11 Suncrest Rd  Mattapan  MA  02126,8.0,08,5.0,E18,Hyde Park,9.0,Ward 18,1805.0,R1,11 Suncrest Rd,2126.0,Address,132597.0,42.2649,-71.1006,Constituent Call,"(42.2649, -71.1006)"
538062,101001339217,03/22/2015 04:58:42 PM,06/20/2015 04:58:42 PM,,OVERDUE,Open,,Maintenance Complaint - Residential,Inspectional Services,Housing,Maintenance Complaint - Residential,ISD_Housing (INTERNAL),ISD,,,633 Shawmut Ave  Roxbury  MA  02118,7.0,10B,7.0,D4,Roxbury,13.0,Ward 9,903.0,E,633 Shawmut Ave,2118.0,Address,310169.0,42.3353,-71.0812,Self Service,"(42.3353, -71.0812)"
539091,101001340619,03/24/2015 11:45:32 AM,06/22/2015 11:45:32 AM,,OVERDUE,Open,,Maintenance Complaint - Residential,Inspectional Services,Housing,Maintenance Complaint - Residential,ISD_Housing (INTERNAL),ISD,,,24 Everett St  Brighton  MA  02135,11.0,04,9.0,D14,Allston / Brighton,15.0,Ward 22,2205.0,R4,24 Everett St,2135.0,Address,231927.0,42.3548,-71.139,Self Service,"(42.3548, -71.139)"
539938,101001341712,03/25/2015 12:22:33 PM,06/23/2015 12:22:33 PM,,OVERDUE,Open,,Maintenance Complaint - Residential,Inspectional Services,Housing,Maintenance Complaint - Residential,ISD_Housing (INTERNAL),ISD,,,1191 Boylston St  Boston  MA  02215,4.0,10A,8.0,D4,Fenway / Kenmore / Audubon Circle / Longwood,14.0,Ward 5,502.0,A,1191 Boylston St,2215.0,Address,192773.0,42.3462,-71.0942,Self Service,"(42.3462, -71.0942)"
540526,101001342588,03/26/2015 11:33:26 AM,06/24/2015 11:33:26 AM,03/26/2015 01:06:59 PM,ONTIME,Closed,Case Closed :,Maintenance Complaint - Residential,Inspectional Services,Housing,Maintenance Complaint - Residential,ISD_Housing (INTERNAL),ISD,,,83 Spencer St  Dorchester  MA  02124,8.0,07,4.0,B3,Dorchester,9.0,Ward 17,1703.0,R3,83 Spencer St,2124.0,Address,129376.0,42.2941,-71.0764,Constituent Call,"(42.2941, -71.0764)"
540684,101001342816,03/26/2015 02:48:19 PM,06/24/2015 02:48:19 PM,03/27/2015 09:35:42 AM,ONTIME,Closed,Case Closed :,Maintenance Complaint - Residential,Inspectional Services,Housing,Maintenance Complaint - Residential,ISD_Housing (INTERNAL),ISD,,,109 Peterborough St  Boston  MA  02215,4.0,10A,8.0,D4,Fenway / Kenmore / Audubon Circle / Longwood,14.0,Ward 21,2101.0,A,109 Peterborough St,2215.0,Address,109773.0,42.3431,-71.1,Constituent Call,"(42.3431, -71.1)"
541012,101001343351,03/27/2015 10:30:09 AM,06/25/2015 10:30:09 AM,,OVERDUE,Open,,Maintenance Complaint - Residential,Inspectional Services,Housing,Maintenance Complaint - Residential,ISD_Housing (INTERNAL),ISD,,,12 Mosgrove Ave  Roslindale  MA  02131,12.0,02,5.0,E5,Roslindale,10.0,Ward 19,1911.0,R2,12 Mosgrove Ave,2131.0,Address,97922.0,42.2919,-71.123,Constituent Call,"(42.2919, -71.123)"
542112,101001344856,03/30/2015 11:48:44 AM,06/28/2015 11:48:44 AM,03/31/2015 09:16:18 AM,ONTIME,Closed,Case Closed :,Maintenance Complaint - Residential,Inspectional Services,Housing,Maintenance Complaint - Residential,ISD_Housing (INTERNAL),ISD,,,3 Foster St  Brighton  MA  02135,11.0,04,9.0,D14,Allston / Brighton,15.0,Ward 22,2210.0,R4,3 Foster St,2135.0,Address,237071.0,42.3507,-71.1571,Self Service,"(42.3507, -71.1571)"
544654,101001348385,04/03/2015 12:14:42 AM,07/02/2015 12:14:42 AM,,OVERDUE,Open,,Maintenance Complaint - Residential,Inspectional Services,Housing,Maintenance Complaint - Residential,ISD_Housing (INTERNAL),ISD,,,425 Old Colony Ave  South Boston  MA  02127,6.0,05,2.0,C6,South Boston / South Boston Waterfront,5.0,Ward 7,707.0,E,425 Old Colony Ave,2127.0,Address,286575.0,42.3258,-71.0528,Constituent Call,"(42.3258, -71.0528)"
546109,101001350397,04/06/2015 03:28:01 PM,07/05/2015 03:28:01 PM,,OVERDUE,Open,,Maintenance Complaint - Residential,Inspectional Services,Housing,Maintenance Complaint - Residential,ISD_Housing (INTERNAL),ISD,,,16 E Brookline St  Roxbury  MA  02118,4.0,1C,2.0,D4,South End,6.0,Ward 8,801.0,E,16 E Brookline St,2118.0,Address,197914.0,42.3392,-71.0708,Constituent Call,"(42.3392, -71.0708)"
546322,101001350684,04/07/2015 08:42:02 AM,07/06/2015 08:42:02 AM,06/15/2015 02:28:17 PM,ONTIME,Closed,Case Closed. Closed date : 2015-06-15 14:28:17.34 :,Maintenance Complaint - Residential,Inspectional Services,Housing,Maintenance Complaint - Residential,ISD_Housing (INTERNAL),ISD,,,38 Annunciation Rd  Mission Hill  MA  02120,9.0,10A,7.0,B2,Mission Hill,13.0,Ward 4,409.0,E,38 Annunciation Rd,2120.0,Address,161572.0,42.3355,-71.092,Constituent Call,"(42.3355, -71.092)"
546383,101001350768,04/07/2015 09:43:43 AM,07/06/2015 09:43:43 AM,,OVERDUE,Open,,Maintenance Complaint - Residential,Inspectional Services,Housing,Maintenance Complaint - Residential,ISD_Housing (INTERNAL),ISD,,,3 Forbes St  Jamaica Plain  MA  02130,9.0,02,6.0,E13,Jamaica Plain,11.0,Ward 19,1901.0,R4,3 Forbes St,2130.0,Address,236417.0,42.322,-71.1084,Constituent Call,"(42.322, -71.1084)"
547308,101001351958,04/08/2015 11:00:13 AM,07/07/2015 11:00:12 AM,,OVERDUE,Open,,Maintenance Complaint - Residential,Inspectional Services,Housing,Maintenance Complaint - Residential,ISD_Housing (INTERNAL),ISD,,,15 Gilmer St  Mattapan  MA  02126,8.0,07,4.0,B3,Greater Mattapan,9.0,Ward 14,1408.0,R2,15 Gilmer St,2126.0,Address,165648.0,42.283,-71.0971,Constituent Call,"(42.283, -71.0971)"
547349,101001352014,04/08/2015 11:41:58 AM,07/07/2015 11:41:57 AM,,OVERDUE,Open,,Maintenance Complaint - Residential,Inspectional Services,Housing,Maintenance Complaint - Residential,ISD_Housing (INTERNAL),ISD,,,352 Massachusetts Ave  Boston  MA  02115,4.0,1C,7.0,D4,Back Bay,14.0,Ward 4,405.0,RC,352 Massachusetts Ave,2115.0,Address,156786.0,42.3421,-71.0835,Constituent Call,"(42.3421, -71.0835)"
547394,101001352073,04/08/2015 12:26:14 PM,07/07/2015 12:26:13 PM,04/08/2015 01:21:50 PM,ONTIME,Closed,Case Closed ADCLSD: Administratively Closed,Maintenance Complaint - Residential,Inspectional Services,Housing,Maintenance Complaint - Residential,ISD_Housing (INTERNAL),ISD,,,25 James O'Neill St  South Boston  MA  02127,6.0,05,2.0,C6,South Boston / South Boston Waterfront,5.0,07,706.0,E,25 James O'Neill St,2127.0,Address,341817.0,42.3594,-71.0587,Constituent Call,"(0, 0)"
548089,101001352987,04/09/2015 01:32:40 PM,07/08/2015 01:32:39 PM,,OVERDUE,Open,,Maintenance Complaint - Residential,Inspectional Services,Housing,Maintenance Complaint - Residential,ISD_Housing (INTERNAL),ISD,,,31 Orlando St  Mattapan  MA  02126,8.0,07,5.0,B3,Mattapan,9.0,18,1803.0,R4,31 Orlando St,2126.0,Address,105835.0,42.2753,-71.0987,Constituent Call,"(42.2753, -71.0987)"
549080,101001354405,04/12/2015 03:54:30 PM,07/11/2015 03:54:30 PM,,OVERDUE,Open,,Maintenance Complaint - Residential,Inspectional Services,Housing,Maintenance Complaint - Residential,ISD_Housing (INTERNAL),ISD,,,903 Saratoga St  East Boston  MA  02128,1.0,09,1.0,A7,East Boston,1.0,Ward 1,113.0,R3,903 Saratoga St,2128.0,Address,306421.0,42.3857,-71.0116,Constituent Call,"(42.3857, -71.0116)"
549377,101001354839,04/13/2015 10:54:17 AM,07/12/2015 10:54:16 AM,,OVERDUE,Open,,Maintenance Complaint - Residential,Inspectional Services,Housing,Maintenance Complaint - Residential,ISD_Housing (INTERNAL),ISD,,,1 Devonshire Pl  Boston  MA  02108,3.0,1C,1.0,A1,Downtown / Financial District,3.0,Ward 3,306.0,RC,1 Devonshire Pl,2108.0,Address,164246.0,42.3581,-71.0576,Constituent Call,"(42.3581, -71.0576)"
549509,101001355009,04/13/2015 12:32:40 PM,07/12/2015 12:32:39 PM,04/28/2015 02:29:47 PM,ONTIME,Closed,Case Closed :,Maintenance Complaint - Residential,Inspectional Services,Housing,Maintenance Complaint - Residential,ISD_Housing (INTERNAL),ISD,,,3 Linden St  Allston  MA  02134,11.0,04,9.0,D14,Allston / Brighton,15.0,Ward 21,2104.0,R4,3 Linden St,2134.0,Address,264787.0,42.3557,-71.1313,Constituent Call,"(42.3557, -71.1313)"
549761,101001355365,04/13/2015 05:30:07 PM,07/12/2015 05:30:04 PM,,OVERDUE,Open,,Maintenance Complaint - Residential,Inspectional Services,Housing,Maintenance Complaint - Residential,ISD_Housing (INTERNAL),ISD,,,25 James O'Neill St  South Boston  MA  02127,6.0,05,2.0,C6,South Boston / South Boston Waterfront,5.0,07,706.0,E,25 James O'Neill St,2127.0,Address,341817.0,42.3594,-71.0587,Constituent Call,"(0, 0)"
550170,101001355947,04/14/2015 11:15:14 AM,07/13/2015 11:15:14 AM,,OVERDUE,Open,,Maintenance Complaint - Residential,Inspectional Services,Housing,Maintenance Complaint - Residential,ISD_Housing (INTERNAL),ISD,,,318 Beech St  Roslindale  MA  02131,12.0,06,5.0,E5,Roslindale,10.0,Ward 20,2009.0,R2,318 Beech St,2131.0,Address,13199.0,42.2799,-71.139,Constituent Call,"(42.2799, -71.139)"
552465,101001359191,04/17/2015 03:49:51 PM,07/16/2015 03:49:51 PM,,OVERDUE,Open,,Maintenance Complaint - Residential,Inspectional Services,Housing,Maintenance Complaint - Residential,ISD_Housing (INTERNAL),ISD,,,14 A Trull St  Dorchester  MA  02125,7.0,03,3.0,C11,Dorchester,8.0,Ward 15,1504.0,CD,14 A Trull St,2125.0,Address,138451.0,42.3122,-71.0657,Constituent Call,"(42.3122, -71.0657)"
553392,101001360536,04/21/2015 10:36:49 AM,07/20/2015 10:36:49 AM,,OVERDUE,Open,,Maintenance Complaint - Residential,Inspectional Services,Housing,Maintenance Complaint - Residential,ISD_Housing (INTERNAL),ISD,,,123 Faneuil St  Brighton  MA  02135,11.0,04,9.0,D14,Allston / Brighton,15.0,Ward 22,2211.0,CD,123 Faneuil St,2135.0,Address,56147.0,42.3559,-71.1556,Constituent Call,"(42.3559, -71.1556)"
554668,101001362257,04/23/2015 10:46:04 AM,07/22/2015 10:46:04 AM,,OVERDUE,Open,,Maintenance Complaint - Residential,Inspectional Services,Housing,Maintenance Complaint - Residential,ISD_Housing (INTERNAL),ISD,,,15 Briarcliff Ter  Mattapan  MA  02126,8.0,07,4.0,B3,Greater Mattapan,9.0,Ward 18,1804.0,R2,15 Briarcliff Ter,2126.0,Address,160891.0,42.2711,-71.0864,Constituent Call,"(42.2711, -71.0864)"
554721,101001362317,04/23/2015 11:13:09 AM,07/22/2015 11:13:08 AM,05/04/2015 10:58:08 AM,ONTIME,Closed,Case Closed. Closed date : 2015-05-04 10:58:08.923 :,Maintenance Complaint - Residential,Inspectional Services,Housing,Maintenance Complaint - Residential,ISD_Housing (INTERNAL),ISD,,,54-56 Catawba St  Roxbury  MA  02119,9.0,10B,7.0,B2,Roxbury,13.0,Ward 12,1205.0,R2,54-56 Catawba St,2119.0,Address,26441.0,42.32,-71.0846,Constituent Call,"(42.32, -71.0846)"
554842,101001362473,04/23/2015 12:57:23 PM,07/22/2015 12:57:22 PM,05/27/2015 08:53:14 AM,ONTIME,Closed,Case Closed. Closed date : 2015-05-27 08:53:14.24 :,Maintenance Complaint - Residential,Inspectional Services,Housing,Maintenance Complaint - Residential,ISD_Housing (INTERNAL),ISD,,,278 Poplar St  Roslindale  MA  02131,12.0,06,5.0,E5,Roslindale,10.0,Ward 19,1910.0,R2,278 Poplar St,2131.0,Address,294798.0,42.2808,-71.125,Constituent Call,"(42.2808, -71.125)"
554889,101001362540,04/23/2015 01:27:18 PM,07/22/2015 01:27:18 PM,,OVERDUE,Open,,Maintenance Complaint - Residential,Inspectional Services,Housing,Maintenance Complaint - Residential,ISD_Housing (INTERNAL),ISD,,,26 Colgate Rd  Roslindale  MA  02131,12.0,02,5.0,E5,Roslindale,10.0,19,1911.0,,26 Colgate Rd,2131.0,Address,344645.0,42.3594,-71.0587,Self Service,"(0, 0)"
556542,101001364911,04/27/2015 04:18:08 PM,07/26/2015 04:18:08 PM,04/30/2015 05:50:59 AM,ONTIME,Closed,Case Closed TICKET: Ticket Issued,Maintenance Complaint - Residential,Inspectional Services,Housing,Maintenance Complaint - Residential,ISD_Housing (INTERNAL),ISD,,,94-96 Itasca St  Mattapan  MA  02126,8.0,07,5.0,B3,Greater Mattapan,9.0,Ward 18,1803.0,A,94-96 Itasca St,2126.0,Address,79163.0,42.2763,-71.0994,Constituent Call,"(42.2763, -71.0994)"
558121,101001367096,04/30/2015 09:50:05 AM,07/29/2015 09:50:05 AM,04/30/2015 09:56:04 AM,ONTIME,Closed,Case Closed Case Invalid wrong address,Maintenance Complaint - Residential,Inspectional Services,Housing,Maintenance Complaint - Residential,ISD_Housing (INTERNAL),ISD,,,83 Spencer St  Dorchester  MA  02124,8.0,07,4.0,B3,Dorchester,9.0,Ward 17,1703.0,R3,83 Spencer St,2124.0,Address,129376.0,42.2941,-71.0764,Constituent Call,"(42.2941, -71.0764)"
558133,101001367112,04/30/2015 09:57:56 AM,07/29/2015 09:57:56 AM,,OVERDUE,Open,,Maintenance Complaint - Residential,Inspectional Services,Housing,Maintenance Complaint - Residential,ISD_Housing (INTERNAL),ISD,,,83 Centre St  Dorchester  MA  02124,8.0,07,4.0,C11,Dorchester,8.0,Ward 17,1706.0,R2,83 Centre St,2124.0,Address,28460.0,42.2911,-71.0679,Constituent Call,"(42.2911, -71.0679)"
558745,101001367990,05/01/2015 10:28:24 AM,07/30/2015 10:28:24 AM,,OVERDUE,Open,,Maintenance Complaint - Residential,Inspectional Services,Housing,Maintenance Complaint - Residential,ISD_Housing (INTERNAL),ISD,,,10-12 Ellis St  Hyde Park  MA  02136,12.0,08,5.0,E18,Hyde Park,10.0,Ward 18,1819.0,CM,10-12 Ellis St,2136.0,Address,52935.0,42.2494,-71.1318,Constituent Call,"(42.2494, -71.1318)"
559183,101001368756,05/02/2015 07:45:00 PM,07/31/2015 07:45:29 PM,,OVERDUE,Open,,Maintenance Complaint - Residential,Inspectional Services,Housing,Maintenance Complaint - Residential,ISD_Housing (INTERNAL),ISD,,,18 Rosedale St  Dorchester  MA  02124,8.0,07,4.0,B3,Dorchester,9.0,Ward 17,1703.0,R3,18 Rosedale St,2124.0,Address,301246.0,42.2924,-71.0727,Constituent Call,"(42.2924, -71.0727)"
559265,101001368884,05/03/2015 11:55:00 AM,08/01/2015 11:55:24 AM,,OVERDUE,Open,,Maintenance Complaint - Residential,Inspectional Services,Housing,Maintenance Complaint - Residential,ISD_Housing (INTERNAL),ISD,,,226 W Canton St  Boston  MA  02116,4.0,1C,2.0,D4,South End,6.0,Ward 4,403.0,R2,226 W Canton St,2116.0,Address,25732.0,42.3454,-71.0776,Constituent Call,"(42.3454, -71.0776)"
559435,101001369158,05/04/2015 08:18:36 AM,08/02/2015 08:18:36 AM,,OVERDUE,Open,,Maintenance Complaint - Residential,Inspectional Services,Housing,Maintenance Complaint - Residential,ISD_Housing (INTERNAL),ISD,,,15 Archdale Rd  Roslindale  MA  02131,12.0,02,5.0,E5,Roslindale,10.0,Ward 19,1911.0,R2,15 Archdale Rd,2131.0,Address,179046.0,42.2931,-71.1223,Constituent Call,"(42.2931, -71.1223)"
562028,101001372978,05/07/2015 09:08:00 PM,08/05/2015 09:08:09 PM,,OVERDUE,Open,,Maintenance Complaint - Residential,Inspectional Services,Housing,Maintenance Complaint - Residential,ISD_Housing (INTERNAL),ISD,,,16 Strathcona Rd  Dorchester  MA  02121,7.0,03,4.0,C11,Roxbury,8.0,Ward 14,1404.0,A,16 Strathcona Rd,2121.0,Address,131256.0,42.3054,-71.0792,Constituent Call,"(42.3054, -71.0792)"
562404,101001373548,05/08/2015 02:50:00 PM,08/06/2015 02:50:49 PM,,OVERDUE,Open,,Maintenance Complaint - Residential,Inspectional Services,Housing,Maintenance Complaint - Residential,ISD_Housing (INTERNAL),ISD,,,240 Waldemar Ave  East Boston  MA  02128,1.0,09,1.0,A7,East Boston,1.0,Ward 1,113.0,E,240 Waldemar Ave,2128.0,Address,174568.0,42.3933,-71.01,Constituent Call,"(42.3933, -71.01)"
562454,101001373618,05/08/2015 04:01:02 PM,08/06/2015 04:01:03 PM,,OVERDUE,Open,,Maintenance Complaint - Residential,Inspectional Services,Housing,Maintenance Complaint - Residential,ISD_Housing (INTERNAL),ISD,,,409 Saratoga St  East Boston  MA  02128,1.0,09,1.0,A7,East Boston,1.0,01,110.0,R3,409 Saratoga St,2128.0,Address,305972.0,42.3791,-71.0294,Constituent Call,"(42.3791, -71.0294)"
563014,101001374523,05/11/2015 10:26:00 AM,08/09/2015 10:26:06 AM,,OVERDUE,Open,,Maintenance Complaint - Residential,Inspectional Services,Housing,Maintenance Complaint - Residential,ISD_Housing (INTERNAL),ISD,,,INTERSECTION of Chestnut Hill Ave & Commonwealth Ave  Brighton  MA,11.0,04,9.0,D14,Allston / Brighton,15.0,Ward 21,2116.0,,INTERSECTION Chestnut Hill Ave & Commonwealth Ave,,Intersection,2958.0,42.338,-71.1532,Constituent Call,"(42.338, -71.1532)"
563170,101001374755,05/11/2015 01:08:00 PM,08/09/2015 01:08:12 PM,,OVERDUE,Open,,Maintenance Complaint - Residential,Inspectional Services,Housing,Maintenance Complaint - Residential,ISD_Housing (INTERNAL),ISD,,,32 Monsignor Dennis F O'Callaghan Way  South Boston  MA  02127,6.0,05,2.0,C6,South Boston / South Boston Waterfront,5.0,07,707.0,E,32 Monsignor Dennis F O'Callaghan Way,2127.0,Address,173929.0,42.3247,-71.0541,Constituent Call,"(42.3247, -71.0541)"
564487,101001376666,05/13/2015 12:56:00 PM,08/11/2015 12:56:07 PM,05/26/2015 03:17:48 PM,ONTIME,Closed,Case Closed. Closed date : 2015-05-26 15:17:48.163 :,Maintenance Complaint - Residential,Inspectional Services,Housing,Maintenance Complaint - Residential,ISD_Housing (INTERNAL),ISD,,,90 Brainerd Rd  Allston  MA  02134,11.0,04,9.0,D14,Allston / Brighton,15.0,Ward 21,2108.0,CD,90 Brainerd Rd,2134.0,Address,19537.0,42.3469,-71.1342,Constituent Call,"(42.3469, -71.1342)"
564892,101001377239,05/14/2015 08:35:00 AM,08/12/2015 08:35:27 AM,,OVERDUE,Open,,Maintenance Complaint - Residential,Inspectional Services,Housing,Maintenance Complaint - Residential,ISD_Housing (INTERNAL),ISD,,,26 Catawba St  Roxbury  MA  02119,9.0,10B,7.0,B2,Roxbury,13.0,Ward 12,1205.0,R2,26 Catawba St,2119.0,Address,202560.0,42.3199,-71.084,Constituent Call,"(42.3199, -71.084)"
565447,101001377998,05/15/2015 06:06:00 AM,08/13/2015 06:06:07 AM,06/17/2015 07:50:43 AM,ONTIME,Closed,Case Closed. Closed date : 2015-06-17 07:50:43.523 :,Maintenance Complaint - Residential,Inspectional Services,Housing,Maintenance Complaint - Residential,ISD_Housing (INTERNAL),ISD,,,69 Bartlett St  Roxbury  MA  02119,7.0,10B,7.0,B2,Roxbury,13.0,Ward 9,905.0,R3,69 Bartlett St,2119.0,Address,8545.0,42.3292,-71.0897,Constituent Call,"(42.3292, -71.0897)"
565481,101001378050,05/15/2015 08:12:00 AM,08/13/2015 08:12:32 AM,,OVERDUE,Open,,Maintenance Complaint - Residential,Inspectional Services,Housing,Maintenance Complaint - Residential,ISD_Housing (INTERNAL),ISD,,,69 Bartlett St  Roxbury  MA  02119,7.0,10B,7.0,B2,Roxbury,13.0,Ward 9,905.0,R3,69 Bartlett St,2119.0,Address,8545.0,42.3292,-71.0897,Constituent Call,"(42.3292, -71.0897)"
566761,101001379903,05/18/2015 02:01:00 PM,08/16/2015 02:01:44 PM,,OVERDUE,Open,,Maintenance Complaint - Residential,Inspectional Services,Housing,Maintenance Complaint - Residential,ISD_Housing (INTERNAL),ISD,,,15 Cooper St  Boston  MA  02113,3.0,1B,1.0,A1,Downtown / Financial District,3.0,Ward 3,304.0,R4,15 Cooper St,2113.0,Address,218556.0,42.3645,-71.0562,Self Service,"(42.3645, -71.0562)"
566828,101001380008,05/18/2015 03:23:00 PM,08/16/2015 03:23:51 PM,,OVERDUE,Open,,Maintenance Complaint - Residential,Inspectional Services,Housing,Maintenance Complaint - Residential,ISD_Housing (INTERNAL),ISD,,,287 Centre St  Jamaica Plain  MA  02130,9.0,10A,6.0,E13,Jamaica Plain,11.0,Ward 10,1007.0,E,287 Centre St,2130.0,Address,173737.0,42.3231,-71.1017,Constituent Call,"(42.3231, -71.1017)"
567332,101001380731,05/19/2015 01:03:00 PM,08/17/2015 01:03:20 PM,,OVERDUE,Open,,Maintenance Complaint - Residential,Inspectional Services,Housing,Maintenance Complaint - Residential,ISD_Housing (INTERNAL),ISD,,,26 Worcester St  Roxbury  MA  02118,4.0,1C,7.0,D4,South End,6.0,Ward 9,902.0,RC,26 Worcester St,2118.0,Address,339252.0,42.338,-71.0766,Constituent Call,"(42.338, -71.0766)"
568024,101001381789,05/20/2015 02:43:54 PM,08/18/2015 02:43:54 PM,05/20/2015 02:44:28 PM,ONTIME,Closed,Case Closed. Closed date : 2015-05-20 14:44:28.64 Case Invalid,Maintenance Complaint - Residential,Inspectional Services,Housing,Maintenance Complaint - Residential,ISD_Housing (INTERNAL),ISD,,,17 Winter St  Dorchester  MA  02122,7.0,03,3.0,C11,Dorchester,8.0,Ward 15,1504.0,A,17 Winter St,2122.0,Address,337701.0,42.3093,-71.0629,Constituent Call,"(42.3093, -71.0629)"
568326,101001382242,05/21/2015 09:26:00 AM,08/19/2015 09:26:03 AM,,OVERDUE,Open,,Maintenance Complaint - Residential,Inspectional Services,Housing,Maintenance Complaint - Residential,ISD_Housing (INTERNAL),ISD,,,107-113 Gainsborough St  Boston  MA  02115,4.0,10A,7.0,D4,Fenway / Kenmore / Audubon Circle / Longwood,13.0,Ward 4,408.0,CM,107-113 Gainsborough St,2115.0,Address,61784.0,42.3427,-71.0896,Constituent Call,"(42.3427, -71.0896)"
568561,101001382604,05/21/2015 02:13:00 PM,08/19/2015 02:13:12 PM,,OVERDUE,Open,,Maintenance Complaint - Residential,Inspectional Services,Housing,Maintenance Complaint - Residential,ISD_Housing (INTERNAL),ISD,,,167-167A I St  South Boston  MA  02127,6.0,05,2.0,C6,South Boston / South Boston Waterfront,5.0,Ward 7,702.0,RC,167-167A I St,2127.0,Address,77817.0,42.3324,-71.04,Self Service,"(42.3324, -71.04)"
568589,101001382641,05/21/2015 02:58:12 PM,08/19/2015 02:58:08 PM,,OVERDUE,Open,,Maintenance Complaint - Residential,Inspectional Services,Housing,Maintenance Complaint - Residential,ISD_Housing (INTERNAL),ISD,,,564 Massachusetts Ave  Roxbury  MA  02118,4.0,1C,7.0,D4,South End,6.0,Ward 9,902.0,A,564 Massachusetts Ave,2118.0,Address,272148.0,42.338,-71.0783,Constituent Call,"(42.338, -71.0783)"
569342,101001393809,05/23/2015 05:09:00 PM,08/21/2015 05:09:09 PM,,OVERDUE,Open,,Maintenance Complaint - Residential,Inspectional Services,Housing,Maintenance Complaint - Residential,ISD_Housing (INTERNAL),ISD,,,115 Havre St  East Boston  MA  02128,1.0,09,1.0,A7,East Boston,1.0,Ward 1,104.0,R4,115 Havre St,2128.0,Address,249485.0,42.3726,-71.0381,Constituent Call,"(42.3726, -71.0381)"
569576,101001394157,05/25/2015 10:29:00 AM,08/23/2015 10:29:28 AM,,OVERDUE,Open,,Maintenance Complaint - Residential,Inspectional Services,Housing,Maintenance Complaint - Residential,ISD_Housing (INTERNAL),ISD,,,23 Lawrence Ave  Dorchester  MA  02121,7.0,03,4.0,B2,Roxbury,13.0,Ward 14,1401.0,R3,23 Lawrence Ave,2121.0,Address,84516.0,42.3131,-71.0792,Constituent Call,"(42.3131, -71.0792)"
571125,101001396365,05/27/2015 08:14:00 PM,08/25/2015 08:14:25 PM,06/12/2015 09:40:22 AM,ONTIME,Closed,Case Closed. Closed date : 2015-06-12 09:40:22.363 ADCLSD: Administratively Closed,Maintenance Complaint - Residential,Inspectional Services,Housing,Maintenance Complaint - Residential,ISD_Housing (INTERNAL),ISD,,,2937 Washington St  Roxbury  MA  02119,9.0,10B,6.0,B2,Roxbury,11.0,11,1104.0,RL,2937 Washington St,2119.0,Address,172964.0,42.3188,-71.0956,Constituent Call,"(42.3188, -71.0956)"
571452,101001396819,05/28/2015 11:08:00 AM,08/26/2015 11:08:29 AM,06/29/2015 02:25:51 PM,ONTIME,Closed,Case Closed. Closed date : 2015-06-29 14:25:51.717 :,Maintenance Complaint - Residential,Inspectional Services,Housing,Maintenance Complaint - Residential,ISD_Housing (INTERNAL),ISD,,,141-143 Howard Ave  Dorchester  MA  02125,7.0,03,7.0,B2,Roxbury,13.0,Ward 13,1301.0,R3,141-143 Howard Ave,2125.0,Address,75505.0,42.3155,-71.0756,Constituent Call,"(42.3155, -71.0756)"
571565,101001396978,05/28/2015 12:48:00 PM,08/26/2015 12:48:04 PM,,OVERDUE,Open,,Maintenance Complaint - Residential,Inspectional Services,Housing,Maintenance Complaint - Residential,ISD_Housing (INTERNAL),ISD,,,307 Bowdoin St  Dorchester  MA  02122,7.0,03,3.0,C11,Dorchester,8.0,15,1503.0,,307 Bowdoin St,2122.0,Address,343018.0,42.3594,-71.0587,Constituent Call,"(0, 0)"
572287,101001397991,05/29/2015 10:44:00 AM,08/27/2015 10:44:12 AM,,OVERDUE,Open,,Maintenance Complaint - Residential,Inspectional Services,Housing,Maintenance Complaint - Residential,ISD_Housing (INTERNAL),ISD,,,55 Lithgow St  Dorchester  MA  02124,8.0,07,3.0,C11,Dorchester,8.0,Ward 16,1603.0,R3,55 Lithgow St,2124.0,Address,265212.0,42.2903,-71.0683,Constituent Call,"(42.2903, -71.0683)"
573189,101001399319,05/31/2015 07:23:00 PM,08/29/2015 07:23:53 PM,,OVERDUE,Open,,Maintenance Complaint - Residential,Inspectional Services,Housing,Maintenance Complaint - Residential,ISD_Housing (INTERNAL),ISD,,,4 Esmond St  Dorchester  MA  02121,7.0,03,4.0,B3,Greater Mattapan,8.0,Ward 14,1407.0,A,4 Esmond St,2121.0,Address,230868.0,42.2995,-71.0862,Constituent Call,"(42.2995, -71.0862)"
573726,101001400061,06/01/2015 05:01:00 PM,08/30/2015 05:01:54 PM,,OVERDUE,Open,,Maintenance Complaint - Residential,Inspectional Services,Housing,Maintenance Complaint - Residential,ISD_Housing (INTERNAL),ISD,,,41 Mozart St  Jamaica Plain  MA  02130,9.0,02,6.0,E13,Jamaica Plain,11.0,Ward 10,1009.0,A,41 Mozart St,2130.0,Address,279460.0,42.3213,-71.1049,Constituent Call,"(42.3213, -71.1049)"
573864,101001400268,06/02/2015 08:21:00 AM,08/31/2015 08:21:56 AM,,OVERDUE,Open,,Maintenance Complaint - Residential,Inspectional Services,Housing,Maintenance Complaint - Residential,ISD_Housing (INTERNAL),ISD,,,393 Talbot Ave  Dorchester  MA  02124,8.0,07,4.0,C11,Dorchester,8.0,Ward 17,1706.0,R3,393 Talbot Ave,2124.0,Address,133713.0,42.2897,-71.0695,Constituent Call,"(42.2897, -71.0695)"
574055,101001400546,06/02/2015 11:01:34 AM,08/31/2015 11:01:33 AM,06/16/2015 09:53:15 AM,ONTIME,Closed,Case Closed. Closed date : 2015-06-16 09:53:15.79 NOVIO: No Violation Found/No Cause,Maintenance Complaint - Residential,Inspectional Services,Housing,Maintenance Complaint - Residential,ISD_Housing (INTERNAL),ISD,,,16 Hallam St  Dorchester  MA  02125,7.0,03,3.0,C11,Dorchester,7.0,Ward 13,1309.0,R3,16 Hallam St,2125.0,Address,245005.0,42.3144,-71.0558,Constituent Call,"(42.3144, -71.0558)"
574156,101001400708,06/02/2015 01:06:00 PM,08/31/2015 01:06:34 PM,06/30/2015 08:33:10 AM,ONTIME,Closed,Case Closed. Closed date : 2015-06-30 08:33:10.823 :,Maintenance Complaint - Residential,Inspectional Services,Housing,Maintenance Complaint - Residential,ISD_Housing (INTERNAL),ISD,,,48 Corey St  Charlestown  MA  02129,3.0,1A,1.0,A15,Charlestown,2.0,Ward 2,202.0,E,48 Corey St,2129.0,Address,219061.0,42.3788,-71.0561,Constituent Call,"(42.3788, -71.0561)"
574405,101001401086,06/03/2015 12:39:00 AM,09/01/2015 12:39:01 AM,,OVERDUE,Open,,Maintenance Complaint - Residential,Inspectional Services,Housing,Maintenance Complaint - Residential,ISD_Housing (INTERNAL),ISD,,,350 Meridian St  East Boston  MA  02128,1.0,09,1.0,A7,East Boston,1.0,Ward 1,106.0,EA,350 Meridian St,2128.0,Address,274511.0,42.3785,-71.0394,Constituent Call,"(42.3785, -71.0394)"
574960,101001401941,06/03/2015 05:24:00 PM,09/01/2015 05:24:58 PM,07/09/2015 10:44:50 AM,ONTIME,Closed,Case Closed. Closed date : 2015-07-09 10:44:50.093 :,Maintenance Complaint - Residential,Inspectional Services,Housing,Maintenance Complaint - Residential,ISD_Housing (INTERNAL),ISD,,,186 Fisher Ave  Mission Hill  MA  02120,9.0,10A,8.0,B2,Mission Hill,11.0,Ward 10,1008.0,CD,186 Fisher Ave,2120.0,Address,58563.0,42.3289,-71.1084,Constituent Call,"(42.3289, -71.1084)"
576776,101001404659,06/08/2015 11:31:00 AM,09/06/2015 11:31:03 AM,06/10/2015 12:46:52 PM,ONTIME,Closed,Case Closed. Closed date : 2015-06-10 12:46:52.683 TICKET: Ticket Issued,Maintenance Complaint - Residential,Inspectional Services,Housing,Maintenance Complaint - Residential,ISD_Housing (INTERNAL),ISD,,,25 Orlando St  Mattapan  MA  02126,8.0,07,5.0,B3,Mattapan,9.0,18,1803.0,A,25 Orlando St,2126.0,Address,105834.0,42.2754,-71.0985,Constituent Call,"(42.2754, -71.0985)"
577022,101001405024,06/08/2015 03:56:00 PM,09/06/2015 03:56:13 PM,06/10/2015 10:13:38 AM,ONTIME,Closed,Case Closed. Closed date : 2015-06-10 10:13:38.103 TICKET: Ticket Issued,Maintenance Complaint - Residential,Inspectional Services,Housing,Maintenance Complaint - Residential,ISD_Housing (INTERNAL),ISD,,,24 Arbutus St  Dorchester  MA  02124,8.0,07,4.0,B3,Greater Mattapan,9.0,Ward 14,1412.0,R4,24 Arbutus St,2124.0,Address,4488.0,42.2878,-71.0889,Constituent Call,"(42.2878, -71.0889)"
577835,101001406184,06/10/2015 12:28:00 AM,09/08/2015 12:28:03 AM,,OVERDUE,Open,,Maintenance Complaint - Residential,Inspectional Services,Housing,Maintenance Complaint - Residential,ISD_Housing (INTERNAL),ISD,,,57 Bicknell St  Dorchester  MA  02121,7.0,03,4.0,B3,Greater Mattapan,8.0,Ward 14,1402.0,A,57 Bicknell St,2121.0,Address,188622.0,42.2985,-71.0829,Constituent Call,"(42.2985, -71.0829)"
578247,101001406779,06/10/2015 02:31:00 PM,09/08/2015 02:31:07 PM,06/23/2015 10:33:20 AM,ONTIME,Closed,Case Closed. Closed date : 2015-06-23 10:33:20.693 ADCLSD: Administratively Closed,Maintenance Complaint - Residential,Inspectional Services,Housing,Maintenance Complaint - Residential,ISD_Housing (INTERNAL),ISD,,,7 Claybourne St  Dorchester  MA  02124,7.0,03,4.0,C11,Dorchester,9.0,Ward 17,1701.0,R2,7 Claybourne St,2124.0,Address,33629.0,42.2993,-71.0729,Constituent Call,"(42.2993, -71.0729)"
579527,101001408761,06/12/2015 05:11:00 PM,09/10/2015 05:11:36 PM,06/23/2015 08:16:19 AM,ONTIME,Closed,Case Closed. Closed date : 2015-06-23 08:16:19.42 :,Maintenance Complaint - Residential,Inspectional Services,Housing,Maintenance Complaint - Residential,ISD_Housing (INTERNAL),ISD,,,173 Maverick St  East Boston  MA  02128,1.0,09,1.0,A7,East Boston,1.0,Ward 1,103.0,RC,173 Maverick St,2128.0,Address,272591.0,42.3693,-71.0374,Constituent Call,"(42.3693, -71.0374)"
579751,101001409109,06/13/2015 07:11:00 PM,09/11/2015 07:11:52 PM,,OVERDUE,Open,,Maintenance Complaint - Residential,Inspectional Services,Housing,Maintenance Complaint - Residential,ISD_Housing (INTERNAL),ISD,,,43 Bay State Rd  Boston  MA  02215,4.0,10A,8.0,D4,Fenway / Kenmore / Audubon Circle / Longwood,14.0,Ward 5,510.0,A,43 Bay State Rd,2215.0,Address,182901.0,42.3502,-71.0948,Constituent Call,"(42.3502, -71.0948)"
579769,101001409142,06/13/2015 09:11:00 PM,09/11/2015 09:11:50 PM,,OVERDUE,Open,,Maintenance Complaint - Residential,Inspectional Services,Housing,Maintenance Complaint - Residential,ISD_Housing (INTERNAL),ISD,,,7 Wilmore St  Mattapan  MA  02126,8.0,07,4.0,B3,Greater Mattapan,9.0,Ward 18,1802.0,R3,7 Wilmore St,2126.0,Address,337404.0,42.2781,-71.0929,Constituent Call,"(42.2781, -71.0929)"
583205,101001414273,06/21/2015 09:56:00 PM,09/19/2015 09:56:13 PM,07/24/2015 03:29:25 PM,ONTIME,Closed,Case Closed. Closed date : 2015-07-24 15:29:25.743 :,Maintenance Complaint - Residential,Inspectional Services,Housing,Maintenance Complaint - Residential,ISD_Housing (INTERNAL),ISD,,,270 Centre St  Jamaica Plain  MA  02130,9.0,10A,6.0,E13,Jamaica Plain,11.0,10,1007.0,,270 Centre St,2130.0,Address,343222.0,42.3594,-71.0587,Constituent Call,"(0, 0)"
583212,101001414281,06/21/2015 11:55:00 PM,09/19/2015 11:55:07 PM,06/22/2015 09:20:11 AM,ONTIME,Closed,Case Closed. Closed date : 2015-06-22 09:20:11.343 :,Maintenance Complaint - Residential,Inspectional Services,Housing,Maintenance Complaint - Residential,ISD_Housing (INTERNAL),ISD,,,15 Garden St  Boston  MA  02114,3.0,1B,8.0,A1,Beacon Hill,14.0,Ward 5,504.0,CM,15 Garden St,2114.0,Address,62452.0,42.3608,-71.0671,Constituent Call,"(42.3608, -71.0671)"
583362,101001414516,06/22/2015 09:34:00 AM,09/20/2015 09:34:31 AM,06/22/2015 10:32:33 AM,ONTIME,Closed,Case Closed. Closed date : 2015-06-22 10:32:33.437 :,Maintenance Complaint - Residential,Inspectional Services,Housing,Maintenance Complaint - Residential,ISD_Housing (INTERNAL),ISD,,,91-95 Washington St  Brighton  MA  02135,11.0,04,9.0,D14,Allston / Brighton,15.0,Ward 21,2110.0,E,91-95 Washington St,2135.0,Address,143696.0,42.3445,-71.1436,Constituent Call,"(42.3445, -71.1436)"
583840,101001415237,06/22/2015 09:41:00 PM,09/20/2015 09:41:15 PM,06/23/2015 12:21:12 PM,ONTIME,Closed,Case Closed. Closed date : 2015-06-23 12:21:12.6 :,Maintenance Complaint - Residential,Inspectional Services,Housing,Maintenance Complaint - Residential,ISD_Housing (INTERNAL),ISD,,,247 Walnut Ave  Roxbury  MA  02119,9.0,10B,7.0,B2,Roxbury,13.0,Ward 11,1103.0,A,247 Walnut Ave,2119.0,Address,327372.0,42.3181,-71.0913,Constituent Call,"(42.3181, -71.0913)"
584296,101001415839,06/23/2015 02:19:00 PM,09/21/2015 02:19:07 PM,,OVERDUE,Open,,Maintenance Complaint - Residential,Inspectional Services,Housing,Maintenance Complaint - Residential,ISD_Housing (INTERNAL),ISD,,,14 Buswell St  Boston  MA  02215,4.0,10A,8.0,D4,Fenway / Kenmore / Audubon Circle / Longwood,14.0,Ward 21,2102.0,E,14 Buswell St,2215.0,Address,199923.0,42.3475,-71.1044,Self Service,"(42.3475, -71.1044)"
584479,101001416091,06/23/2015 08:36:00 PM,09/21/2015 08:36:49 PM,,OVERDUE,Open,,Maintenance Complaint - Residential,Inspectional Services,Housing,Maintenance Complaint - Residential,ISD_Housing (INTERNAL),ISD,,,18 Rosedale St  Dorchester  MA  02124,8.0,07,4.0,B3,Dorchester,9.0,Ward 17,1703.0,R3,18 Rosedale St,2124.0,Address,118362.0,42.2924,-71.0727,Constituent Call,"(42.2924, -71.0727)"
584974,101001416811,06/24/2015 05:00:00 PM,09/22/2015 05:00:25 PM,,OVERDUE,Open,,Maintenance Complaint - Residential,Inspectional Services,Housing,Maintenance Complaint - Residential,ISD_Housing (INTERNAL),ISD,,,11 Dr. Michael Gavin Way  South Boston  MA  02127,6.0,05,2.0,C6,South Boston / South Boston Waterfront,5.0,07,707.0,E,11 Dr. Michael Gavin Way,2127.0,Address,224348.0,42.3265,-71.0538,Constituent Call,"(42.3265, -71.0538)"
586395,101001418993,06/28/2015 07:04:00 PM,09/26/2015 07:04:19 PM,,OVERDUE,Open,,Maintenance Complaint - Residential,Inspectional Services,Housing,Maintenance Complaint - Residential,ISD_Housing (INTERNAL),ISD,,,80 Greenwood St  Dorchester  MA  02121,7.0,03,4.0,B3,Greater Mattapan,8.0,Ward 14,1402.0,R3,80 Greenwood St,2121.0,Address,67004.0,42.2993,-71.0796,Constituent Call,"(42.2993, -71.0796)"
587091,101001419976,06/29/2015 09:55:00 PM,09/27/2015 09:55:23 PM,,OVERDUE,Open,,Maintenance Complaint - Residential,Inspectional Services,Housing,Maintenance Complaint - Residential,ISD_Housing (INTERNAL),ISD,,,80 Greenwood St  Dorchester  MA  02121,7.0,03,4.0,B3,Greater Mattapan,8.0,Ward 14,1402.0,R3,80 Greenwood St,2121.0,Address,244103.0,42.2993,-71.0796,Constituent Call,"(42.2993, -71.0796)"
588825,101001422347,07/02/2015 03:15:00 PM,09/30/2015 03:15:15 PM,,OVERDUE,Open,,Maintenance Complaint - Residential,Inspectional Services,Housing,Maintenance Complaint - Residential,ISD_Housing (INTERNAL),ISD,,,30 Fremont St  Mattapan  MA  02126,8.0,07,4.0,B3,Greater Mattapan,9.0,Ward 18,1802.0,A,30 Fremont St,2126.0,Address,60931.0,42.2713,-71.0921,Constituent Call,"(42.2713, -71.0921)"
588864,101001422396,07/02/2015 04:19:00 PM,09/30/2015 04:19:45 PM,,OVERDUE,Open,,Maintenance Complaint - Residential,Inspectional Services,Housing,Maintenance Complaint - Residential,ISD_Housing (INTERNAL),ISD,,,40 Harding Rd  Roslindale  MA  02131,12.0,02,5.0,E18,Roslindale,10.0,Ward 18,1807.0,R4,40 Harding Rd,2131.0,Address,247127.0,42.281,-71.1182,Constituent Call,"(42.281, -71.1182)"
588886,101001422432,07/02/2015 05:20:00 PM,09/30/2015 05:20:16 PM,,OVERDUE,Open,,Maintenance Complaint - Residential,Inspectional Services,Housing,Maintenance Complaint - Residential,ISD_Housing (INTERNAL),ISD,,,316 Huntington Ave  Boston  MA  02115,9.0,10A,7.0,D4,Fenway / Kenmore / Audubon Circle / Longwood,13.0,Ward 4,408.0,E,316 Huntington Ave,2115.0,Address,76357.0,42.3407,-71.0873,Constituent Call,"(42.3407, -71.0873)"
589714,101001423681,07/06/2015 12:45:59 PM,10/04/2015 12:45:59 PM,07/06/2015 12:46:25 PM,ONTIME,Closed,Case Closed. Closed date : 2015-07-06 12:46:25.277 Case Invalid wrong e form,Maintenance Complaint - Residential,Inspectional Services,Housing,Maintenance Complaint - Residential,ISD_Housing (INTERNAL),ISD,,,6 Pickering Ave  Roxbury  MA  02119,7.0,10B,7.0,B2,Roxbury,13.0,Ward 12,1203.0,R1,6 Pickering Ave,2119.0,Address,110167.0,42.3217,-71.0844,Constituent Call,"(42.3217, -71.0844)"
589976,101001424014,07/06/2015 05:51:00 PM,10/04/2015 05:51:50 PM,08/11/2015 10:32:24 AM,ONTIME,Closed,Case Closed. Closed date : 2015-08-11 10:32:24.707 :,Maintenance Complaint - Residential,Inspectional Services,Housing,Maintenance Complaint - Residential,ISD_Housing (INTERNAL),ISD,,,60 Belfort St  Dorchester  MA  02125,7.0,03,3.0,C11,Dorchester,7.0,Ward 13,1308.0,R3,60 Belfort St,2125.0,Address,186438.0,42.3151,-71.054,Constituent Call,"(42.3151, -71.054)"
590329,101001424533,07/07/2015 12:15:00 PM,10/05/2015 12:15:39 PM,07/07/2015 05:58:27 PM,ONTIME,Closed,Case Closed. Closed date : 2015-07-07 17:58:27.44 ADCLSD: Administratively Closed,Maintenance Complaint - Residential,Inspectional Services,Housing,Maintenance Complaint - Residential,ISD_Housing (INTERNAL),ISD,,,33 Lindsey St  Dorchester  MA  02124,7.0,03,4.0,C11,Dorchester,8.0,Ward 17,1702.0,R2,33 Lindsey St,2124.0,Address,264965.0,42.2976,-71.0692,Constituent Call,"(42.2976, -71.0692)"
590510,101001424773,07/07/2015 03:57:00 PM,10/05/2015 03:57:17 PM,07/07/2015 08:15:42 PM,ONTIME,Closed,Case Closed. Closed date : 2015-07-07 20:15:42.313 TICKET: Ticket Issued,Maintenance Complaint - Residential,Inspectional Services,Housing,Maintenance Complaint - Residential,ISD_Housing (INTERNAL),ISD,,,154 Walnut Ave  Roxbury  MA  02119,9.0,10B,7.0,B2,Roxbury,13.0,Ward 12,1205.0,R4,154 Walnut Ave,2119.0,Address,141895.0,42.3202,-71.0872,Constituent Call,"(42.3202, -71.0872)"
590930,101001425338,07/08/2015 12:00:00 PM,10/06/2015 12:00:02 PM,,OVERDUE,Open,,Maintenance Complaint - Residential,Inspectional Services,Housing,Maintenance Complaint - Residential,ISD_Housing (INTERNAL),ISD,,,8 Drummond St  Dorchester  MA  02121,7.0,03,4.0,B3,Greater Mattapan,8.0,Ward 14,1406.0,R4,8 Drummond St,2121.0,Address,226389.0,42.3006,-71.0839,Constituent Call,"(42.3006, -71.0839)"
591427,101001426000,07/09/2015 10:38:00 AM,10/07/2015 10:38:17 AM,,OVERDUE,Open,,Maintenance Complaint - Residential,Inspectional Services,Housing,Maintenance Complaint - Residential,ISD_Housing (INTERNAL),ISD,,,1444 Blue Hill Ave  Mattapan  MA  02126,8.0,07,5.0,B3,Greater Mattapan,9.0,Ward 18,1803.0,A,1444 Blue Hill Ave,2126.0,Address,189729.0,42.2747,-71.0932,Constituent Call,"(42.2747, -71.0932)"
591522,101001426123,07/09/2015 12:39:46 PM,10/07/2015 12:39:06 PM,,OVERDUE,Open,,Maintenance Complaint - Residential,Inspectional Services,Housing,Maintenance Complaint - Residential,ISD_Housing (INTERNAL),ISD,,,36 Church St  Dorchester  MA  02122,7.0,03,3.0,C11,Dorchester,8.0,Ward 15,1504.0,R3,36 Church St,2122.0,Address,32688.0,42.3089,-71.0619,Constituent Call,"(42.3089, -71.0619)"
591525,101001426126,07/09/2015 12:41:34 PM,10/07/2015 12:40:54 PM,,OVERDUE,Open,,Maintenance Complaint - Residential,Inspectional Services,Housing,Maintenance Complaint - Residential,ISD_Housing (INTERNAL),ISD,,,38 Church St  Dorchester  MA  02122,7.0,03,3.0,C11,Dorchester,8.0,Ward 15,1504.0,R3,38 Church St,2122.0,Address,32689.0,42.3089,-71.0617,Constituent Call,"(42.3089, -71.0617)"
592096,101001426910,07/10/2015 12:47:00 PM,10/08/2015 12:47:54 PM,,OVERDUE,Open,,Maintenance Complaint - Residential,Inspectional Services,Housing,Maintenance Complaint - Residential,ISD_Housing (INTERNAL),ISD,,,173 Maverick St  East Boston  MA  02128,1.0,09,1.0,A7,East Boston,1.0,Ward 1,103.0,RC,173 Maverick St,2128.0,Address,272590.0,42.3693,-71.0374,Constituent Call,"(42.3693, -71.0374)"
592502,101001427504,07/11/2015 08:43:00 PM,10/09/2015 08:43:56 PM,08/17/2015 11:38:17 AM,ONTIME,Closed,Case Closed. Closed date : 2015-08-17 11:38:17.093 NOVIO: No Violation Found/No Cause,Maintenance Complaint - Residential,Inspectional Services,Housing,Maintenance Complaint - Residential,ISD_Housing (INTERNAL),ISD,,,163 Lexington St  East Boston  MA  02128,1.0,09,1.0,A7,East Boston,1.0,Ward 1,109.0,R2,163 Lexington St,2128.0,Address,263939.0,42.3789,-71.0338,Constituent Call,"(42.3789, -71.0338)"
593271,101001428579,07/13/2015 08:14:00 PM,10/11/2015 08:14:58 PM,,OVERDUE,Open,,Maintenance Complaint - Residential,Inspectional Services,Housing,Maintenance Complaint - Residential,ISD_Housing (INTERNAL),ISD,,,114 Devon St  Dorchester  MA  02121,7.0,03,4.0,B2,Roxbury,13.0,Ward 14,1401.0,A,114 Devon St,2121.0,Address,223758.0,42.3087,-71.0774,Constituent Call,"(42.3087, -71.0774)"
593437,101001428816,07/14/2015 09:01:00 AM,10/12/2015 09:01:07 AM,,OVERDUE,Open,,Maintenance Complaint - Residential,Inspectional Services,Housing,Maintenance Complaint - Residential,ISD_Housing (INTERNAL),ISD,,,11 Wenlock Rd  Dorchester  MA  02122,8.0,07,3.0,C11,Dorchester,7.0,Ward 16,1609.0,R1,11 Wenlock Rd,2122.0,Address,147734.0,42.2845,-71.0485,Constituent Call,"(42.2845, -71.0485)"
593849,101001429320,07/14/2015 02:51:00 PM,10/12/2015 02:51:29 PM,,OVERDUE,Open,,Maintenance Complaint - Residential,Inspectional Services,Housing,Maintenance Complaint - Residential,ISD_Housing (INTERNAL),ISD,,,53 Stanwood St  Dorchester  MA  02121,7.0,03,4.0,B2,Roxbury,13.0,Ward 14,1401.0,R3,53 Stanwood St,2121.0,Address,314100.0,42.3089,-71.0799,Constituent Call,"(42.3089, -71.0799)"
594252,101001429849,07/15/2015 10:05:00 AM,10/13/2015 10:05:18 AM,07/23/2015 11:33:16 AM,ONTIME,Closed,Case Closed. Closed date : 2015-07-23 11:33:16.117 :,Maintenance Complaint - Residential,Inspectional Services,Housing,Maintenance Complaint - Residential,ISD_Housing (INTERNAL),ISD,,,185 Fulton St  Boston  MA  02109,3.0,1B,1.0,A1,Downtown / Financial District,3.0,Ward 3,301.0,E,185 Fulton St,2109.0,Address,238814.0,42.3632,-71.052,Constituent Call,"(42.3632, -71.052)"
594463,101001430101,07/15/2015 01:16:00 PM,10/13/2015 01:16:05 PM,07/15/2015 03:02:08 PM,ONTIME,Closed,Case Closed. Closed date : 2015-07-15 15:02:08.563 :,Maintenance Complaint - Residential,Inspectional Services,Housing,Maintenance Complaint - Residential,ISD_Housing (INTERNAL),ISD,,,430 River St  Mattapan  MA  02126,8.0,07,4.0,B3,Greater Mattapan,9.0,Ward 18,1804.0,A,430 River St,2126.0,Address,299619.0,42.2691,-71.091,Constituent Call,"(42.2691, -71.091)"
594891,101001430708,07/16/2015 09:57:00 AM,10/14/2015 09:57:30 AM,07/28/2015 01:55:44 PM,ONTIME,Closed,Case Closed. Closed date : 2015-07-28 13:55:44.597 :,Maintenance Complaint - Residential,Inspectional Services,Housing,Maintenance Complaint - Residential,ISD_Housing (INTERNAL),ISD,,,25 Samuel Morse Way  Charlestown  MA  02129,3.0,1A,1.0,A15,Charlestown,2.0,02,202.0,,25 Samuel Morse Way,2129.0,Address,350598.0,42.3594,-71.0587,Constituent Call,"(0, 0)"
595173,101001431061,07/16/2015 01:46:00 PM,10/14/2015 01:46:28 PM,,OVERDUE,Open,,Maintenance Complaint - Residential,Inspectional Services,Housing,Maintenance Complaint - Residential,ISD_Housing (INTERNAL),ISD,,,66 Fenway  Boston  MA  02115,4.0,10A,8.0,D4,Fenway / Kenmore / Audubon Circle / Longwood,14.0,Ward 4,407.0,EA,66 Fenway,2115.0,Address,234660.0,42.3432,-71.0908,Self Service,"(42.3432, -71.0908)"
595317,101001431258,07/16/2015 04:28:00 PM,10/14/2015 04:28:49 PM,,OVERDUE,Open,,Maintenance Complaint - Residential,Inspectional Services,Housing,Maintenance Complaint - Residential,ISD_Housing (INTERNAL),ISD,,,98 Deering Rd  Mattapan  MA  02126,8.0,07,4.0,B3,Greater Mattapan,9.0,Ward 14,1408.0,R2,98 Deering Rd,2126.0,Address,46981.0,42.2852,-71.0956,Constituent Call,"(42.2852, -71.0956)"
595334,101001431287,07/16/2015 05:02:31 PM,10/14/2015 05:02:31 PM,08/17/2015 10:13:48 AM,ONTIME,Closed,Case Closed. Closed date : 2015-08-17 10:13:48.573 :,Maintenance Complaint - Residential,Inspectional Services,Housing,Maintenance Complaint - Residential,ISD_Housing (INTERNAL),ISD,,,28 Longfellow St  Dorchester  MA  02122,7.0,03,3.0,C11,Dorchester,8.0,Ward 15,1507.0,R1,28 Longfellow St,2122.0,Address,87126.0,42.3029,-71.0659,Constituent Call,"(42.3029, -71.0659)"
595658,101001431699,07/17/2015 09:50:00 AM,10/15/2015 09:50:59 AM,,OVERDUE,Open,,Maintenance Complaint - Residential,Inspectional Services,Housing,Maintenance Complaint - Residential,ISD_Housing (INTERNAL),ISD,,,38-40 Raldne Rd  Hyde Park  MA  02136,12.0,08,5.0,E18,Hyde Park,10.0,Ward 18,1819.0,R2,38-40 Raldne Rd,2136.0,Address,114462.0,42.2559,-71.1413,Constituent Call,"(42.2559, -71.1413)"
595667,101001431709,07/17/2015 10:01:00 AM,10/15/2015 10:01:46 AM,,OVERDUE,Open,,Maintenance Complaint - Residential,Inspectional Services,Housing,Maintenance Complaint - Residential,ISD_Housing (INTERNAL),ISD,,,19 Bilodeau Rd  Dorchester  MA  02121,7.0,03,4.0,B2,Roxbury,13.0,Ward 14,1403.0,R2,19 Bilodeau Rd,2121.0,Address,188747.0,42.3076,-71.0814,Constituent Call,"(42.3076, -71.0814)"
596039,101001432185,07/17/2015 03:53:00 PM,10/15/2015 03:53:10 PM,07/17/2015 03:53:40 PM,ONTIME,Closed,Case Closed. Closed date : 2015-07-17 15:53:40.537 Case Invalid,Maintenance Complaint - Residential,Inspectional Services,Housing,Maintenance Complaint - Residential,ISD_Housing (INTERNAL),ISD,,,156 Poplar St  Roslindale  MA  02131,12.0,06,5.0,E5,Roslindale,10.0,Ward 19,1910.0,R2,156 Poplar St,2131.0,Address,111784.0,42.2829,-71.1277,Constituent Call,"(42.2829, -71.1277)"
596374,101001432665,07/19/2015 04:37:00 PM,10/17/2015 04:37:46 PM,07/19/2015 10:07:01 PM,ONTIME,Closed,Case Closed. Closed date : 2015-07-19 22:07:01.26 Case Invalid,Maintenance Complaint - Residential,Inspectional Services,Housing,Maintenance Complaint - Residential,ISD_Housing (INTERNAL),ISD,,,22 Fendale Ave  Dorchester  MA  02124,8.0,07,3.0,B3,Dorchester,7.0,Ward 17,1704.0,R2,22 Fendale Ave,2124.0,Address,234536.0,42.2789,-71.071,Constituent Call,"(42.2789, -71.071)"
596414,101001432728,07/19/2015 09:48:00 PM,10/17/2015 09:48:26 PM,07/20/2015 08:22:42 AM,ONTIME,Closed,Case Closed. Closed date : 2015-07-20 08:22:42.627 :,Maintenance Complaint - Residential,Inspectional Services,Housing,Maintenance Complaint - Residential,ISD_Housing (INTERNAL),ISD,,,22 Fendale Ave  Dorchester  MA  02124,8.0,07,3.0,B3,Dorchester,7.0,Ward 17,1704.0,R2,22 Fendale Ave,2124.0,Address,234536.0,42.2789,-71.071,Constituent Call,"(42.2789, -71.071)"
596749,101001433175,07/20/2015 12:00:00 PM,10/18/2015 12:00:22 PM,,OVERDUE,Open,,Maintenance Complaint - Residential,Inspectional Services,Housing,Maintenance Complaint - Residential,ISD_Housing (INTERNAL),ISD,,,89 W Springfield St  Roxbury  MA  02118,4.0,1C,7.0,D4,South End,6.0,Ward 9,902.0,RC,89 W Springfield St,2118.0,Address,313679.0,42.3376,-71.0768,Constituent Call,"(42.3376, -71.0768)"
597505,101001434153,07/21/2015 12:31:00 PM,10/19/2015 12:31:13 PM,,OVERDUE,Open,,Maintenance Complaint - Residential,Inspectional Services,Housing,Maintenance Complaint - Residential,ISD_Housing (INTERNAL),ISD,,,2262 Dorchester Ave  Dorchester  MA  02124,8.0,07,3.0,C11,Dorchester,7.0,Ward 17,1713.0,E,2262 Dorchester Ave,2124.0,Address,225289.0,42.2729,-71.0671,Constituent Call,"(42.2729, -71.0671)"
598422,101001435555,07/23/2015 04:40:00 PM,10/21/2015 04:40:25 PM,08/17/2015 09:54:50 AM,ONTIME,Closed,Case Closed. Closed date : 2015-08-17 09:54:50.87 :,Maintenance Complaint - Residential,Inspectional Services,Housing,Maintenance Complaint - Residential,ISD_Housing (INTERNAL),ISD,,,35 Northampton St  Roxbury  MA  02118,7.0,10B,2.0,D4,Roxbury,6.0,08,802.0,E,35 Northampton St,2118.0,Address,158137.0,42.334,-71.0751,Constituent Call,"(42.334, -71.0751)"
598480,101001435632,07/23/2015 05:39:00 PM,10/21/2015 05:39:41 PM,08/17/2015 09:49:44 AM,ONTIME,Closed,Case Closed. Closed date : 2015-08-17 09:49:44.087 :,Maintenance Complaint - Residential,Inspectional Services,Housing,Maintenance Complaint - Residential,ISD_Housing (INTERNAL),ISD,,,2-2A Smith Ct  Boston  MA  02114,3.0,1B,1.0,A1,Beacon Hill,3.0,Ward 3,306.0,A,2-2A Smith Ct,2114.0,Address,169752.0,42.3599,-71.0656,Self Service,"(42.3599, -71.0656)"
599117,101001436454,07/24/2015 08:02:00 PM,10/22/2015 08:02:43 PM,07/27/2015 08:26:58 AM,ONTIME,Closed,Case Closed. Closed date : 2015-07-27 08:26:58.39 :,Maintenance Complaint - Residential,Inspectional Services,Housing,Maintenance Complaint - Residential,ISD_Housing (INTERNAL),ISD,,,93 Waldeck St  Dorchester  MA  02124,7.0,03,4.0,C11,Dorchester,8.0,Ward 17,1702.0,R3,93 Waldeck St,2124.0,Address,325730.0,42.299,-71.0652,Constituent Call,"(42.299, -71.0652)"
599534,101001437097,07/27/2015 08:38:00 AM,10/25/2015 08:38:01 AM,,OVERDUE,Open,,Maintenance Complaint - Residential,Inspectional Services,Housing,Maintenance Complaint - Residential,ISD_Housing (INTERNAL),ISD,,,101 Waldeck St  Dorchester  MA  02124,7.0,03,4.0,C11,Dorchester,8.0,Ward 17,1702.0,R3,101 Waldeck St,2124.0,Address,325697.0,42.2992,-71.0648,Constituent Call,"(42.2992, -71.0648)"
599897,101001437552,07/27/2015 12:56:00 PM,10/25/2015 12:56:16 PM,,OVERDUE,Open,,Maintenance Complaint - Residential,Inspectional Services,Housing,Maintenance Complaint - Residential,ISD_Housing (INTERNAL),ISD,,,1078 Boylston St  Boston  MA  02215,4.0,10A,8.0,D4,Back Bay,14.0,Ward 4,406.0,RC,1078 Boylston St,2215.0,Address,192429.0,42.3469,-71.088,Constituent Call,"(42.3469, -71.088)"
600178,101001437910,07/27/2015 06:00:00 PM,10/25/2015 06:00:17 PM,,OVERDUE,Open,,Maintenance Complaint - Residential,Inspectional Services,Housing,Maintenance Complaint - Residential,ISD_Housing (INTERNAL),ISD,,,25 Brookford St  Dorchester  MA  02125,7.0,03,7.0,B2,Roxbury,13.0,Ward 13,1301.0,R3,25 Brookford St,2125.0,Address,197245.0,42.3183,-71.0762,Constituent Call,"(42.3183, -71.0762)"
600586,101001438447,07/28/2015 12:03:00 PM,10/26/2015 12:03:27 PM,08/17/2015 11:18:52 AM,ONTIME,Closed,Case Closed. Closed date : 2015-08-17 11:18:52.43 NOVIO: No Violation Found/No Cause,Maintenance Complaint - Residential,Inspectional Services,Housing,Maintenance Complaint - Residential,ISD_Housing (INTERNAL),ISD,,,250 Monsignor Dennis F O'Callaghan Way  South Boston  MA  02127,6.0,05,2.0,C6,South Boston / South Boston Waterfront,5.0,07,707.0,E,250 Monsignor Dennis F O'Callaghan Way,2127.0,Address,173910.0,42.3281,-71.0559,Constituent Call,"(42.3281, -71.0559)"
600594,101001438456,07/28/2015 12:08:00 PM,10/26/2015 12:08:45 PM,08/05/2015 09:21:39 AM,ONTIME,Closed,Case Closed. Closed date : 2015-08-05 09:21:39.17 :,Maintenance Complaint - Residential,Inspectional Services,Housing,Maintenance Complaint - Residential,ISD_Housing (INTERNAL),ISD,,,33-35 Knoll St  Roslindale  MA  02131,9.0,06,5.0,E5,Roslindale,10.0,Ward 20,2004.0,R2,33-35 Knoll St,2131.0,Address,82349.0,42.2918,-71.1335,Constituent Call,"(42.2918, -71.1335)"
600627,101001438502,07/28/2015 12:47:00 PM,10/26/2015 12:47:22 PM,08/17/2015 03:12:37 PM,ONTIME,Closed,Case Closed. Closed date : 2015-08-17 15:12:37.183 NOVIO: No Violation Found/No Cause,Maintenance Complaint - Residential,Inspectional Services,Housing,Maintenance Complaint - Residential,ISD_Housing (INTERNAL),ISD,,,51 Wordsworth St  East Boston  MA  02128,1.0,09,1.0,A7,East Boston,1.0,Ward 1,111.0,R3,51 Wordsworth St,2128.0,Address,339430.0,42.3848,-71.0174,Self Service,"(42.3848, -71.0174)"
600643,101001438517,07/28/2015 12:53:00 PM,10/26/2015 12:53:38 PM,08/17/2015 02:20:10 PM,ONTIME,Closed,Case Closed. Closed date : 2015-08-17 14:20:10.29 NOVIO: No Violation Found/No Cause,Maintenance Complaint - Residential,Inspectional Services,Housing,Maintenance Complaint - Residential,ISD_Housing (INTERNAL),ISD,,,185 Fulton St  Boston  MA  02109,3.0,1B,1.0,A1,Downtown / Financial District,3.0,Ward 3,301.0,E,185 Fulton St,2109.0,Address,238854.0,42.3632,-71.052,Constituent Call,"(42.3632, -71.052)"
601050,101001439068,07/29/2015 08:35:00 AM,10/27/2015 08:35:28 AM,08/24/2015 11:33:33 AM,ONTIME,Closed,Case Closed. Closed date : 2015-08-24 11:33:33.207 :,Maintenance Complaint - Residential,Inspectional Services,Housing,Maintenance Complaint - Residential,ISD_Housing (INTERNAL),ISD,,,89 Millet St  Dorchester  MA  02124,8.0,07,4.0,B3,Dorchester,9.0,Ward 17,1703.0,R2,89 Millet St,2124.0,Address,275632.0,42.2934,-71.0771,Constituent Call,"(42.2934, -71.0771)"
601135,101001439178,07/29/2015 09:48:00 AM,10/27/2015 09:48:08 AM,,OVERDUE,Open,,Maintenance Complaint - Residential,Inspectional Services,Housing,Maintenance Complaint - Residential,ISD_Housing (INTERNAL),ISD,,,24 Charlotte St  Dorchester  MA  02121,7.0,03,4.0,B3,Greater Mattapan,8.0,Ward 14,1407.0,R4,24 Charlotte St,2121.0,Address,29876.0,42.2998,-71.085,Constituent Call,"(42.2998, -71.085)"
601189,101001439245,07/29/2015 10:39:00 AM,10/27/2015 10:39:24 AM,08/04/2015 02:50:18 PM,ONTIME,Closed,Case Closed. Closed date : 2015-08-04 14:50:18.217 ADCLSD: Administratively Closed,Maintenance Complaint - Residential,Inspectional Services,Housing,Maintenance Complaint - Residential,ISD_Housing (INTERNAL),ISD,,,39 De Soto Rd  West Roxbury  MA  02132,12.0,06,6.0,E5,West Roxbury,10.0,Ward 20,2003.0,R1,39 De Soto Rd,2132.0,Address,46793.0,42.2616,-71.1542,Self Service,"(42.2616, -71.1542)"
601291,101001439372,07/29/2015 12:20:00 PM,10/27/2015 12:20:28 PM,,OVERDUE,Open,,Maintenance Complaint - Residential,Inspectional Services,Housing,Maintenance Complaint - Residential,ISD_Housing (INTERNAL),ISD,,,64 Brunswick St  Dorchester  MA  02121,9.0,10B,7.0,B2,Roxbury,13.0,Ward 12,1202.0,EA,64 Brunswick St,2121.0,Address,22892.0,42.3118,-71.0816,Self Service,"(42.3118, -71.0816)"
601369,101001439461,07/29/2015 01:23:00 PM,10/27/2015 01:23:31 PM,08/12/2015 09:50:23 AM,ONTIME,Closed,Case Closed. Closed date : 2015-08-12 09:50:23.93 :,Maintenance Complaint - Residential,Inspectional Services,Housing,Maintenance Complaint - Residential,ISD_Housing (INTERNAL),ISD,,,39 Darling St  Mission Hill  MA  02120,9.0,10A,8.0,B2,Mission Hill,14.0,Ward 10,1003.0,R3,39 Darling St,2120.0,Address,222159.0,42.3315,-71.1059,Constituent Call,"(42.3315, -71.1059)"
601392,101001439498,07/29/2015 01:55:00 PM,10/27/2015 01:55:55 PM,07/29/2015 04:33:56 PM,ONTIME,Closed,Case Closed. Closed date : 2015-07-29 16:33:56.56 ADCLSD: Administratively Closed,Maintenance Complaint - Residential,Inspectional Services,Housing,Maintenance Complaint - Residential,ISD_Housing (INTERNAL),ISD,,,11 Quint Ave  Allston  MA  02134,11.0,04,9.0,D14,Allston / Brighton,15.0,Ward 21,2106.0,R4,11 Quint Ave,2134.0,Address,297221.0,42.3528,-71.1343,Self Service,"(42.3528, -71.1343)"
601497,101001439645,07/29/2015 04:12:00 PM,10/27/2015 04:12:38 PM,,OVERDUE,Open,,Maintenance Complaint - Residential,Inspectional Services,Housing,Maintenance Complaint - Residential,ISD_Housing (INTERNAL),ISD,,,1267-1269 Commonwealth Ave  Allston  MA  02134,11.0,04,9.0,D14,Allston / Brighton,15.0,Ward 21,2105.0,CM,1267-1269 Commonwealth Ave,2134.0,Address,37235.0,42.3499,-71.1329,Constituent Call,"(42.3499, -71.1329)"
602487,101001500970,07/31/2015 01:33:00 PM,10/29/2015 01:33:08 PM,08/17/2015 02:56:59 PM,ONTIME,Closed,Case Closed. Closed date : 2015-08-17 14:56:59.613 NOVIO: No Violation Found/No Cause,Maintenance Complaint - Residential,Inspectional Services,Housing,Maintenance Complaint - Residential,ISD_Housing (INTERNAL),ISD,,,31 Orlando St  Mattapan  MA  02126,8.0,07,5.0,B3,Mattapan,9.0,18,1803.0,R4,31 Orlando St,2126.0,Address,105835.0,42.2753,-71.0987,Constituent Call,"(42.2753, -71.0987)"
