,CASE_ENQUIRY_ID,OPEN_DT,TARGET_DT,CLOSED_DT,OnTime_Status,CASE_STATUS,CLOSURE_REASON,CASE_TITLE,SUBJECT,REASON,TYPE,QUEUE,Department,SubmittedPhoto,ClosedPhoto,Location,fire_district,pwd_district,city_council_district,police_district,neighborhood,neighborhood_services_district,ward,precinct,land_usage,LOCATION_STREET_NAME,LOCATION_ZIPCODE,Property_Type,Property_ID,LATITUDE,LONGITUDE,Source,Geocoded_Location
470480,101001242222,01/05/2015 09:49:51 AM,05/05/2015 09:49:51 AM,,OVERDUE,Open,,Mice Infestation - Residential,Inspectional Services,Housing,Mice Infestation - Residential,ISD_Housing (INTERNAL),ISD,,,11 Abbot St  Dorchester  MA  02124,7.0,03,4.0,B3,Dorchester,9.0,14,1409.0,A,11 Abbot St,2124.0,Address,174937.0,42.2972,-71.0865,Constituent Call,"(42.2972, -71.0865)"
470587,101001242388,01/05/2015 12:10:02 PM,05/05/2015 12:10:01 PM,03/16/2015 08:47:52 AM,ONTIME,Closed,Case Closed VIOLFND: Violation Found,Mice Infestation - Residential,Inspectional Services,Housing,Mice Infestation - Residential,ISD_Housing (INTERNAL),ISD,,,1465 Blue Hill Ave  Mattapan  MA  02126,8.0,07,5.0,B3,Greater Mattapan,9.0,Ward 18,1803.0,CD,1465 Blue Hill Ave,2126.0,Address,16288.0,42.274,-71.0939,Constituent Call,"(42.274, -71.0939)"
470798,101001242685,01/05/2015 07:25:15 PM,05/05/2015 07:25:15 PM,03/05/2015 03:34:11 PM,ONTIME,Closed,Case Closed ADCLSD: Administratively Closed,Mice Infestation - Residential,Inspectional Services,Housing,Mice Infestation - Residential,ISD_Housing (INTERNAL),ISD,,,14 Ripley Rd  Dorchester  MA  02121,7.0,03,4.0,B3,Dorchester,8.0,Ward 14,1402.0,R3,14 Ripley Rd,2121.0,Address,116113.0,42.2988,-71.0763,Constituent Call,"(42.2988, -71.0763)"
470976,101001242935,01/06/2015 10:06:10 AM,05/06/2015 10:06:10 AM,,OVERDUE,Open,,Mice Infestation - Residential,Inspectional Services,Housing,Mice Infestation - Residential,ISD_Housing (INTERNAL),ISD,,,16 Hansborough St  Dorchester  MA  02124,8.0,07,4.0,B3,Greater Mattapan,9.0,Ward 14,1411.0,R3,16 Hansborough St,2124.0,Address,246600.0,42.2879,-71.0913,Constituent Call,"(42.2879, -71.0913)"
471072,101001243087,01/06/2015 12:35:06 PM,05/06/2015 12:35:06 PM,03/05/2015 03:32:48 PM,ONTIME,Closed,Case Closed :,Mice Infestation - Residential,Inspectional Services,Housing,Mice Infestation - Residential,ISD_Housing (INTERNAL),ISD,,,275 Minot St  Dorchester  MA  02124,8.0,07,3.0,C11,Dorchester,7.0,Ward 16,1608.0,R3,275 Minot St,2124.0,Address,275987.0,42.2837,-71.059,Constituent Call,"(42.2837, -71.059)"
471159,101001243213,01/06/2015 03:08:45 PM,05/06/2015 03:08:45 PM,,OVERDUE,Open,,Mice Infestation - Residential,Inspectional Services,Housing,Mice Infestation - Residential,ISD_Housing (INTERNAL),ISD,,,1041 Tremont St  Mission Hill  MA  02120,9.0,10B,7.0,D4,Roxbury,13.0,Ward 9,904.0,RC,1041 Tremont St,2120.0,Address,320371.0,42.3366,-71.0857,Constituent Call,"(42.3366, -71.0857)"
471220,101001243291,01/06/2015 04:25:33 PM,05/06/2015 04:25:33 PM,,OVERDUE,Open,,Mice Infestation - Residential,Inspectional Services,Housing,Mice Infestation - Residential,ISD_Housing (INTERNAL),ISD,,,15 Hansborough St  Dorchester  MA  02124,8.0,07,4.0,B3,Greater Mattapan,9.0,Ward 14,1411.0,R3,15 Hansborough St,2124.0,Address,246597.0,42.2882,-71.0911,Constituent Call,"(42.2882, -71.0911)"
471453,101001243607,01/07/2015 11:46:44 AM,05/07/2015 11:46:43 AM,,OVERDUE,Open,,Mice Infestation - Residential,Inspectional Services,Housing,Mice Infestation - Residential,ISD_Housing (INTERNAL),ISD,,,64 Beach St  Boston  MA  02111,4.0,1C,2.0,A1,Downtown / Financial District,4.0,Ward 3,308.0,RC,64 Beach St,2111.0,Address,183329.0,42.3514,-71.0601,Constituent Call,"(42.3514, -71.0601)"
472306,101001244829,01/09/2015 11:07:48 AM,05/09/2015 11:07:47 AM,03/25/2015 02:54:44 PM,ONTIME,Closed,Case Closed VIOLFND: Violation Found,Mice Infestation - Residential,Inspectional Services,Housing,Mice Infestation - Residential,ISD_Housing (INTERNAL),ISD,,,109 Fuller St  Dorchester  MA  02124,8.0,07,4.0,C11,Dorchester,8.0,Ward 17,1711.0,R3,109 Fuller St,2124.0,Address,238561.0,42.2823,-71.0708,Constituent Call,"(42.2823, -71.0708)"
472757,101001245508,01/11/2015 01:39:49 PM,05/11/2015 01:39:49 PM,,OVERDUE,Open,,Mice Infestation - Residential,Inspectional Services,Housing,Mice Infestation - Residential,ISD_Housing (INTERNAL),ISD,,,11 Peterborough St  Boston  MA  02215,4.0,10A,8.0,D4,Fenway / Kenmore / Audubon Circle / Longwood,14.0,Ward 5,502.0,A,11 Peterborough St,2215.0,Address,292648.0,42.3443,-71.0958,Self Service,"(42.3443, -71.0958)"
473060,101001245930,01/12/2015 11:10:52 AM,05/12/2015 11:10:52 AM,,OVERDUE,Open,,Mice Infestation - Residential,Inspectional Services,Housing,Mice Infestation - Residential,ISD_Housing (INTERNAL),ISD,,,12 Elwyn Rd  Dorchester  MA  02124,8.0,03,4.0,B3,Dorchester,9.0,Ward 17,1701.0,R3,12 Elwyn Rd,2124.0,Address,230019.0,42.2956,-71.0745,Self Service,"(42.2956, -71.0745)"
473066,101001245939,01/12/2015 11:18:13 AM,05/12/2015 11:18:13 AM,,OVERDUE,Open,,Mice Infestation - Residential,Inspectional Services,Housing,Mice Infestation - Residential,ISD_Housing (INTERNAL),ISD,,,340 Centre St  Jamaica Plain  MA  02130,9.0,02,6.0,E13,Jamaica Plain,11.0,Ward 10,1009.0,RC,340 Centre St,2130.0,Address,203697.0,42.3224,-71.1066,Constituent Call,"(42.3224, -71.1066)"
473540,101001246699,01/13/2015 02:02:34 PM,05/13/2015 02:02:34 PM,,OVERDUE,Open,,Mice Infestation - Residential,Inspectional Services,Housing,Mice Infestation - Residential,ISD_Housing (INTERNAL),ISD,,,3 Fairland St  Roxbury  MA  02119,7.0,10B,7.0,B2,Roxbury,13.0,Ward 8,804.0,R3,3 Fairland St,2119.0,Address,55639.0,42.3255,-71.078,Constituent Call,"(42.3255, -71.078)"
473650,101001246855,01/13/2015 07:16:30 PM,05/13/2015 07:16:30 PM,03/24/2015 11:43:21 AM,ONTIME,Closed,Case Closed :,Mice Infestation - Residential,Inspectional Services,Housing,Mice Infestation - Residential,ISD_Housing (INTERNAL),ISD,,,376 Washington St  Dorchester  MA  02124,7.0,03,4.0,C11,Dorchester,9.0,Ward 17,1701.0,RC,376 Washington St,2124.0,Address,332441.0,42.2987,-71.0729,Constituent Call,"(42.2987, -71.0729)"
473677,101001246889,01/13/2015 09:18:59 PM,05/13/2015 09:18:59 PM,,OVERDUE,Open,,Mice Infestation - Residential,Inspectional Services,Housing,Mice Infestation - Residential,ISD_Housing (INTERNAL),ISD,,,38 Wayne St  Dorchester  MA  02121,9.0,10B,7.0,B2,Roxbury,13.0,Ward 12,1207.0,A,38 Wayne St,2121.0,Address,333318.0,42.3074,-71.0863,Constituent Call,"(42.3074, -71.0863)"
473899,101001247208,01/14/2015 11:56:51 AM,05/14/2015 11:56:51 AM,,OVERDUE,Open,,Mice Infestation - Residential,Inspectional Services,Housing,Mice Infestation - Residential,ISD_Housing (INTERNAL),ISD,,,80 Corey Rd  Brighton  MA  02135,11.0,04,9.0,D14,Allston / Brighton,15.0,Ward 21,2112.0,R3,80 Corey Rd,2135.0,Address,218972.0,42.3408,-71.1425,Constituent Call,"(42.3408, -71.1425)"
473922,101001247237,01/14/2015 12:22:03 PM,05/14/2015 12:22:03 PM,,OVERDUE,Open,,Mice Infestation - Residential,Inspectional Services,Housing,Mice Infestation - Residential,ISD_Housing (INTERNAL),ISD,,,376 Washington St  Dorchester  MA  02124,7.0,03,4.0,C11,Dorchester,9.0,Ward 17,1701.0,RC,376 Washington St,2124.0,Address,332441.0,42.2987,-71.0729,Constituent Call,"(42.2987, -71.0729)"
474041,101001247414,01/14/2015 03:19:14 PM,05/14/2015 03:19:14 PM,,OVERDUE,Open,,Mice Infestation - Residential,Inspectional Services,Housing,Mice Infestation - Residential,ISD_Housing (INTERNAL),ISD,,,16 Eastman St  Dorchester  MA  02125,7.0,03,7.0,B2,Dorchester,13.0,Ward 7,710.0,R3,16 Eastman St,2125.0,Address,227803.0,42.3194,-71.0642,Constituent Call,"(42.3194, -71.0642)"
476562,101001250940,01/21/2015 10:15:10 AM,05/21/2015 10:15:09 AM,07/30/2015 11:46:19 AM,OVERDUE,Closed,Case Closed. Closed date : 2015-07-30 11:46:19.32 VIOLFND: Violation Found,Mice Infestation - Residential,Inspectional Services,Housing,Mice Infestation - Residential,ISD_Housing (INTERNAL),ISD,,,957 Morton St  Mattapan  MA  02126,8.0,07,4.0,B3,Greater Mattapan,9.0,Ward 18,1801.0,R3,957 Morton St,2126.0,Address,278039.0,42.2796,-71.0818,Constituent Call,"(42.2796, -71.0818)"
477244,101001252012,01/22/2015 02:34:10 PM,05/22/2015 02:34:10 PM,,OVERDUE,Open,,Mice Infestation - Residential,Inspectional Services,Housing,Mice Infestation - Residential,ISD_Housing (INTERNAL),ISD,,,13 Lindall Pl  Boston  MA  02114,3.0,1B,8.0,A1,Beacon Hill,14.0,Ward 5,504.0,CM,13 Lindall Pl,2114.0,Address,86300.0,42.3605,-71.0693,Constituent Call,"(42.3605, -71.0693)"
481276,101001257626,01/28/2015 10:42:22 AM,05/28/2015 10:42:22 AM,,OVERDUE,Open,,Mice Infestation - Residential,Inspectional Services,Housing,Mice Infestation - Residential,ISD_Housing (INTERNAL),ISD,,,109 Fuller St  Dorchester  MA  02124,8.0,07,4.0,C11,Dorchester,8.0,Ward 17,1711.0,R3,109 Fuller St,2124.0,Address,238562.0,42.2823,-71.0708,Constituent Call,"(42.2823, -71.0708)"
484862,101001262290,01/29/2015 03:03:45 PM,05/29/2015 03:03:45 PM,,OVERDUE,Open,,Mice Infestation - Residential,Inspectional Services,Housing,Mice Infestation - Residential,ISD_Housing (INTERNAL),ISD,,,11 Delle Ave  Mission Hill  MA  02120,9.0,10A,8.0,B2,Mission Hill,14.0,Ward 10,1002.0,A,11 Delle Ave,2120.0,Address,223351.0,42.331,-71.0981,Constituent Call,"(42.331, -71.0981)"
486227,101001264535,01/30/2015 12:13:56 PM,05/30/2015 12:13:56 PM,,OVERDUE,Open,,Mice Infestation - Residential,Inspectional Services,Housing,Mice Infestation - Residential,ISD_Housing (INTERNAL),ISD,,,235 Kittredge St  Roslindale  MA  02131,12.0,06,5.0,E5,Roslindale,10.0,Ward 18,1810.0,R2,235 Kittredge St,2131.0,Address,261851.0,42.2792,-71.1328,Constituent Call,"(42.2792, -71.1328)"
487081,101001265855,01/31/2015 12:15:02 PM,05/31/2015 12:15:02 PM,,OVERDUE,Open,,Mice Infestation - Residential,Inspectional Services,Housing,Mice Infestation - Residential,ISD_Housing (INTERNAL),ISD,,,39 Hemenway St  Boston  MA  02115,4.0,10A,8.0,D4,Fenway / Kenmore / Audubon Circle / Longwood,14.0,Ward 4,407.0,CM,39 Hemenway St,2115.0,Address,72666.0,42.3455,-71.0897,Constituent Call,"(42.3455, -71.0897)"
487784,101001266970,02/02/2015 08:56:56 AM,06/02/2015 08:56:56 AM,03/13/2015 08:17:12 AM,ONTIME,Closed,Case Closed NOVIO: No Violation Found/No Cause,Mice Infestation - Residential,Inspectional Services,Housing,Mice Infestation - Residential,ISD_Housing (INTERNAL),ISD,,,67-69 Washington St  Dorchester  MA  02121,7.0,03,4.0,B2,Roxbury,13.0,Ward 14,1403.0,A,67-69 Washington St,2121.0,Address,146138.0,42.306,-71.0816,Constituent Call,"(42.306, -71.0816)"
488803,101001268247,02/02/2015 06:08:38 PM,06/02/2015 06:08:38 PM,,OVERDUE,Open,,Mice Infestation - Residential,Inspectional Services,Housing,Mice Infestation - Residential,ISD_Housing (INTERNAL),ISD,,,1334 Commonwealth Ave  Allston  MA  02134,11.0,04,9.0,D14,Allston / Brighton,15.0,Ward 21,2108.0,RC,1334 Commonwealth Ave,2134.0,Address,214532.0,42.3479,-71.1353,Self Service,"(42.3479, -71.1353)"
489799,101001269424,02/03/2015 09:24:50 AM,06/03/2015 09:24:50 AM,,OVERDUE,Open,,Mice Infestation - Residential,Inspectional Services,Housing,Mice Infestation - Residential,ISD_Housing (INTERNAL),ISD,,,27 Hosmer St  Mattapan  MA  02126,8.0,07,4.0,B3,Greater Mattapan,9.0,Ward 14,1414.0,CD,27 Hosmer St,2126.0,Address,75383.0,42.2807,-71.0906,Constituent Call,"(42.2807, -71.0906)"
490383,101001270259,02/03/2015 12:04:59 PM,06/03/2015 12:04:59 PM,,OVERDUE,Open,,Mice Infestation - Residential,Inspectional Services,Housing,Mice Infestation - Residential,ISD_Housing (INTERNAL),ISD,,,109 Fuller St  Dorchester  MA  02124,8.0,07,4.0,C11,Dorchester,8.0,Ward 17,1711.0,R3,109 Fuller St,2124.0,Address,61092.0,42.2823,-71.0708,Constituent Call,"(42.2823, -71.0708)"
490405,101001270295,02/03/2015 12:13:26 PM,06/03/2015 12:13:25 PM,03/24/2015 02:01:38 PM,ONTIME,Closed,Case Closed :,Mice Infestation - Residential,Inspectional Services,Housing,Mice Infestation - Residential,ISD_Housing (INTERNAL),ISD,,,778 Huntington Ave  Boston  MA  02115,9.0,10A,8.0,B2,Mission Hill,14.0,Ward 10,1003.0,EA,778 Huntington Ave,2115.0,Address,76433.0,42.3331,-71.1068,Constituent Call,"(42.3331, -71.1068)"
490488,101001270434,02/03/2015 12:40:42 PM,06/03/2015 12:40:42 PM,03/14/2015 03:31:56 PM,ONTIME,Closed,Case Closed :,Mice Infestation - Residential,Inspectional Services,Housing,Mice Infestation - Residential,ISD_Housing (INTERNAL),ISD,,,55 Sturbridge St  Mattapan  MA  02126,8.0,07,3.0,B3,Dorchester,7.0,Ward 17,1714.0,R3,55 Sturbridge St,2126.0,Address,315320.0,42.2732,-71.0745,Constituent Call,"(42.2732, -71.0745)"
494054,101001275573,02/04/2015 04:11:33 PM,06/04/2015 04:11:33 PM,02/27/2015 09:40:53 AM,ONTIME,Closed,Case Closed TICKET: Ticket Issued,Mice Infestation - Residential,Inspectional Services,Housing,Mice Infestation - Residential,ISD_Housing (INTERNAL),ISD,,,17 Newport St  Dorchester  MA  02125,7.0,03,3.0,C11,Dorchester,7.0,Ward 13,1307.0,R3,17 Newport St,2125.0,Address,282668.0,42.3184,-71.0542,Constituent Call,"(42.3184, -71.0542)"
494617,101001276483,02/04/2015 09:49:07 PM,06/04/2015 09:49:07 PM,03/05/2015 11:09:07 AM,ONTIME,Closed,Case Closed :,Mice Infestation - Residential,Inspectional Services,Housing,Mice Infestation - Residential,ISD_Housing (INTERNAL),ISD,,,89 Strathmore Rd  Brighton  MA  02135,11.0,04,9.0,D14,Brighton,15.0,21,2115.0,A,89 Strathmore Rd,2135.0,Address,315039.0,42.339,-71.15,Self Service,"(42.339, -71.15)"
496024,101001278686,02/05/2015 04:57:37 PM,06/05/2015 04:57:35 PM,,OVERDUE,Open,,Mice Infestation - Residential,Inspectional Services,Housing,Mice Infestation - Residential,ISD_Housing (INTERNAL),ISD,,,102 Intervale St  Dorchester  MA  02121,7.0,03,4.0,B2,Roxbury,13.0,Ward 14,1401.0,R3,102 Intervale St,2121.0,Address,78699.0,42.3105,-71.0769,Constituent Call,"(42.3105, -71.0769)"
502818,101001288353,02/11/2015 12:14:53 PM,06/11/2015 12:14:52 PM,03/05/2015 03:06:36 PM,ONTIME,Closed,Case Closed :,Mice Infestation - Residential,Inspectional Services,Housing,Mice Infestation - Residential,ISD_Housing (INTERNAL),ISD,,,52 Stonehurst St  Dorchester  MA  02122,7.0,03,4.0,C11,Dorchester,8.0,Ward 15,1502.0,R3,52 Stonehurst St,2122.0,Address,314616.0,42.3055,-71.0667,Constituent Call,"(42.3055, -71.0667)"
503057,101001288697,02/11/2015 02:12:29 PM,06/11/2015 02:12:29 PM,,OVERDUE,Open,,Mice Infestation - Residential,Inspectional Services,Housing,Mice Infestation - Residential,ISD_Housing (INTERNAL),ISD,,,83 Belgrade Ave  Roslindale  MA  02131,9.0,06,5.0,E5,Roslindale,10.0,Ward 20,2002.0,R3,83 Belgrade Ave,2131.0,Address,186658.0,42.2865,-71.1334,Constituent Call,"(42.2865, -71.1334)"
504849,101001291444,02/12/2015 02:11:34 PM,06/12/2015 02:11:33 PM,03/10/2015 03:40:57 PM,ONTIME,Closed,Case Closed :,Mice Infestation - Residential,Inspectional Services,Housing,Mice Infestation - Residential,ISD_Housing (INTERNAL),ISD,,,71 Devon St  Dorchester  MA  02121,7.0,03,4.0,B2,Roxbury,13.0,Ward 14,1401.0,R3,71 Devon St,2121.0,Address,223890.0,42.3098,-71.0799,Constituent Call,"(42.3098, -71.0799)"
505082,101001291807,02/12/2015 03:56:44 PM,06/12/2015 03:56:44 PM,,OVERDUE,Open,,Mice Infestation - Residential,Inspectional Services,Housing,Mice Infestation - Residential,ISD_Housing (INTERNAL),ISD,,,8 Fairfield St  Boston  MA  02116,4.0,1C,8.0,D4,Back Bay,14.0,Ward 5,508.0,R4,8 Fairfield St,2116.0,Address,55624.0,42.352,-71.0831,Self Service,"(42.352, -71.0831)"
515596,101001306214,02/19/2015 10:03:24 AM,06/19/2015 10:03:24 AM,03/10/2015 02:50:30 PM,ONTIME,Closed,Case Closed :,Mice Infestation - Residential,Inspectional Services,Housing,Mice Infestation - Residential,ISD_Housing (INTERNAL),ISD,,,58 Cheney St  Dorchester  MA  02121,9.0,10B,7.0,B2,Roxbury,13.0,Ward 12,1207.0,A,58 Cheney St,2121.0,Address,30654.0,42.3093,-71.0856,Constituent Call,"(42.3093, -71.0856)"
516696,101001307778,02/19/2015 10:08:16 PM,06/19/2015 10:08:16 PM,,OVERDUE,Open,,Mice Infestation - Residential,Inspectional Services,Housing,Mice Infestation - Residential,ISD_Housing (INTERNAL),ISD,,,24 Everett St  Brighton  MA  02135,11.0,04,9.0,D14,Allston / Brighton,15.0,Ward 22,2205.0,R4,24 Everett St,2135.0,Address,231927.0,42.3548,-71.139,Self Service,"(42.3548, -71.139)"
517341,101001308715,02/20/2015 12:55:45 PM,06/20/2015 12:55:45 PM,,OVERDUE,Open,,Mice Infestation - Residential,Inspectional Services,Housing,Mice Infestation - Residential,ISD_Housing (INTERNAL),ISD,,,64 Rosseter St  Dorchester  MA  02121,7.0,03,4.0,C11,Dorchester,8.0,Ward 14,1404.0,R4,64 Rosseter St,2121.0,Address,301582.0,42.3038,-71.0745,Constituent Call,"(42.3038, -71.0745)"
519303,101001311691,02/23/2015 08:57:25 AM,06/23/2015 08:57:25 AM,03/16/2015 12:38:29 PM,ONTIME,Closed,Case Closed :,Mice Infestation - Residential,Inspectional Services,Housing,Mice Infestation - Residential,ISD_Housing (INTERNAL),ISD,,,760 Cummins Hwy  Mattapan  MA  02126,8.0,07,5.0,B3,Greater Mattapan,9.0,Ward 18,1821.0,CM,760 Cummins Hwy,2126.0,Address,221230.0,42.2709,-71.1006,Constituent Call,"(42.2709, -71.1006)"
519399,101001311830,02/23/2015 09:37:40 AM,06/23/2015 09:37:40 AM,03/16/2015 12:26:50 PM,ONTIME,Closed,Case Closed :,Mice Infestation - Residential,Inspectional Services,Housing,Mice Infestation - Residential,ISD_Housing (INTERNAL),ISD,,,7-9 Thomas Park  South Boston  MA  02127,6.0,05,2.0,C6,South Boston / South Boston Waterfront,5.0,Ward 7,703.0,CD,7-9 Thomas Park,2127.0,Address,135677.0,42.3336,-71.0448,Constituent Call,"(42.3336, -71.0448)"
519640,101001312177,02/23/2015 11:33:17 AM,06/23/2015 11:33:17 AM,03/16/2015 12:24:10 PM,ONTIME,Closed,Case Closed :,Mice Infestation - Residential,Inspectional Services,Housing,Mice Infestation - Residential,ISD_Housing (INTERNAL),ISD,,,7-9 Thomas Park  South Boston  MA  02127,6.0,05,2.0,C6,South Boston / South Boston Waterfront,5.0,Ward 7,703.0,CD,7-9 Thomas Park,2127.0,Address,135675.0,42.3336,-71.0448,Constituent Call,"(42.3336, -71.0448)"
520942,101001314116,02/24/2015 11:09:21 AM,06/24/2015 11:09:21 AM,,OVERDUE,Open,,Mice Infestation - Residential,Inspectional Services,Housing,Mice Infestation - Residential,ISD_Housing (INTERNAL),ISD,,,17 Albemarle St  Boston  MA  02115,4.0,1C,7.0,D4,Back Bay,14.0,Ward 4,405.0,CM,17 Albemarle St,2115.0,Address,1598.0,42.3421,-71.0829,Constituent Call,"(42.3421, -71.0829)"
522402,101001316205,02/25/2015 02:06:30 PM,06/25/2015 02:06:29 PM,03/16/2015 03:39:54 PM,ONTIME,Closed,Case Closed :,Mice Infestation - Residential,Inspectional Services,Housing,Mice Infestation - Residential,ISD_Housing (INTERNAL),ISD,,,65 Strathmore Rd  Brighton  MA  02135,11.0,04,9.0,D14,Allston / Brighton,15.0,Ward 21,2114.0,CD,65 Strathmore Rd,2135.0,Address,131442.0,42.3386,-71.1486,Constituent Call,"(42.3386, -71.1486)"
522456,101001316281,02/25/2015 02:45:53 PM,06/25/2015 02:45:53 PM,03/16/2015 12:40:58 PM,ONTIME,Closed,Case Closed :,Mice Infestation - Residential,Inspectional Services,Housing,Mice Infestation - Residential,ISD_Housing (INTERNAL),ISD,,,6 Gladeside Ter  Mattapan  MA  02126,8.0,07,4.0,B3,Greater Mattapan,9.0,Ward 18,1801.0,R2,6 Gladeside Ter,2126.0,Address,241181.0,42.2729,-71.0875,Constituent Call,"(42.2729, -71.0875)"
522820,101001316794,02/25/2015 09:23:20 PM,06/25/2015 09:23:20 PM,03/18/2015 05:51:34 PM,ONTIME,Closed,Case Closed NOBASE: No Basis,Mice Infestation - Residential,Inspectional Services,Housing,Mice Infestation - Residential,ISD_Housing (INTERNAL),ISD,,,21 Cortes St  Boston  MA  02116,4.0,1C,2.0,A1,Back Bay,6.0,Ward 5,501.0,R4,21 Cortes St,2116.0,Address,219377.0,42.3484,-71.0706,Self Service,"(42.3484, -71.0706)"
523527,101001317803,02/26/2015 01:00:25 PM,06/26/2015 01:00:24 PM,03/10/2015 12:49:08 PM,ONTIME,Closed,Case Closed :,Mice Infestation - Residential,Inspectional Services,Housing,Mice Infestation - Residential,ISD_Housing (INTERNAL),ISD,,,17-19 Morse St  Dorchester  MA  02121,7.0,03,4.0,C11,Dorchester,8.0,14,1404.0,R2,17-19 Morse St,2121.0,Address,97592.0,42.3042,-71.0781,Constituent Call,"(42.3042, -71.0781)"
525935,101001321473,03/02/2015 01:51:46 PM,06/30/2015 01:51:46 PM,03/16/2015 02:28:49 PM,ONTIME,Closed,Case Closed :,Mice Infestation - Residential,Inspectional Services,Housing,Mice Infestation - Residential,ISD_Housing (INTERNAL),ISD,,,18 Rosedale St  Dorchester  MA  02124,8.0,07,4.0,B3,Dorchester,9.0,Ward 17,1703.0,R3,18 Rosedale St,2124.0,Address,118362.0,42.2924,-71.0727,Constituent Call,"(42.2924, -71.0727)"
526910,101001322935,03/03/2015 03:35:49 PM,07/01/2015 03:35:48 PM,,OVERDUE,Open,,Mice Infestation - Residential,Inspectional Services,Housing,Mice Infestation - Residential,ISD_Housing (INTERNAL),ISD,,,16 Wildwood St  Dorchester  MA  02124,8.0,07,4.0,B3,Greater Mattapan,9.0,Ward 14,1405.0,CD,16 Wildwood St,2124.0,Address,149711.0,42.2836,-71.0871,Constituent Call,"(42.2836, -71.0871)"
527210,101001323403,03/04/2015 08:24:22 AM,07/02/2015 08:24:22 AM,03/17/2015 12:02:39 PM,ONTIME,Closed,Case Closed :,Mice Infestation - Residential,Inspectional Services,Housing,Mice Infestation - Residential,ISD_Housing (INTERNAL),ISD,,,25 Charlotte St  Dorchester  MA  02121,7.0,03,4.0,B3,Greater Mattapan,8.0,Ward 14,1407.0,R3,25 Charlotte St,2121.0,Address,29877.0,42.2994,-71.0852,Constituent Call,"(42.2994, -71.0852)"
527699,101001324106,03/04/2015 03:47:47 PM,07/02/2015 03:47:47 PM,,OVERDUE,Open,,Mice Infestation - Residential,Inspectional Services,Housing,Mice Infestation - Residential,ISD_Housing (INTERNAL),ISD,,,9 Victory Rd  Dorchester  MA  02122,8.0,07,3.0,C11,Dorchester,7.0,Ward 16,1605.0,A,9 Victory Rd,2122.0,Address,324989.0,42.2954,-71.0558,Constituent Call,"(42.2954, -71.0558)"
528354,101001325105,03/05/2015 01:47:28 PM,07/03/2015 01:47:28 PM,,OVERDUE,Open,,Mice Infestation - Residential,Inspectional Services,Housing,Mice Infestation - Residential,ISD_Housing (INTERNAL),ISD,,,5 Mount Pleasant Ter  Roxbury  MA  02119,7.0,10B,7.0,B2,Roxbury,13.0,Ward 8,804.0,R3,5 Mount Pleasant Ter,2119.0,Address,98450.0,42.3267,-71.08,Constituent Call,"(42.3267, -71.08)"
528634,101001325519,03/05/2015 08:44:36 PM,07/03/2015 08:44:35 PM,,OVERDUE,Open,,Mice Infestation - Residential,Inspectional Services,Housing,Mice Infestation - Residential,ISD_Housing (INTERNAL),ISD,,,1 Aspinwall Rd  Dorchester  MA  02124,8.0,07,4.0,B3,Dorchester,9.0,Ward 17,1703.0,R4,1 Aspinwall Rd,2124.0,Address,180194.0,42.2921,-71.0722,Constituent Call,"(42.2921, -71.0722)"
528867,101001325854,03/06/2015 10:30:13 AM,07/04/2015 10:30:13 AM,03/17/2015 11:56:17 AM,ONTIME,Closed,Case Closed :,Mice Infestation - Residential,Inspectional Services,Housing,Mice Infestation - Residential,ISD_Housing (INTERNAL),ISD,,,147 Columbia Rd  Dorchester  MA  02121,7.0,03,4.0,C11,Roxbury,8.0,Ward 14,1404.0,A,147 Columbia Rd,2121.0,Address,210381.0,42.3057,-71.0788,Constituent Call,"(42.3057, -71.0788)"
529544,101001326935,03/07/2015 11:32:43 PM,07/05/2015 11:32:42 PM,,OVERDUE,Open,,Mice Infestation - Residential,Inspectional Services,Housing,Mice Infestation - Residential,ISD_Housing (INTERNAL),ISD,,,143 Worcester St  Roxbury  MA  02118,4.0,1C,7.0,D4,South End,6.0,Ward 4,404.0,R4,143 Worcester St,2118.0,Address,152372.0,42.3412,-71.0797,Self Service,"(42.3412, -71.0797)"
530247,101001328057,03/09/2015 03:11:37 PM,07/07/2015 03:11:36 PM,,OVERDUE,Open,,Mice Infestation - Residential,Inspectional Services,Housing,Mice Infestation - Residential,ISD_Housing (INTERNAL),ISD,,,3 Maywood St  Roxbury  MA  02119,9.0,10B,7.0,B2,Roxbury,13.0,Ward 12,1206.0,A,3 Maywood St,2119.0,Address,167532.0,42.318,-71.0817,Constituent Call,"(42.318, -71.0817)"
530444,101001328375,03/09/2015 08:33:41 PM,07/07/2015 08:33:41 PM,,OVERDUE,Open,,Mice Infestation - Residential,Inspectional Services,Housing,Mice Infestation - Residential,ISD_Housing (INTERNAL),ISD,,,56 Bowdoin Ave  Dorchester  MA  02121,7.0,03,4.0,C11,Dorchester,8.0,Ward 14,1404.0,A,56 Bowdoin Ave,2121.0,Address,191595.0,42.3014,-71.0745,Constituent Call,"(42.3014, -71.0745)"
530740,101001328833,03/10/2015 10:58:24 AM,07/08/2015 10:58:24 AM,03/16/2015 09:19:28 AM,ONTIME,Closed,Case Closed :,Mice Infestation - Residential,Inspectional Services,Housing,Mice Infestation - Residential,ISD_Housing (INTERNAL),ISD,,,61 Colonial Ave  Dorchester  MA  02124,8.0,07,4.0,B3,Dorchester,9.0,Ward 17,1705.0,R4,61 Colonial Ave,2124.0,Address,34886.0,42.2904,-71.0776,Constituent Call,"(42.2904, -71.0776)"
531580,101001330116,03/11/2015 11:47:50 AM,07/09/2015 11:47:49 AM,03/14/2015 11:57:16 AM,ONTIME,Closed,Case Closed :,Mice Infestation - Residential,Inspectional Services,Housing,Mice Infestation - Residential,ISD_Housing (INTERNAL),ISD,,,1111-1115 Blue Hill Ave  Dorchester  MA  02124,8.0,07,4.0,B3,Greater Mattapan,9.0,Ward 14,1411.0,CM,1111-1115 Blue Hill Ave,2124.0,Address,16155.0,42.2865,-71.0911,Constituent Call,"(42.2865, -71.0911)"
531658,101001330262,03/11/2015 01:17:28 PM,07/09/2015 01:17:28 PM,,OVERDUE,Open,,Mice Infestation - Residential,Inspectional Services,Housing,Mice Infestation - Residential,ISD_Housing (INTERNAL),ISD,,,129 Elm Hill Ave  Dorchester  MA  02121,9.0,10B,7.0,B2,Roxbury,13.0,Ward 12,1207.0,E,129 Elm Hill Ave,2121.0,Address,174179.0,42.3081,-71.089,Constituent Call,"(42.3081, -71.089)"
532146,101001331013,03/12/2015 09:55:10 AM,07/10/2015 09:55:10 AM,03/13/2015 01:07:59 PM,ONTIME,Closed,Case Closed :,Mice Infestation - Residential,Inspectional Services,Housing,Mice Infestation - Residential,ISD_Housing (INTERNAL),ISD,,,12 Sutherland Rd  Brighton  MA  02135,11.0,04,9.0,D14,Allston / Brighton,15.0,Ward 21,2115.0,R4,12 Sutherland Rd,2135.0,Address,132895.0,42.3368,-71.1505,Constituent Call,"(42.3368, -71.1505)"
533232,101001332449,03/13/2015 10:52:54 AM,07/11/2015 10:52:54 AM,03/16/2015 09:36:45 AM,ONTIME,Closed,Case Closed :,Mice Infestation - Residential,Inspectional Services,Housing,Mice Infestation - Residential,ISD_Housing (INTERNAL),ISD,,,235 Kittredge St  Roslindale  MA  02131,12.0,06,5.0,E5,Roslindale,10.0,Ward 18,1810.0,R2,235 Kittredge St,2131.0,Address,261851.0,42.2792,-71.1328,Constituent Call,"(42.2792, -71.1328)"
533611,101001333021,03/14/2015 01:30:02 AM,07/12/2015 01:30:02 AM,07/24/2015 11:53:45 AM,OVERDUE,Closed,Case Closed. Closed date : 2015-07-24 11:53:45.793 :,Mice Infestation - Residential,Inspectional Services,Housing,Mice Infestation - Residential,ISD_Housing (INTERNAL),ISD,,,1584 Tremont St  Mission Hill  MA  02120,9.0,10A,8.0,B2,Mission Hill,14.0,Ward 10,1003.0,R3,1584 Tremont St,2120.0,Address,321132.0,42.3334,-71.103,Constituent Call,"(42.3334, -71.103)"
534830,101001334842,03/17/2015 10:37:05 AM,07/15/2015 10:37:05 AM,04/15/2015 03:20:24 PM,ONTIME,Closed,Case Closed :,Mice Infestation - Residential,Inspectional Services,Housing,Mice Infestation - Residential,ISD_Housing (INTERNAL),ISD,,,2 Buttonwood St  Dorchester  MA  02125,7.0,03,3.0,C11,Dorchester,7.0,Ward 13,1307.0,R3,2 Buttonwood St,2125.0,Address,24411.0,42.319,-71.0561,Constituent Call,"(42.319, -71.0561)"
534989,101001335051,03/17/2015 01:00:15 PM,07/15/2015 01:00:15 PM,06/10/2015 09:11:20 AM,ONTIME,Closed,Case Closed. Closed date : 2015-06-10 09:11:20.137 :,Mice Infestation - Residential,Inspectional Services,Housing,Mice Infestation - Residential,ISD_Housing (INTERNAL),ISD,,,277 Centre St  Jamaica Plain  MA  02130,9.0,10A,6.0,E13,Jamaica Plain,11.0,Ward 10,1007.0,E,277 Centre St,2130.0,Address,203505.0,42.3234,-71.1012,Constituent Call,"(42.3234, -71.1012)"
535675,101001335939,03/18/2015 09:13:04 AM,07/16/2015 09:13:04 AM,,OVERDUE,Open,,Mice Infestation - Residential,Inspectional Services,Housing,Mice Infestation - Residential,ISD_Housing (INTERNAL),ISD,,,54 Mount Pleasant Ave  Roxbury  MA  02119,7.0,10B,7.0,B2,Roxbury,13.0,Ward 8,803.0,A,54 Mount Pleasant Ave,2119.0,Address,278760.0,42.3265,-71.0788,Constituent Call,"(42.3265, -71.0788)"
536037,101001336442,03/18/2015 02:13:55 PM,07/16/2015 02:13:55 PM,04/29/2015 03:05:08 PM,ONTIME,Closed,Case Closed :,Mice Infestation - Residential,Inspectional Services,Housing,Mice Infestation - Residential,ISD_Housing (INTERNAL),ISD,,,497 Huntington Ave  Boston  MA  02115,4.0,10A,7.0,D4,Fenway / Kenmore / Audubon Circle / Longwood,13.0,Ward 4,409.0,EA,497 Huntington Ave,2115.0,Address,76378.0,42.338,-71.0955,Constituent Call,"(42.338, -71.0955)"
536043,101001336450,03/18/2015 02:20:02 PM,07/16/2015 02:20:02 PM,03/20/2015 09:31:13 AM,ONTIME,Closed,Case Closed :,Mice Infestation - Residential,Inspectional Services,Housing,Mice Infestation - Residential,ISD_Housing (INTERNAL),ISD,,,31 Clifford St  Roxbury  MA  02119,9.0,10B,7.0,B2,Roxbury,13.0,Ward 12,1204.0,R2,31 Clifford St,2119.0,Address,33948.0,42.3199,-71.0804,Constituent Call,"(42.3199, -71.0804)"
536644,101001337223,03/19/2015 10:40:53 AM,07/17/2015 10:40:52 AM,,OVERDUE,Open,,Mice Infestation - Residential,Inspectional Services,Housing,Mice Infestation - Residential,ISD_Housing (INTERNAL),ISD,,,5 Coleman St  Dorchester  MA  02125,7.0,03,3.0,C11,Dorchester,8.0,Ward 15,1504.0,R3,5 Coleman St,2125.0,Address,34676.0,42.3092,-71.0652,Constituent Call,"(42.3092, -71.0652)"
536958,101001337666,03/19/2015 04:30:06 PM,07/17/2015 04:30:06 PM,,OVERDUE,Open,,Mice Infestation - Residential,Inspectional Services,Housing,Mice Infestation - Residential,ISD_Housing (INTERNAL),ISD,,,305 Saratoga St  East Boston  MA  02128,1.0,09,1.0,A7,East Boston,1.0,Ward 1,110.0,R3,305 Saratoga St,2128.0,Address,122595.0,42.3782,-71.0316,Constituent Call,"(42.3782, -71.0316)"
539096,101001340626,03/24/2015 11:49:52 AM,07/22/2015 11:49:52 AM,,OVERDUE,Open,,Mice Infestation - Residential,Inspectional Services,Housing,Mice Infestation - Residential,ISD_Housing (INTERNAL),ISD,,,757 Shawmut Ave  Mission Hill  MA  02120,7.0,10B,7.0,B2,Roxbury,13.0,Ward 9,905.0,EA,757 Shawmut Ave,2120.0,Address,169667.0,42.3322,-71.0845,Constituent Call,"(42.3322, -71.0845)"
540252,101001342192,03/25/2015 08:11:34 PM,07/23/2015 08:11:34 PM,04/28/2015 02:32:04 PM,ONTIME,Closed,Case Closed :,Mice Infestation - Residential,Inspectional Services,Housing,Mice Infestation - Residential,ISD_Housing (INTERNAL),ISD,,,109 Peterborough St  Boston  MA  02215,4.0,10A,8.0,D4,Fenway / Kenmore / Audubon Circle / Longwood,14.0,Ward 21,2101.0,A,109 Peterborough St,2215.0,Address,109773.0,42.3431,-71.1,Self Service,"(42.3431, -71.1)"
540503,101001342559,03/26/2015 11:18:25 AM,07/24/2015 11:18:25 AM,,OVERDUE,Open,,Mice Infestation - Residential,Inspectional Services,Housing,Mice Infestation - Residential,ISD_Housing (INTERNAL),ISD,,,33 Glenarm St  Dorchester  MA  02121,7.0,03,4.0,B3,Roxbury,8.0,14,1406.0,R3,33 Glenarm St,2121.0,Address,241437.0,42.3037,-71.0813,Self Service,"(42.3037, -71.0813)"
541051,101001343399,03/27/2015 11:05:49 AM,07/25/2015 11:05:49 AM,03/30/2015 08:52:48 AM,ONTIME,Closed,Case Closed :,Mice Infestation - Residential,Inspectional Services,Housing,Mice Infestation - Residential,ISD_Housing (INTERNAL),ISD,,,624 Warren St  Dorchester  MA  02121,9.0,10B,7.0,B2,Roxbury,13.0,Ward 12,1202.0,RC,624 Warren St,2121.0,Address,143323.0,42.3108,-71.083,Constituent Call,"(42.3108, -71.083)"
541129,101001343503,03/27/2015 12:12:46 PM,07/25/2015 12:12:45 PM,,OVERDUE,Open,,Mice Infestation - Residential,Inspectional Services,Housing,Mice Infestation - Residential,ISD_Housing (INTERNAL),ISD,,,1 Torrey St  Dorchester  MA  02124,8.0,07,4.0,C11,Dorchester,9.0,Ward 17,1708.0,RC,1 Torrey St,2124.0,Address,319825.0,42.2878,-71.0714,Constituent Call,"(42.2878, -71.0714)"
542195,101001344986,03/30/2015 01:24:58 PM,07/28/2015 01:24:58 PM,,OVERDUE,Open,,Mice Infestation - Residential,Inspectional Services,Housing,Mice Infestation - Residential,ISD_Housing (INTERNAL),ISD,,,109 Fuller St  Dorchester  MA  02124,8.0,07,4.0,C11,Dorchester,8.0,Ward 17,1711.0,R3,109 Fuller St,2124.0,Address,238562.0,42.2823,-71.0708,Constituent Call,"(42.2823, -71.0708)"
542779,101001345792,03/31/2015 11:30:57 AM,07/29/2015 11:30:57 AM,03/31/2015 01:12:25 PM,ONTIME,Closed,Case Closed :,Mice Infestation - Residential,Inspectional Services,Housing,Mice Infestation - Residential,ISD_Housing (INTERNAL),ISD,,,57 Woolson St  Mattapan  MA  02126,8.0,07,4.0,B3,Greater Mattapan,9.0,Ward 14,1405.0,R3,57 Woolson St,2126.0,Address,339038.0,42.281,-71.0894,Constituent Call,"(42.281, -71.0894)"
543389,101001346643,04/01/2015 09:58:12 AM,07/30/2015 09:58:12 AM,04/01/2015 11:43:47 AM,ONTIME,Closed,Case Closed :,Mice Infestation - Residential,Inspectional Services,Housing,Mice Infestation - Residential,ISD_Housing (INTERNAL),ISD,,,51 Lincoln St  Hyde Park  MA  02136,12.0,08,5.0,E18,Hyde Park,10.0,Ward 18,1813.0,R2,51 Lincoln St,2136.0,Address,264686.0,42.2596,-71.1213,Constituent Call,"(42.2596, -71.1213)"
545898,101001350106,04/06/2015 11:35:17 AM,08/04/2015 11:35:17 AM,04/06/2015 03:45:02 PM,ONTIME,Closed,Case Closed :,Mice Infestation - Residential,Inspectional Services,Housing,Mice Infestation - Residential,ISD_Housing (INTERNAL),ISD,,,451 Norfolk St  Mattapan  MA  02126,8.0,07,4.0,B3,Greater Mattapan,9.0,Ward 14,1405.0,A,451 Norfolk St,2126.0,Address,283775.0,42.2809,-71.088,Constituent Call,"(42.2809, -71.088)"
545927,101001350144,04/06/2015 11:53:47 AM,08/04/2015 11:53:47 AM,07/21/2015 11:45:05 AM,ONTIME,Closed,Case Closed. Closed date : 2015-07-21 11:45:05.027 VIOLFND: Violation Found,Mice Infestation - Residential,Inspectional Services,Housing,Mice Infestation - Residential,ISD_Housing (INTERNAL),ISD,,,633 River St  Mattapan  MA  02126,8.0,08,4.0,E18,Greater Mattapan,9.0,Ward 18,1804.0,CD,633 River St,2126.0,Address,116673.0,42.2653,-71.0991,Constituent Call,"(42.2653, -71.0991)"
545996,101001350239,04/06/2015 01:28:42 PM,08/04/2015 01:28:42 PM,04/07/2015 09:17:40 AM,ONTIME,Closed,Case Closed :,Mice Infestation - Residential,Inspectional Services,Housing,Mice Infestation - Residential,ISD_Housing (INTERNAL),ISD,,,451 Norfolk St  Mattapan  MA  02126,8.0,07,4.0,B3,Greater Mattapan,9.0,Ward 14,1405.0,A,451 Norfolk St,2126.0,Address,103332.0,42.2809,-71.088,Constituent Call,"(42.2809, -71.088)"
546233,101001350562,04/06/2015 10:34:59 PM,08/04/2015 10:34:59 PM,,OVERDUE,Open,,Mice Infestation - Residential,Inspectional Services,Housing,Mice Infestation - Residential,ISD_Housing (INTERNAL),ISD,,,95 Park Dr  Boston  MA  02215,4.0,10A,8.0,D4,Fenway / Kenmore / Audubon Circle / Longwood,14.0,Ward 5,502.0,A,95 Park Dr,2215.0,Address,289471.0,42.3422,-71.0965,Self Service,"(42.3422, -71.0965)"
547264,101001351905,04/08/2015 10:28:18 AM,08/06/2015 10:28:17 AM,,OVERDUE,Open,,Mice Infestation - Residential,Inspectional Services,Housing,Mice Infestation - Residential,ISD_Housing (INTERNAL),ISD,,,398 W Broadway  South Boston  MA  02127,6.0,05,2.0,C6,South Boston / South Boston Waterfront,5.0,Ward 6,603.0,RC,398 W Broadway,2127.0,Address,196953.0,42.3374,-71.0482,Constituent Call,"(42.3374, -71.0482)"
547282,101001351925,04/08/2015 10:41:54 AM,08/06/2015 10:41:54 AM,,OVERDUE,Open,,Mice Infestation - Residential,Inspectional Services,Housing,Mice Infestation - Residential,ISD_Housing (INTERNAL),ISD,,,145 Putnam St  East Boston  MA  02128,1.0,09,1.0,A7,East Boston,1.0,Ward 1,106.0,R3,145 Putnam St,2128.0,Address,113628.0,42.3779,-71.0319,Constituent Call,"(42.3779, -71.0319)"
547331,101001351993,04/08/2015 11:29:40 AM,08/06/2015 11:29:40 AM,,OVERDUE,Open,,Mice Infestation - Residential,Inspectional Services,Housing,Mice Infestation - Residential,ISD_Housing (INTERNAL),ISD,,,451 Norfolk St  Mattapan  MA  02126,8.0,07,4.0,B3,Greater Mattapan,9.0,Ward 14,1405.0,A,451 Norfolk St,2126.0,Address,283775.0,42.2809,-71.088,Constituent Call,"(42.2809, -71.088)"
548006,101001352880,04/09/2015 11:51:02 AM,08/07/2015 11:51:02 AM,,OVERDUE,Open,,Mice Infestation - Residential,Inspectional Services,Housing,Mice Infestation - Residential,ISD_Housing (INTERNAL),ISD,,,316 Princeton St  East Boston  MA  02128,1.0,09,1.0,A7,East Boston,1.0,Ward 1,109.0,R3,316 Princeton St,2128.0,Address,296105.0,42.3805,-71.0285,Constituent Call,"(42.3805, -71.0285)"
549611,101001355169,04/13/2015 02:38:17 PM,08/11/2015 02:38:17 PM,,OVERDUE,Open,,Mice Infestation - Residential,Inspectional Services,Housing,Mice Infestation - Residential,ISD_Housing (INTERNAL),ISD,,,6 Hayes Rd  Roslindale  MA  02131,12.0,06,5.0,E5,Roslindale,10.0,Ward 20,2002.0,CD,6 Hayes Rd,2131.0,Address,72158.0,42.2828,-71.1326,Constituent Call,"(42.2828, -71.1326)"
550080,101001355831,04/14/2015 10:22:39 AM,08/12/2015 10:22:37 AM,,OVERDUE,Open,,Mice Infestation - Residential,Inspectional Services,Housing,Mice Infestation - Residential,ISD_Housing (INTERNAL),ISD,,,102 Intervale St  Dorchester  MA  02121,7.0,03,4.0,B2,Roxbury,13.0,Ward 14,1401.0,R3,102 Intervale St,2121.0,Address,78699.0,42.3105,-71.0769,Constituent Call,"(42.3105, -71.0769)"
550086,101001355838,04/14/2015 10:25:35 AM,08/12/2015 10:25:35 AM,,OVERDUE,Open,,Mice Infestation - Residential,Inspectional Services,Housing,Mice Infestation - Residential,ISD_Housing (INTERNAL),ISD,,,751 Shawmut Ave  Mission Hill  MA  02120,7.0,10B,7.0,B2,Roxbury,13.0,Ward 9,904.0,EA,751 Shawmut Ave,2120.0,Address,310360.0,42.3324,-71.084,Constituent Call,"(42.3324, -71.084)"
550133,101001355898,04/14/2015 10:52:37 AM,08/12/2015 10:52:37 AM,,OVERDUE,Open,,Mice Infestation - Residential,Inspectional Services,Housing,Mice Infestation - Residential,ISD_Housing (INTERNAL),ISD,,,1045 River St  Hyde Park  MA  02136,12.0,08,5.0,E18,Hyde Park,10.0,Ward 18,1815.0,A,1045 River St,2136.0,Address,298967.0,42.2597,-71.1174,Constituent Call,"(42.2597, -71.1174)"
550469,101001356369,04/14/2015 04:34:47 PM,08/12/2015 04:34:46 PM,,OVERDUE,Open,,Mice Infestation - Residential,Inspectional Services,Housing,Mice Infestation - Residential,ISD_Housing (INTERNAL),ISD,,,30 Logan Way  South Boston  MA  02127,6.0,05,2.0,C6,South Boston / South Boston Waterfront,5.0,Ward 7,707.0,E,30 Logan Way,2127.0,Address,173776.0,42.3275,-71.0542,Constituent Call,"(42.3275, -71.0542)"
551580,101001357879,04/16/2015 10:33:17 AM,08/14/2015 10:33:16 AM,,OVERDUE,Open,,Mice Infestation - Residential,Inspectional Services,Housing,Mice Infestation - Residential,ISD_Housing (INTERNAL),ISD,,,57 Woolson St  Mattapan  MA  02126,8.0,07,4.0,B3,Greater Mattapan,9.0,Ward 14,1405.0,R3,57 Woolson St,2126.0,Address,339038.0,42.281,-71.0894,Constituent Call,"(42.281, -71.0894)"
551591,101001357894,04/16/2015 10:38:51 AM,08/14/2015 10:38:50 AM,,OVERDUE,Open,,Mice Infestation - Residential,Inspectional Services,Housing,Mice Infestation - Residential,ISD_Housing (INTERNAL),ISD,,,26 Wayne St  Dorchester  MA  02121,9.0,10B,7.0,B2,Roxbury,13.0,Ward 12,1207.0,R2,26 Wayne St,2121.0,Address,146683.0,42.3072,-71.0859,Constituent Call,"(42.3072, -71.0859)"
551906,101001358370,04/16/2015 04:26:26 PM,08/14/2015 04:26:25 PM,,OVERDUE,Open,,Mice Infestation - Residential,Inspectional Services,Housing,Mice Infestation - Residential,ISD_Housing (INTERNAL),ISD,,,131 Park Dr  Boston  MA  02215,4.0,10A,8.0,D4,Fenway / Kenmore / Audubon Circle / Longwood,14.0,Ward 5,502.0,CD,131 Park Dr,2215.0,Address,106714.0,42.3417,-71.0979,Self Service,"(42.3417, -71.0979)"
552318,101001358946,04/17/2015 12:47:46 PM,08/15/2015 12:47:46 PM,,OVERDUE,Open,,Mice Infestation - Residential,Inspectional Services,Housing,Mice Infestation - Residential,ISD_Housing (INTERNAL),ISD,,,15 Greenwood St  Dorchester  MA  02121,7.0,03,4.0,B3,Greater Mattapan,8.0,Ward 14,1406.0,R3,15 Greenwood St,2121.0,Address,244039.0,42.3016,-71.0798,Constituent Call,"(42.3016, -71.0798)"
552711,101001359557,04/18/2015 03:02:33 PM,08/16/2015 03:02:33 PM,04/21/2015 10:28:18 AM,ONTIME,Closed,Case Closed Case Invalid See case 1359558,Mice Infestation - Residential,Inspectional Services,Housing,Mice Infestation - Residential,ISD_Housing (INTERNAL),ISD,,,2 Wigglesworth St  Mission Hill  MA  02120,9.0,10A,8.0,B2,Mission Hill,14.0,Ward 10,1003.0,R3,2 Wigglesworth St,2120.0,Address,149618.0,42.3341,-71.1033,Constituent Call,"(42.3341, -71.1033)"
553188,101001360212,04/21/2015 12:42:51 AM,08/19/2015 12:42:51 AM,04/27/2015 02:02:18 PM,ONTIME,Closed,Case Closed Case Noted Constituent requested case to be closed. Constituent stated the maintenance came and sealed up a few of the holes and laid down a lot of traps.,Mice Infestation - Residential,Inspectional Services,Housing,Mice Infestation - Residential,ISD_Housing (INTERNAL),ISD,,,108 Hemenway St  Boston  MA  02115,4.0,10A,8.0,D4,Fenway / Kenmore / Audubon Circle / Longwood,14.0,Ward 4,407.0,A,108 Hemenway St,2115.0,Address,250321.0,42.3433,-71.0898,Self Service,"(42.3433, -71.0898)"
553667,101001360896,04/21/2015 02:46:59 PM,08/19/2015 02:46:59 PM,,OVERDUE,Open,,Mice Infestation - Residential,Inspectional Services,Housing,Mice Infestation - Residential,ISD_Housing (INTERNAL),ISD,,,247 Marion St  East Boston  MA  02128,1.0,09,1.0,A7,East Boston,1.0,Ward 1,105.0,R3,247 Marion St,2128.0,Address,268902.0,42.3742,-71.0332,Constituent Call,"(42.3742, -71.0332)"
553670,101001360900,04/21/2015 02:48:29 PM,08/19/2015 02:48:28 PM,,OVERDUE,Open,,Mice Infestation - Residential,Inspectional Services,Housing,Mice Infestation - Residential,ISD_Housing (INTERNAL),ISD,,,22 Bradlee St  Dorchester  MA  02124,8.0,03,4.0,B3,Dorchester,9.0,Ward 17,1701.0,R3,22 Bradlee St,2124.0,Address,194960.0,42.2971,-71.0737,Constituent Call,"(42.2971, -71.0737)"
555150,101001362958,04/24/2015 08:56:11 AM,08/22/2015 08:56:10 AM,,OVERDUE,Open,,Mice Infestation - Residential,Inspectional Services,Housing,Mice Infestation - Residential,ISD_Housing (INTERNAL),ISD,,,55 Franklin Hill Ave  Dorchester  MA  02124,8.0,07,4.0,B3,Dorchester,9.0,14,1409.0,,55 Franklin Hill Ave,2124.0,Address,354362.0,42.3594,-71.0587,Constituent Call,"(0, 0)"
555313,101001363170,04/24/2015 12:03:22 PM,08/22/2015 12:03:22 PM,,OVERDUE,Open,,Mice Infestation - Residential,Inspectional Services,Housing,Mice Infestation - Residential,ISD_Housing (INTERNAL),ISD,,,91 Devon St  Dorchester  MA  02121,7.0,03,4.0,B2,Roxbury,13.0,Ward 14,1401.0,R3,91 Devon St,2121.0,Address,223921.0,42.3092,-71.079,Constituent Call,"(42.3092, -71.079)"
555393,101001363278,04/24/2015 01:56:30 PM,08/22/2015 01:56:29 PM,,OVERDUE,Open,,Mice Infestation - Residential,Inspectional Services,Housing,Mice Infestation - Residential,ISD_Housing (INTERNAL),ISD,,,506 E Fourth St  South Boston  MA  02127,6.0,05,2.0,C6,South Boston / South Boston Waterfront,5.0,Ward 6,604.0,R2,506 E Fourth St,2127.0,Address,59785.0,42.3347,-71.0449,Constituent Call,"(42.3347, -71.0449)"
555512,101001363422,04/24/2015 03:23:23 PM,08/22/2015 03:23:22 PM,,OVERDUE,Open,,Mice Infestation - Residential,Inspectional Services,Housing,Mice Infestation - Residential,ISD_Housing (INTERNAL),ISD,,,48 Brighton Ave  Allston  MA  02134,11.0,04,9.0,D14,Allston / Brighton,14.0,Ward 21,2103.0,RC,48 Brighton Ave,2134.0,Address,20140.0,42.3522,-71.1275,Constituent Call,"(42.3522, -71.1275)"
557479,101001366164,04/29/2015 08:49:23 AM,08/27/2015 08:49:23 AM,,OVERDUE,Open,,Mice Infestation - Residential,Inspectional Services,Housing,Mice Infestation - Residential,ISD_Housing (INTERNAL),ISD,,,17 Woodhaven St  Mattapan  MA  02126,8.0,07,5.0,B3,Greater Mattapan,9.0,Ward 18,1803.0,R2,17 Woodhaven St,2126.0,Address,338432.0,42.2732,-71.0949,Constituent Call,"(42.2732, -71.0949)"
557515,101001366209,04/29/2015 09:16:26 AM,08/27/2015 09:16:26 AM,,OVERDUE,Open,,Mice Infestation - Residential,Inspectional Services,Housing,Mice Infestation - Residential,ISD_Housing (INTERNAL),ISD,,,16 Charlotte St  Dorchester  MA  02121,7.0,03,4.0,B3,Greater Mattapan,8.0,Ward 14,1407.0,R4,16 Charlotte St,2121.0,Address,29873.0,42.3001,-71.0853,Constituent Call,"(42.3001, -71.0853)"
557650,101001366406,04/29/2015 11:05:43 AM,08/27/2015 11:05:43 AM,,OVERDUE,Open,,Mice Infestation - Residential,Inspectional Services,Housing,Mice Infestation - Residential,ISD_Housing (INTERNAL),ISD,,,89 Lawrence Ave  Dorchester  MA  02121,7.0,03,4.0,B2,Roxbury,13.0,Ward 14,1401.0,R3,89 Lawrence Ave,2121.0,Address,263131.0,42.3118,-71.0762,Constituent Call,"(42.3118, -71.0762)"
557823,101001366670,04/29/2015 03:04:02 PM,08/27/2015 03:04:02 PM,05/29/2015 03:13:12 PM,ONTIME,Closed,Case Closed. Closed date : 2015-05-29 15:13:12.607 :,Mice Infestation - Residential,Inspectional Services,Housing,Mice Infestation - Residential,ISD_Housing (INTERNAL),ISD,,,4 Lorraine Ter  Allston  MA  02134,11.0,04,9.0,D14,Allston / Brighton,15.0,Ward 21,2109.0,A,4 Lorraine Ter,2134.0,Address,266481.0,42.3478,-71.1389,Self Service,"(42.3478, -71.1389)"
558475,101001367611,04/30/2015 05:28:03 PM,08/28/2015 05:28:02 PM,05/26/2015 01:24:41 PM,ONTIME,Closed,Case Closed. Closed date : 2015-05-26 13:24:41.357 :,Mice Infestation - Residential,Inspectional Services,Housing,Mice Infestation - Residential,ISD_Housing (INTERNAL),ISD,,,131 Park Dr  Boston  MA  02215,4.0,10A,8.0,D4,Fenway / Kenmore / Audubon Circle / Longwood,14.0,Ward 5,502.0,CD,131 Park Dr,2215.0,Address,106714.0,42.3417,-71.0979,Constituent Call,"(42.3417, -71.0979)"
558880,101001368186,05/01/2015 01:32:18 PM,08/29/2015 01:32:17 PM,05/27/2015 01:22:47 PM,ONTIME,Closed,Case Closed. Closed date : 2015-05-27 13:22:47.41 :,Mice Infestation - Residential,Inspectional Services,Housing,Mice Infestation - Residential,ISD_Housing (INTERNAL),ISD,,,82 Stoughton St  Dorchester  MA  02125,7.0,03,3.0,C11,Dorchester,7.0,Ward 13,1306.0,A,82 Stoughton St,2125.0,Address,314707.0,42.316,-71.0624,Constituent Call,"(42.316, -71.0624)"
559628,101001369424,05/04/2015 11:09:00 AM,09/01/2015 11:09:35 AM,06/10/2015 01:37:17 PM,ONTIME,Closed,Case Closed. Closed date : 2015-06-10 13:37:17.47 :,Mice Infestation - Residential,Inspectional Services,Housing,Mice Infestation - Residential,ISD_Housing (INTERNAL),ISD,,,379 Dudley St  Roxbury  MA  02119,7.0,10B,7.0,B2,Roxbury,13.0,Ward 8,807.0,RC,379 Dudley St,2119.0,Address,226581.0,42.3262,-71.0757,Constituent Call,"(42.3262, -71.0757)"
560297,101001370407,05/05/2015 11:21:00 AM,09/02/2015 11:21:20 AM,,OVERDUE,Open,,Mice Infestation - Residential,Inspectional Services,Housing,Mice Infestation - Residential,ISD_Housing (INTERNAL),ISD,,,551 Massachusetts Ave  Roxbury  MA  02118,7.0,10B,7.0,D4,Roxbury,13.0,Ward 9,903.0,A,551 Massachusetts Ave,2118.0,Address,92374.0,42.3379,-71.0794,Self Service,"(42.3379, -71.0794)"
561087,101001371493,05/06/2015 12:25:00 PM,09/03/2015 12:25:59 PM,06/08/2015 09:21:45 AM,ONTIME,Closed,Case Closed. Closed date : 2015-06-08 09:21:45.193 :,Mice Infestation - Residential,Inspectional Services,Housing,Mice Infestation - Residential,ISD_Housing (INTERNAL),ISD,,,23 Florida St  Dorchester  MA  02124,8.0,07,3.0,C11,Dorchester,7.0,Ward 16,1604.0,R1,23 Florida St,2124.0,Address,236201.0,42.2914,-71.0602,Constituent Call,"(42.2914, -71.0602)"
561529,101001372185,05/07/2015 08:50:00 AM,09/04/2015 08:50:48 AM,,OVERDUE,Open,,Mice Infestation - Residential,Inspectional Services,Housing,Mice Infestation - Residential,ISD_Housing (INTERNAL),ISD,,,60 Hazleton St  Mattapan  MA  02126,8.0,07,4.0,B3,Mattapan,9.0,14,1408.0,,60 Hazleton St,2126.0,Address,354187.0,42.3594,-71.0587,Constituent Call,"(0, 0)"
561588,101001372277,05/07/2015 09:48:00 AM,09/04/2015 09:48:54 AM,,OVERDUE,Open,,Mice Infestation - Residential,Inspectional Services,Housing,Mice Infestation - Residential,ISD_Housing (INTERNAL),ISD,,,4 Hosmer St  Mattapan  MA  02126,8.0,07,4.0,B3,Greater Mattapan,9.0,Ward 14,1405.0,R3,4 Hosmer St,2126.0,Address,75393.0,42.2816,-71.0917,Constituent Call,"(42.2816, -71.0917)"
561731,101001372503,05/07/2015 11:38:00 AM,09/04/2015 11:38:47 AM,,OVERDUE,Open,,Mice Infestation - Residential,Inspectional Services,Housing,Mice Infestation - Residential,ISD_Housing (INTERNAL),ISD,,,1067 Blue Hill Ave  Dorchester  MA  02124,8.0,07,4.0,B3,Greater Mattapan,9.0,Ward 14,1411.0,RC,1067 Blue Hill Ave,2124.0,Address,16131.0,42.2882,-71.0905,Constituent Call,"(42.2882, -71.0905)"
562309,101001373400,05/08/2015 11:53:00 AM,09/05/2015 11:53:14 AM,06/10/2015 01:57:06 PM,ONTIME,Closed,Case Closed. Closed date : 2015-06-10 13:57:06.193 :,Mice Infestation - Residential,Inspectional Services,Housing,Mice Infestation - Residential,ISD_Housing (INTERNAL),ISD,,,19 Myrtle St  Boston  MA  02114,3.0,1B,1.0,A1,Beacon Hill,3.0,Ward 3,306.0,EA,19 Myrtle St,2114.0,Address,280456.0,42.3594,-71.0653,Constituent Call,"(42.3594, -71.0653)"
563206,101001374809,05/11/2015 01:50:00 PM,09/08/2015 01:50:15 PM,,OVERDUE,Open,,Mice Infestation - Residential,Inspectional Services,Housing,Mice Infestation - Residential,ISD_Housing (INTERNAL),ISD,,,104 Arlington St  Hyde Park  MA  02136,12.0,08,5.0,E18,Hyde Park,10.0,Ward 18,1814.0,R3,104 Arlington St,2136.0,Address,179391.0,42.2619,-71.1196,Constituent Call,"(42.2619, -71.1196)"
563703,101001375530,05/12/2015 10:47:00 AM,09/09/2015 10:47:37 AM,,OVERDUE,Open,,Mice Infestation - Residential,Inspectional Services,Housing,Mice Infestation - Residential,ISD_Housing (INTERNAL),ISD,,,545 Blue Hill Ave  Dorchester  MA  02121,9.0,10B,7.0,B2,Roxbury,13.0,Ward 12,1207.0,A,545 Blue Hill Ave,2121.0,Address,190075.0,42.3067,-71.0847,Constituent Call,"(42.3067, -71.0847)"
564172,101001376211,05/13/2015 08:10:00 AM,09/10/2015 08:10:54 AM,,OVERDUE,Open,,Mice Infestation - Residential,Inspectional Services,Housing,Mice Infestation - Residential,ISD_Housing (INTERNAL),ISD,,,783 Washington St  Dorchester  MA  02124,8.0,07,4.0,C11,Dorchester,9.0,Ward 17,1708.0,R3,783 Washington St,2124.0,Address,332655.0,42.2843,-71.0718,Constituent Call,"(42.2843, -71.0718)"
564920,101001377287,05/14/2015 09:00:00 AM,09/11/2015 09:00:49 AM,06/17/2015 08:13:53 AM,ONTIME,Closed,Case Closed. Closed date : 2015-06-17 08:13:53.553 NOVIO: No Violation Found/No Cause,Mice Infestation - Residential,Inspectional Services,Housing,Mice Infestation - Residential,ISD_Housing (INTERNAL),ISD,,,601 Shawmut Ave  Roxbury  MA  02118,4.0,10B,7.0,D4,Roxbury,13.0,09,903.0,,601 Shawmut Ave,2118.0,Address,169659.0,42.3363,-71.0816,Constituent Call,"(42.3363, -71.0816)"
565058,101001377478,05/14/2015 11:26:00 AM,09/11/2015 11:26:27 AM,05/29/2015 01:23:12 PM,ONTIME,Closed,Case Closed. Closed date : 2015-05-29 13:23:12.383 :,Mice Infestation - Residential,Inspectional Services,Housing,Mice Infestation - Residential,ISD_Housing (INTERNAL),ISD,,,3 Forbes St  Jamaica Plain  MA  02130,9.0,02,6.0,E13,Jamaica Plain,11.0,Ward 19,1901.0,R4,3 Forbes St,2130.0,Address,236415.0,42.322,-71.1084,Constituent Call,"(42.322, -71.1084)"
565089,101001377518,05/14/2015 11:58:00 AM,09/11/2015 11:58:30 AM,,OVERDUE,Open,,Mice Infestation - Residential,Inspectional Services,Housing,Mice Infestation - Residential,ISD_Housing (INTERNAL),ISD,,,62 Boylston St  Boston  MA  02116,4.0,1C,2.0,A1,Downtown / Financial District,4.0,Ward 3,308.0,RC,62 Boylston St,2116.0,Address,193377.0,42.352,-71.0644,Constituent Call,"(42.352, -71.0644)"
565892,101001378662,05/15/2015 06:15:00 PM,09/12/2015 06:15:34 PM,,OVERDUE,Open,,Mice Infestation - Residential,Inspectional Services,Housing,Mice Infestation - Residential,ISD_Housing (INTERNAL),ISD,,,136 Garfield Ave  Hyde Park  MA  02136,12.0,08,5.0,E18,Hyde Park,10.0,Ward 18,1817.0,E,136 Garfield Ave,2136.0,Address,239914.0,42.2447,-71.1182,Constituent Call,"(42.2447, -71.1182)"
566629,101001379716,05/18/2015 11:42:00 AM,09/15/2015 11:42:21 AM,,OVERDUE,Open,,Mice Infestation - Residential,Inspectional Services,Housing,Mice Infestation - Residential,ISD_Housing (INTERNAL),ISD,,,40 Lawrence Ave  Dorchester  MA  02121,7.0,03,4.0,B2,Roxbury,13.0,Ward 14,1401.0,A,40 Lawrence Ave,2121.0,Address,263066.0,42.3126,-71.0774,Constituent Call,"(42.3126, -71.0774)"
566750,101001379890,05/18/2015 01:55:00 PM,09/15/2015 01:55:09 PM,,OVERDUE,Open,,Mice Infestation - Residential,Inspectional Services,Housing,Mice Infestation - Residential,ISD_Housing (INTERNAL),ISD,,,20 Fayston St  Dorchester  MA  02121,7.0,03,7.0,B2,Roxbury,13.0,Ward 13,1301.0,R3,20 Fayston St,2121.0,Address,234059.0,42.3136,-71.0779,Constituent Call,"(42.3136, -71.0779)"
567257,101001380628,05/19/2015 11:16:00 AM,09/16/2015 11:16:42 AM,,OVERDUE,Open,,Mice Infestation - Residential,Inspectional Services,Housing,Mice Infestation - Residential,ISD_Housing (INTERNAL),ISD,,,30 Logan Way  South Boston  MA  02127,6.0,05,2.0,C6,South Boston / South Boston Waterfront,5.0,Ward 7,707.0,E,30 Logan Way,2127.0,Address,265493.0,42.3275,-71.0542,Constituent Call,"(42.3275, -71.0542)"
567321,101001380708,05/19/2015 12:42:30 PM,09/16/2015 12:42:30 PM,05/19/2015 12:47:38 PM,ONTIME,Closed,Case Closed. Closed date : 2015-05-19 12:47:38.533 Case Invalid Wrong eform.  See case no. 1380710.,Mice Infestation - Residential,Inspectional Services,Housing,Mice Infestation - Residential,ISD_Housing (INTERNAL),ISD,,,80 Annunciation Rd  Mission Hill  MA  02120,9.0,10A,7.0,B2,Mission Hill,13.0,Ward 4,409.0,E,80 Annunciation Rd,2120.0,Address,178519.0,42.3347,-71.0944,Constituent Call,"(42.3347, -71.0944)"
567336,101001380735,05/19/2015 01:10:00 PM,09/16/2015 01:10:52 PM,,OVERDUE,Open,,Mice Infestation - Residential,Inspectional Services,Housing,Mice Infestation - Residential,ISD_Housing (INTERNAL),ISD,,,750 Morton St  Dorchester  MA  02124,8.0,07,4.0,B3,Greater Mattapan,9.0,Ward 14,1413.0,A,750 Morton St,2124.0,Address,277906.0,42.284,-71.0893,Constituent Call,"(42.284, -71.0893)"
567417,101001380854,05/19/2015 03:05:00 PM,09/16/2015 03:05:27 PM,,OVERDUE,Open,,Mice Infestation - Residential,Inspectional Services,Housing,Mice Infestation - Residential,ISD_Housing (INTERNAL),ISD,,,1234 Soldiers Field Rd  Brighton  MA  02135,11.0,04,9.0,D14,Allston / Brighton,15.0,Ward 22,2205.0,C,1234 Soldiers Field Rd,2135.0,Address,128292.0,42.3637,-71.1364,Constituent Call,"(42.3637, -71.1364)"
567485,101001380965,05/19/2015 04:58:00 PM,09/16/2015 04:58:57 PM,,OVERDUE,Open,,Mice Infestation - Residential,Inspectional Services,Housing,Mice Infestation - Residential,ISD_Housing (INTERNAL),ISD,,,143 Spencer St  Dorchester  MA  02124,8.0,07,4.0,B3,Dorchester,9.0,Ward 17,1705.0,R2,143 Spencer St,2124.0,Address,313032.0,42.2921,-71.0757,Constituent Call,"(42.2921, -71.0757)"
567769,101001381419,05/20/2015 09:54:00 AM,09/17/2015 09:54:36 AM,06/09/2015 09:32:55 AM,ONTIME,Closed,Case Closed. Closed date : 2015-06-09 09:32:55.707 :,Mice Infestation - Residential,Inspectional Services,Housing,Mice Infestation - Residential,ISD_Housing (INTERNAL),ISD,,,72 Fayston St  Dorchester  MA  02121,7.0,03,7.0,B2,Roxbury,13.0,Ward 13,1301.0,R3,72 Fayston St,2121.0,Address,234119.0,42.3126,-71.0759,Constituent Call,"(42.3126, -71.0759)"
567782,101001381440,05/20/2015 10:02:00 AM,09/17/2015 10:02:53 AM,07/08/2015 02:15:05 PM,ONTIME,Closed,Case Closed. Closed date : 2015-07-08 14:15:05.763 :,Mice Infestation - Residential,Inspectional Services,Housing,Mice Infestation - Residential,ISD_Housing (INTERNAL),ISD,,,9 Victory Rd  Dorchester  MA  02122,8.0,07,3.0,C11,Dorchester,7.0,Ward 16,1605.0,A,9 Victory Rd,2122.0,Address,324989.0,42.2954,-71.0558,Constituent Call,"(42.2954, -71.0558)"
568019,101001381781,05/20/2015 02:39:00 PM,09/17/2015 02:39:21 PM,,OVERDUE,Open,,Mice Infestation - Residential,Inspectional Services,Housing,Mice Infestation - Residential,ISD_Housing (INTERNAL),ISD,,,403 Old Colony Ave  South Boston  MA  02127,6.0,05,2.0,C6,South Boston / South Boston Waterfront,5.0,Ward 7,707.0,E,403 Old Colony Ave,2127.0,Address,173973.0,42.3263,-71.0528,Constituent Call,"(42.3263, -71.0528)"
568039,101001381811,05/20/2015 02:58:00 PM,09/17/2015 02:58:51 PM,,OVERDUE,Open,,Mice Infestation - Residential,Inspectional Services,Housing,Mice Infestation - Residential,ISD_Housing (INTERNAL),ISD,,,306 Lexington St  East Boston  MA  02128,1.0,09,1.0,A7,East Boston,1.0,Ward 1,109.0,R4,306 Lexington St,2128.0,Address,264208.0,42.3811,-71.0287,Constituent Call,"(42.3811, -71.0287)"
568122,101001381920,05/20/2015 05:33:00 PM,09/17/2015 05:33:17 PM,,OVERDUE,Open,,Mice Infestation - Residential,Inspectional Services,Housing,Mice Infestation - Residential,ISD_Housing (INTERNAL),ISD,,,55-57 Traveler St  Roxbury  MA  02118,4.0,1C,2.0,D4,Roxbury,4.0,03,308.0,,55-57 Traveler St,2118.0,Address,350973.0,42.3594,-71.0587,Constituent Call,"(0, 0)"
568428,101001382393,05/21/2015 11:08:00 AM,09/18/2015 11:08:10 AM,,OVERDUE,Open,,Mice Infestation - Residential,Inspectional Services,Housing,Mice Infestation - Residential,ISD_Housing (INTERNAL),ISD,,,82 Stoughton St  Dorchester  MA  02125,7.0,03,3.0,C11,Dorchester,7.0,Ward 13,1306.0,A,82 Stoughton St,2125.0,Address,314708.0,42.316,-71.0624,Constituent Call,"(42.316, -71.0624)"
568442,101001382415,05/21/2015 11:21:00 AM,09/18/2015 11:21:46 AM,,OVERDUE,Open,,Mice Infestation - Residential,Inspectional Services,Housing,Mice Infestation - Residential,ISD_Housing (INTERNAL),ISD,,,27 Hosmer St  Mattapan  MA  02126,8.0,07,4.0,B3,Greater Mattapan,9.0,Ward 14,1414.0,CM,27 Hosmer St,2126.0,Address,75378.0,42.2807,-71.0906,Constituent Call,"(42.2807, -71.0906)"
568485,101001382497,05/21/2015 12:26:00 PM,09/18/2015 12:26:51 PM,,OVERDUE,Open,,Mice Infestation - Residential,Inspectional Services,Housing,Mice Infestation - Residential,ISD_Housing (INTERNAL),ISD,,,5 Perth St  Dorchester  MA  02121,7.0,03,7.0,B2,Roxbury,13.0,Ward 13,1301.0,A,5 Perth St,2121.0,Address,292489.0,42.3132,-71.0767,Constituent Call,"(42.3132, -71.0767)"
568521,101001382548,05/21/2015 01:24:00 PM,09/18/2015 01:24:43 PM,,OVERDUE,Open,,Mice Infestation - Residential,Inspectional Services,Housing,Mice Infestation - Residential,ISD_Housing (INTERNAL),ISD,,,403 Old Colony Ave  South Boston  MA  02127,6.0,05,2.0,C6,South Boston / South Boston Waterfront,5.0,Ward 7,707.0,E,403 Old Colony Ave,2127.0,Address,286537.0,42.3263,-71.0528,Constituent Call,"(42.3263, -71.0528)"
568830,101001383046,05/22/2015 09:26:00 AM,09/19/2015 09:26:52 AM,,OVERDUE,Open,,Mice Infestation - Residential,Inspectional Services,Housing,Mice Infestation - Residential,ISD_Housing (INTERNAL),ISD,,,281 Roxbury St  Roxbury  MA  02119,7.0,10B,7.0,B2,Roxbury,13.0,Ward 9,905.0,EA,281 Roxbury St,2119.0,Address,301820.0,42.3304,-71.094,Constituent Call,"(42.3304, -71.094)"
568850,101001383079,05/22/2015 09:48:00 AM,09/19/2015 09:48:06 AM,,OVERDUE,Open,,Mice Infestation - Residential,Inspectional Services,Housing,Mice Infestation - Residential,ISD_Housing (INTERNAL),ISD,,,393 Talbot Ave  Dorchester  MA  02124,8.0,07,4.0,C11,Dorchester,8.0,Ward 17,1706.0,R3,393 Talbot Ave,2124.0,Address,317752.0,42.2897,-71.0695,Constituent Call,"(42.2897, -71.0695)"
568930,101001383198,05/22/2015 11:15:00 AM,09/19/2015 11:15:58 AM,,OVERDUE,Open,,Mice Infestation - Residential,Inspectional Services,Housing,Mice Infestation - Residential,ISD_Housing (INTERNAL),ISD,,,116 Ballou Ave  Dorchester  MA  02124,8.0,07,4.0,B3,Greater Mattapan,9.0,Ward 14,1413.0,R2,116 Ballou Ave,2124.0,Address,181984.0,42.2846,-71.0833,Constituent Call,"(42.2846, -71.0833)"
568933,101001383201,05/22/2015 11:18:00 AM,09/19/2015 11:18:33 AM,,OVERDUE,Open,,Mice Infestation - Residential,Inspectional Services,Housing,Mice Infestation - Residential,ISD_Housing (INTERNAL),ISD,,,200 Faywood Ave  East Boston  MA  02128,1.0,09,1.0,A7,East Boston,1.0,Ward 1,114.0,E,200 Faywood Ave,2128.0,Address,234263.0,42.392,-71.0089,Constituent Call,"(42.392, -71.0089)"
569027,101001393343,05/22/2015 01:33:00 PM,09/19/2015 01:33:31 PM,,OVERDUE,Open,,Mice Infestation - Residential,Inspectional Services,Housing,Mice Infestation - Residential,ISD_Housing (INTERNAL),ISD,,,30 Browning Ave  Dorchester  MA  02124,8.0,03,4.0,B3,Greater Mattapan,8.0,Ward 14,1402.0,CM,30 Browning Ave,2124.0,Address,22794.0,42.2939,-71.082,Constituent Call,"(42.2939, -71.082)"
569992,101001394803,05/26/2015 11:53:00 AM,09/23/2015 11:53:13 AM,,OVERDUE,Open,,Mice Infestation - Residential,Inspectional Services,Housing,Mice Infestation - Residential,ISD_Housing (INTERNAL),ISD,,,30 Courtland Rd  Mattapan  MA  02126,8.0,07,4.0,B3,Greater Mattapan,9.0,Ward 14,1414.0,R3,30 Courtland Rd,2126.0,Address,220002.0,42.286,-71.0957,Constituent Call,"(42.286, -71.0957)"
570138,101001395001,05/26/2015 02:22:00 PM,09/23/2015 02:22:10 PM,,OVERDUE,Open,,Mice Infestation - Residential,Inspectional Services,Housing,Mice Infestation - Residential,ISD_Housing (INTERNAL),ISD,,,29 Southern Ave  Dorchester  MA  02124,8.0,07,4.0,B3,Dorchester,9.0,Ward 17,1703.0,R3,29 Southern Ave,2124.0,Address,312792.0,42.2908,-71.0732,Constituent Call,"(42.2908, -71.0732)"
570717,101001395791,05/27/2015 11:10:00 AM,09/24/2015 11:10:12 AM,,OVERDUE,Open,,Mice Infestation - Residential,Inspectional Services,Housing,Mice Infestation - Residential,ISD_Housing (INTERNAL),ISD,,,341 Norfolk St  Dorchester  MA  02124,8.0,07,4.0,B3,Greater Mattapan,9.0,Ward 14,1413.0,R3,341 Norfolk St,2124.0,Address,283706.0,42.2832,-71.0845,Constituent Call,"(42.2832, -71.0845)"
570726,101001395802,05/27/2015 11:15:00 AM,09/24/2015 11:15:50 AM,,OVERDUE,Open,,Mice Infestation - Residential,Inspectional Services,Housing,Mice Infestation - Residential,ISD_Housing (INTERNAL),ISD,,,61 Devon St  Dorchester  MA  02121,7.0,03,4.0,B2,Roxbury,13.0,Ward 14,1401.0,A,61 Devon St,2121.0,Address,223871.0,42.31,-71.0802,Constituent Call,"(42.31, -71.0802)"
572024,101001397686,05/29/2015 09:15:00 AM,09/26/2015 09:15:49 AM,07/21/2015 11:18:22 AM,ONTIME,Closed,Case Closed. Closed date : 2015-07-21 11:18:22.873 NOVIO: No Violation Found/No Cause,Mice Infestation - Residential,Inspectional Services,Housing,Mice Infestation - Residential,ISD_Housing (INTERNAL),ISD,,,141 W Ninth St  South Boston  MA  02127,6.0,05,2.0,C6,South Boston / South Boston Waterfront,5.0,Ward 7,705.0,R3,141 W Ninth St,2127.0,Address,102850.0,42.3344,-71.0541,Constituent Call,"(42.3344, -71.0541)"
572264,101001397952,05/29/2015 10:21:00 AM,09/26/2015 10:21:05 AM,10/26/2015 11:52:40 AM,OVERDUE,Closed,Case Closed. Closed date : 2015-10-26 11:52:40.16 VIOCOR: Violation Corrected,Mice Infestation - Residential,Inspectional Services,Housing,Mice Infestation - Residential,ISD_Housing (INTERNAL),ISD,,,837 Cummins Hwy  Mattapan  MA  02126,8.0,08,4.0,E18,Greater Mattapan,9.0,Ward 18,1804.0,R3,837 Cummins Hwy,2126.0,Address,45018.0,42.2693,-71.097,Constituent Call,"(42.2693, -71.097)"
574063,101001400563,06/02/2015 11:12:00 AM,09/30/2015 11:12:22 AM,06/12/2015 10:21:35 AM,ONTIME,Closed,Case Closed. Closed date : 2015-06-12 10:21:35.873 ADCLSD: Administratively Closed,Mice Infestation - Residential,Inspectional Services,Housing,Mice Infestation - Residential,ISD_Housing (INTERNAL),ISD,,,102 Elm Hill Ave  Dorchester  MA  02121,9.0,10B,7.0,B2,Roxbury,13.0,Ward 12,1207.0,A,102 Elm Hill Ave,2121.0,Address,229576.0,42.3091,-71.0875,Constituent Call,"(42.3091, -71.0875)"
574236,101001400828,06/02/2015 02:52:00 PM,09/30/2015 02:52:27 PM,06/12/2015 09:30:43 AM,ONTIME,Closed,Case Closed. Closed date : 2015-06-12 09:30:43.453 TFA: Tenant Failed Apt\Was Not Home,Mice Infestation - Residential,Inspectional Services,Housing,Mice Infestation - Residential,ISD_Housing (INTERNAL),ISD,,,421 Quincy St  Dorchester  MA  02125,7.0,03,3.0,C11,Dorchester,8.0,Ward 15,1503.0,R3,421 Quincy St,2125.0,Address,114086.0,42.3099,-71.0676,Self Service,"(42.3099, -71.0676)"
574244,101001400839,06/02/2015 02:57:00 PM,09/30/2015 02:57:32 PM,06/18/2015 10:16:04 AM,ONTIME,Closed,Case Closed. Closed date : 2015-06-18 10:16:04.997 :,Mice Infestation - Residential,Inspectional Services,Housing,Mice Infestation - Residential,ISD_Housing (INTERNAL),ISD,,,570 Warren St  Dorchester  MA  02121,9.0,10B,7.0,B2,Roxbury,13.0,Ward 12,1202.0,A,570 Warren St,2121.0,Address,143310.0,42.3124,-71.0827,Constituent Call,"(42.3124, -71.0827)"
574279,101001400905,06/02/2015 03:54:00 PM,09/30/2015 03:54:48 PM,06/12/2015 10:19:31 AM,ONTIME,Closed,Case Closed. Closed date : 2015-06-12 10:19:31.41 ADCLSD: Administratively Closed,Mice Infestation - Residential,Inspectional Services,Housing,Mice Infestation - Residential,ISD_Housing (INTERNAL),ISD,,,175 Maverick St  East Boston  MA  02128,1.0,09,1.0,A7,East Boston,1.0,Ward 1,103.0,RC,175 Maverick St,2128.0,Address,272594.0,42.3693,-71.0373,Constituent Call,"(42.3693, -71.0373)"
574718,101001401597,06/03/2015 11:50:00 AM,10/01/2015 11:50:31 AM,06/12/2015 09:23:13 AM,ONTIME,Closed,Case Closed. Closed date : 2015-06-12 09:23:13.873 ADCLSD: Administratively Closed,Mice Infestation - Residential,Inspectional Services,Housing,Mice Infestation - Residential,ISD_Housing (INTERNAL),ISD,,,6 Woodward Park St  Dorchester  MA  02125,7.0,03,7.0,B2,Roxbury,13.0,Ward 13,1302.0,R3,6 Woodward Park St,2125.0,Address,338943.0,42.3183,-71.0725,Constituent Call,"(42.3183, -71.0725)"
575290,101001402441,06/04/2015 11:30:00 AM,10/02/2015 11:30:00 AM,,OVERDUE,Open,,Mice Infestation - Residential,Inspectional Services,Housing,Mice Infestation - Residential,ISD_Housing (INTERNAL),ISD,,,601 Shawmut Ave  Roxbury  MA  02118,4.0,10B,7.0,D4,Roxbury,13.0,09,903.0,,601 Shawmut Ave,2118.0,Address,169659.0,42.3363,-71.0816,Constituent Call,"(42.3363, -71.0816)"
575516,101001402745,06/04/2015 03:18:00 PM,10/02/2015 03:18:28 PM,,OVERDUE,Open,,Mice Infestation - Residential,Inspectional Services,Housing,Mice Infestation - Residential,ISD_Housing (INTERNAL),ISD,,,175 Maverick St  East Boston  MA  02128,1.0,09,1.0,A7,East Boston,1.0,Ward 1,103.0,RC,175 Maverick St,2128.0,Address,272593.0,42.3693,-71.0373,Constituent Call,"(42.3693, -71.0373)"
575644,101001402898,06/04/2015 05:36:00 PM,10/02/2015 05:36:58 PM,06/05/2015 01:37:22 PM,ONTIME,Closed,Case Closed. Closed date : 2015-06-05 13:37:22.513 ADCLSD: Administratively Closed,Mice Infestation - Residential,Inspectional Services,Housing,Mice Infestation - Residential,ISD_Housing (INTERNAL),ISD,,,135 Neponset Ave  Dorchester  MA  02122,8.0,07,3.0,C11,Dorchester,7.0,Ward 16,1605.0,CM,135 Neponset Ave,2122.0,Address,100740.0,42.2938,-71.052,Constituent Call,"(42.2938, -71.052)"
575824,101001403195,06/05/2015 10:00:00 AM,10/03/2015 10:00:31 AM,,OVERDUE,Open,,Mice Infestation - Residential,Inspectional Services,Housing,Mice Infestation - Residential,ISD_Housing (INTERNAL),ISD,,,15 Centervale Park  Dorchester  MA  02124,8.0,07,4.0,C11,Dorchester,9.0,Ward 17,1703.0,R2,15 Centervale Park,2124.0,Address,27256.0,42.2963,-71.063,Constituent Call,"(42.2963, -71.063)"
576583,101001404358,06/08/2015 08:32:00 AM,10/06/2015 08:32:16 AM,06/18/2015 09:00:51 AM,ONTIME,Closed,Case Closed. Closed date : 2015-06-18 09:00:51.44 :,Mice Infestation - Residential,Inspectional Services,Housing,Mice Infestation - Residential,ISD_Housing (INTERNAL),ISD,,,1427 Commonwealth Ave  Allston  MA  02134,11.0,04,9.0,D14,Allston / Brighton,15.0,Ward 21,2106.0,CD,1427 Commonwealth Ave,2134.0,Address,37647.0,42.3492,-71.1396,Constituent Call,"(42.3492, -71.1396)"
576780,101001404664,06/08/2015 11:37:00 AM,10/06/2015 11:37:49 AM,,OVERDUE,Open,,Mice Infestation - Residential,Inspectional Services,Housing,Mice Infestation - Residential,ISD_Housing (INTERNAL),ISD,,,791 Columbia Rd  Dorchester  MA  02125,7.0,03,2.0,C11,Dorchester,5.0,Ward 7,709.0,R3,791 Columbia Rd,2125.0,Address,211272.0,42.3201,-71.0574,Constituent Call,"(42.3201, -71.0574)"
576827,101001404735,06/08/2015 12:29:00 PM,10/06/2015 12:29:58 PM,,OVERDUE,Open,,Mice Infestation - Residential,Inspectional Services,Housing,Mice Infestation - Residential,ISD_Housing (INTERNAL),ISD,,,421 Quincy St  Dorchester  MA  02125,7.0,03,3.0,C11,Dorchester,8.0,Ward 15,1503.0,R3,421 Quincy St,2125.0,Address,297164.0,42.3099,-71.0676,Constituent Call,"(42.3099, -71.0676)"
577298,101001405450,06/09/2015 09:18:00 AM,10/07/2015 09:18:04 AM,,OVERDUE,Open,,Mice Infestation - Residential,Inspectional Services,Housing,Mice Infestation - Residential,ISD_Housing (INTERNAL),ISD,,,1220 Adams St  Dorchester  MA  02124,8.0,07,3.0,C11,Dorchester,7.0,Ward 17,1713.0,RC,1220 Adams St,2124.0,Address,175414.0,42.2718,-71.0674,Constituent Call,"(42.2718, -71.0674)"
577317,101001405477,06/09/2015 09:34:00 AM,10/07/2015 09:34:01 AM,,OVERDUE,Open,,Mice Infestation - Residential,Inspectional Services,Housing,Mice Infestation - Residential,ISD_Housing (INTERNAL),ISD,,,97 Condor St  East Boston  MA  02128,1.0,09,1.0,A7,East Boston,1.0,Ward 1,108.0,R2,97 Condor St,2128.0,Address,218214.0,42.3825,-71.0366,Constituent Call,"(42.3825, -71.0366)"
577421,101001405617,06/09/2015 10:42:00 AM,10/07/2015 10:42:29 AM,,OVERDUE,Open,,Mice Infestation - Residential,Inspectional Services,Housing,Mice Infestation - Residential,ISD_Housing (INTERNAL),ISD,,,27 Edison Grn  Dorchester  MA  02125,7.0,03,2.0,C11,Dorchester,5.0,Ward 7,709.0,R3,27 Edison Grn,2125.0,Address,51272.0,42.3196,-71.0581,Constituent Call,"(42.3196, -71.0581)"
577457,101001405664,06/09/2015 11:24:00 AM,10/07/2015 11:24:27 AM,,OVERDUE,Open,,Mice Infestation - Residential,Inspectional Services,Housing,Mice Infestation - Residential,ISD_Housing (INTERNAL),ISD,,,104 Lucerne St  Dorchester  MA  02124,8.0,07,4.0,B3,Greater Mattapan,9.0,Ward 14,1412.0,R3,104 Lucerne St,2124.0,Address,266752.0,42.2859,-71.0886,Constituent Call,"(42.2859, -71.0886)"
577473,101001405684,06/09/2015 11:38:00 AM,10/07/2015 11:38:30 AM,,OVERDUE,Open,,Mice Infestation - Residential,Inspectional Services,Housing,Mice Infestation - Residential,ISD_Housing (INTERNAL),ISD,,,4 Train St  Dorchester  MA  02122,8.0,07,3.0,C11,Dorchester,7.0,Ward 16,1605.0,R3,4 Train St,2122.0,Address,320114.0,42.2957,-71.0552,Constituent Call,"(42.2957, -71.0552)"
577925,101001406319,06/10/2015 08:36:00 AM,10/08/2015 08:36:46 AM,06/29/2015 02:27:54 PM,ONTIME,Closed,Case Closed. Closed date : 2015-06-29 14:27:54.4 :,Mice Infestation - Residential,Inspectional Services,Housing,Mice Infestation - Residential,ISD_Housing (INTERNAL),ISD,,,16 Woodbine St  Roxbury  MA  02119,9.0,10B,7.0,B2,Roxbury,13.0,Ward 12,1204.0,R2,16 Woodbine St,2119.0,Address,338127.0,42.3195,-71.0803,Constituent Call,"(42.3195, -71.0803)"
577956,101001406385,06/10/2015 09:02:00 AM,10/08/2015 09:02:30 AM,06/12/2015 09:27:22 AM,ONTIME,Closed,Case Closed. Closed date : 2015-06-12 09:27:22.523 ADCLSD: Administratively Closed,Mice Infestation - Residential,Inspectional Services,Housing,Mice Infestation - Residential,ISD_Housing (INTERNAL),ISD,,,3110 Washington St  Roxbury  MA  02119,9.0,02,7.0,E13,Jamaica Plain,11.0,Ward 11,1105.0,RC,3110 Washington St,2119.0,Address,331038.0,42.3148,-71.099,Constituent Call,"(42.3148, -71.099)"
578492,101001407193,06/11/2015 08:36:00 AM,10/09/2015 08:36:08 AM,,OVERDUE,Open,,Mice Infestation - Residential,Inspectional Services,Housing,Mice Infestation - Residential,ISD_Housing (INTERNAL),ISD,,,24 Winter St  Dorchester  MA  02122,7.0,03,3.0,C11,Dorchester,8.0,Ward 15,1504.0,R3,24 Winter St,2122.0,Address,337723.0,42.3094,-71.0624,Constituent Call,"(42.3094, -71.0624)"
578541,101001407284,06/11/2015 09:25:00 AM,10/09/2015 09:25:29 AM,06/12/2015 09:21:15 AM,ONTIME,Closed,Case Closed. Closed date : 2015-06-12 09:21:15.43 ADCLSD: Administratively Closed,Mice Infestation - Residential,Inspectional Services,Housing,Mice Infestation - Residential,ISD_Housing (INTERNAL),ISD,,,1990 Columbus Ave  Roxbury  MA  02119,9.0,10B,7.0,E13,Roxbury,11.0,Ward 11,1105.0,E,1990 Columbus Ave,2119.0,Address,211465.0,42.3153,-71.0972,Constituent Call,"(42.3153, -71.0972)"
579026,101001408018,06/11/2015 11:37:00 PM,10/09/2015 11:37:56 PM,,OVERDUE,Open,,Mice Infestation - Residential,Inspectional Services,Housing,Mice Infestation - Residential,ISD_Housing (INTERNAL),ISD,,,421 Quincy St  Dorchester  MA  02125,7.0,03,3.0,C11,Dorchester,8.0,Ward 15,1503.0,R3,421 Quincy St,2125.0,Address,114086.0,42.3099,-71.0676,Self Service,"(42.3099, -71.0676)"
579450,101001408649,06/12/2015 03:15:00 PM,10/10/2015 03:15:47 PM,06/29/2015 02:23:26 PM,ONTIME,Closed,Case Closed. Closed date : 2015-06-29 14:23:26.953 :,Mice Infestation - Residential,Inspectional Services,Housing,Mice Infestation - Residential,ISD_Housing (INTERNAL),ISD,,,7 Winthrop St  Roxbury  MA  02119,7.0,10B,7.0,B2,Roxbury,13.0,Ward 12,1201.0,R4,7 Winthrop St,2119.0,Address,337843.0,42.3264,-71.0826,Constituent Call,"(42.3264, -71.0826)"
579467,101001408685,06/12/2015 03:40:00 PM,10/10/2015 03:40:56 PM,07/14/2015 02:25:15 PM,ONTIME,Closed,Case Closed. Closed date : 2015-07-14 14:25:15.483 :,Mice Infestation - Residential,Inspectional Services,Housing,Mice Infestation - Residential,ISD_Housing (INTERNAL),ISD,,,125 Elm Hill Ave  Dorchester  MA  02121,9.0,10B,7.0,B2,Roxbury,13.0,Ward 12,1207.0,E,125 Elm Hill Ave,2121.0,Address,229663.0,42.3083,-71.0888,Constituent Call,"(42.3083, -71.0888)"
580071,101001409601,06/15/2015 09:30:00 AM,10/13/2015 09:30:22 AM,,OVERDUE,Open,,Mice Infestation - Residential,Inspectional Services,Housing,Mice Infestation - Residential,ISD_Housing (INTERNAL),ISD,,,42 Greenwood St  Dorchester  MA  02121,7.0,03,4.0,B3,Greater Mattapan,8.0,Ward 14,1402.0,R3,42 Greenwood St,2121.0,Address,244067.0,42.3006,-71.0797,Constituent Call,"(42.3006, -71.0797)"
580146,101001409700,06/15/2015 10:44:00 AM,10/13/2015 10:44:02 AM,08/13/2015 11:47:12 AM,ONTIME,Closed,Case Closed. Closed date : 2015-08-13 11:47:12.047 :,Mice Infestation - Residential,Inspectional Services,Housing,Mice Infestation - Residential,ISD_Housing (INTERNAL),ISD,,,447 Walnut Ave  Jamaica Plain  MA  02130,9.0,02,7.0,E13,Jamaica Plain,11.0,Ward 11,1105.0,R2,447 Walnut Ave,2130.0,Address,141959.0,42.3121,-71.0975,Constituent Call,"(42.3121, -71.0975)"
580610,101001410420,06/16/2015 10:02:00 AM,10/14/2015 10:02:26 AM,,OVERDUE,Open,,Mice Infestation - Residential,Inspectional Services,Housing,Mice Infestation - Residential,ISD_Housing (INTERNAL),ISD,,,578 Hyde Park Ave  Roslindale  MA  02131,12.0,02,5.0,E18,Roslindale,10.0,Ward 18,1807.0,R3,578 Hyde Park Ave,2131.0,Address,257928.0,42.2807,-71.1186,Constituent Call,"(42.2807, -71.1186)"
580723,101001410577,06/16/2015 11:36:00 AM,10/14/2015 11:36:51 AM,,OVERDUE,Open,,Mice Infestation - Residential,Inspectional Services,Housing,Mice Infestation - Residential,ISD_Housing (INTERNAL),ISD,,,55 Sturbridge St  Mattapan  MA  02126,8.0,07,3.0,B3,Dorchester,7.0,Ward 17,1714.0,R3,55 Sturbridge St,2126.0,Address,315319.0,42.2732,-71.0745,Constituent Call,"(42.2732, -71.0745)"
580814,101001410710,06/16/2015 01:10:00 PM,10/14/2015 01:10:28 PM,06/29/2015 10:02:28 AM,ONTIME,Closed,Case Closed. Closed date : 2015-06-29 10:02:28.277 :,Mice Infestation - Residential,Inspectional Services,Housing,Mice Infestation - Residential,ISD_Housing (INTERNAL),ISD,,,1122 Commonwealth Ave  Allston  MA  02134,,04,9.0,D14,Allston / Brighton,14.0,Ward 21,2103.0,A,1122 Commonwealth Ave,2134.0,Address,213205.0,42.3509,-71.1255,Constituent Call,"(42.3509, -71.1255)"
582177,101001412766,06/18/2015 04:04:00 PM,10/16/2015 04:04:53 PM,,OVERDUE,Open,,Mice Infestation - Residential,Inspectional Services,Housing,Mice Infestation - Residential,ISD_Housing (INTERNAL),ISD,,,127 Arlington St  Hyde Park  MA  02136,12.0,08,5.0,E18,Hyde Park,10.0,Ward 18,1814.0,R2,127 Arlington St,2136.0,Address,179407.0,42.2628,-71.1211,Constituent Call,"(42.2628, -71.1211)"
582465,101001413225,06/19/2015 10:36:00 AM,10/17/2015 10:36:51 AM,06/22/2015 01:30:26 PM,ONTIME,Closed,Case Closed. Closed date : 2015-06-22 13:30:26.69 VIOISS: Violation Filed,Mice Infestation - Residential,Inspectional Services,Housing,Mice Infestation - Residential,ISD_Housing (INTERNAL),ISD,,,1 Annapolis St  Dorchester  MA  02125,7.0,03,3.0,C11,Dorchester,7.0,Ward 13,1306.0,R3,1 Annapolis St,2125.0,Address,3676.0,42.3173,-71.062,Self Service,"(42.3173, -71.062)"
582480,101001413247,06/19/2015 10:49:00 AM,10/17/2015 10:49:07 AM,09/14/2015 11:17:38 AM,ONTIME,Closed,Case Closed. Closed date : 2015-09-14 11:17:38.763 VIOLFND: Violation Found,Mice Infestation - Residential,Inspectional Services,Housing,Mice Infestation - Residential,ISD_Housing (INTERNAL),ISD,,,143 Spencer St  Dorchester  MA  02124,8.0,07,4.0,B3,Dorchester,9.0,Ward 17,1705.0,R2,143 Spencer St,2124.0,Address,313032.0,42.2921,-71.0757,Constituent Call,"(42.2921, -71.0757)"
582644,101001413506,06/19/2015 02:39:00 PM,10/17/2015 02:39:54 PM,,OVERDUE,Open,,Mice Infestation - Residential,Inspectional Services,Housing,Mice Infestation - Residential,ISD_Housing (INTERNAL),ISD,,,19 Topliff St  Dorchester  MA  02122,7.0,03,4.0,C11,Dorchester,8.0,Ward 15,1502.0,R3,19 Topliff St,2122.0,Address,319725.0,42.304,-71.0687,Constituent Call,"(42.304, -71.0687)"
583447,101001414634,06/22/2015 10:46:00 AM,10/20/2015 10:46:23 AM,06/22/2015 11:19:33 AM,ONTIME,Closed,Case Closed. Closed date : 2015-06-22 11:19:33.637 :,Mice Infestation - Residential,Inspectional Services,Housing,Mice Infestation - Residential,ISD_Housing (INTERNAL),ISD,,,69 Harvard Ave  Allston  MA  02134,11.0,04,9.0,D14,Allston / Brighton,15.0,Ward 21,2104.0,A,69 Harvard Ave,2134.0,Address,248481.0,42.3539,-71.1325,Constituent Call,"(42.3539, -71.1325)"
584204,101001415705,06/23/2015 11:58:00 AM,10/21/2015 11:58:36 AM,06/23/2015 03:35:34 PM,ONTIME,Closed,Case Closed. Closed date : 2015-06-23 15:35:34.493 :,Mice Infestation - Residential,Inspectional Services,Housing,Mice Infestation - Residential,ISD_Housing (INTERNAL),ISD,,,768 Morton St  Dorchester  MA  02124,8.0,07,4.0,B3,Greater Mattapan,9.0,Ward 14,1405.0,R2,768 Morton St,2124.0,Address,277932.0,42.2833,-71.0888,Constituent Call,"(42.2833, -71.0888)"
584747,101001416489,06/24/2015 11:24:00 AM,10/22/2015 11:24:44 AM,06/30/2015 10:15:22 AM,ONTIME,Closed,Case Closed. Closed date : 2015-06-30 10:15:22.93 :,Mice Infestation - Residential,Inspectional Services,Housing,Mice Infestation - Residential,ISD_Housing (INTERNAL),ISD,,,62 Torrey St  Dorchester  MA  02124,8.0,07,4.0,B3,Dorchester,9.0,Ward 17,1708.0,R3,62 Torrey St,2124.0,Address,319871.0,42.287,-71.0741,Constituent Call,"(42.287, -71.0741)"
584925,101001416740,06/24/2015 03:31:00 PM,10/22/2015 03:31:10 PM,,OVERDUE,Open,,Mice Infestation - Residential,Inspectional Services,Housing,Mice Infestation - Residential,ISD_Housing (INTERNAL),ISD,,,146 Lexington St  East Boston  MA  02128,1.0,09,1.0,A7,East Boston,1.0,Ward 1,107.0,R3,146 Lexington St,2128.0,Address,263914.0,42.379,-71.0346,Constituent Call,"(42.379, -71.0346)"
585239,101001417240,06/25/2015 11:10:00 AM,10/23/2015 11:10:53 AM,,OVERDUE,Open,,Mice Infestation - Residential,Inspectional Services,Housing,Mice Infestation - Residential,ISD_Housing (INTERNAL),ISD,,,151 E Cottage St  Dorchester  MA  02125,7.0,03,7.0,B2,Dorchester,13.0,Ward 7,710.0,R3,151 E Cottage St,2125.0,Address,219732.0,42.3208,-71.0631,Self Service,"(42.3208, -71.0631)"
585240,101001417241,06/25/2015 11:11:00 AM,10/23/2015 11:11:47 AM,07/23/2015 11:53:18 AM,ONTIME,Closed,Case Closed. Closed date : 2015-07-23 11:53:18.493 :,Mice Infestation - Residential,Inspectional Services,Housing,Mice Infestation - Residential,ISD_Housing (INTERNAL),ISD,,,447 Walnut Ave  Jamaica Plain  MA  02130,9.0,02,7.0,E13,Jamaica Plain,11.0,Ward 11,1105.0,R2,447 Walnut Ave,2130.0,Address,141959.0,42.3121,-71.0975,Constituent Call,"(42.3121, -71.0975)"
585360,101001417424,06/25/2015 02:30:00 PM,10/23/2015 02:30:40 PM,06/26/2015 10:55:00 AM,ONTIME,Closed,Case Closed. Closed date : 2015-06-26 10:55:00.053 :,Mice Infestation - Residential,Inspectional Services,Housing,Mice Infestation - Residential,ISD_Housing (INTERNAL),ISD,,,11 Leston St  Mattapan  MA  02126,8.0,07,4.0,B3,Greater Mattapan,9.0,Ward 14,1405.0,R3,11 Leston St,2126.0,Address,263732.0,42.2833,-71.0903,Constituent Call,"(42.2833, -71.0903)"
585641,101001417887,06/26/2015 09:28:00 AM,10/24/2015 09:28:04 AM,,OVERDUE,Open,,Mice Infestation - Residential,Inspectional Services,Housing,Mice Infestation - Residential,ISD_Housing (INTERNAL),ISD,,,116 Ballou Ave  Dorchester  MA  02124,8.0,07,4.0,B3,Greater Mattapan,9.0,Ward 14,1413.0,R2,116 Ballou Ave,2124.0,Address,181984.0,42.2846,-71.0833,Constituent Call,"(42.2846, -71.0833)"
585739,101001418040,06/26/2015 11:21:00 AM,10/24/2015 11:21:51 AM,,OVERDUE,Open,,Mice Infestation - Residential,Inspectional Services,Housing,Mice Infestation - Residential,ISD_Housing (INTERNAL),ISD,,,447 Walnut Ave  Jamaica Plain  MA  02130,9.0,02,7.0,E13,Jamaica Plain,11.0,Ward 11,1105.0,R2,447 Walnut Ave,2130.0,Address,141959.0,42.3121,-71.0975,Self Service,"(42.3121, -71.0975)"
585753,101001418059,06/26/2015 11:48:00 AM,10/24/2015 11:48:30 AM,,OVERDUE,Open,,Mice Infestation - Residential,Inspectional Services,Housing,Mice Infestation - Residential,ISD_Housing (INTERNAL),ISD,,,58 Norton St  Dorchester  MA  02125,7.0,03,4.0,C11,Dorchester,8.0,Ward 15,1502.0,R3,58 Norton St,2125.0,Address,285088.0,42.306,-71.0681,Constituent Call,"(42.306, -71.0681)"
585940,101001418323,06/26/2015 03:00:00 PM,10/24/2015 03:00:02 PM,07/30/2015 02:00:05 PM,ONTIME,Closed,Case Closed. Closed date : 2015-07-30 14:00:05.723 :,Mice Infestation - Residential,Inspectional Services,Housing,Mice Infestation - Residential,ISD_Housing (INTERNAL),ISD,,,112 Magnolia St  Dorchester  MA  02125,7.0,03,7.0,B2,Roxbury,13.0,Ward 13,1304.0,A,112 Magnolia St,2125.0,Address,88254.0,42.3146,-71.0713,Constituent Call,"(42.3146, -71.0713)"
585956,101001418346,06/26/2015 03:26:00 PM,10/24/2015 03:26:11 PM,,OVERDUE,Open,,Mice Infestation - Residential,Inspectional Services,Housing,Mice Infestation - Residential,ISD_Housing (INTERNAL),ISD,,,961 Blue Hill Ave  Dorchester  MA  02124,8.0,07,4.0,B3,Greater Mattapan,9.0,Ward 14,1411.0,A,961 Blue Hill Ave,2124.0,Address,190380.0,42.2916,-71.0894,Constituent Call,"(42.2916, -71.0894)"
586468,101001419098,06/29/2015 08:03:00 AM,10/27/2015 08:03:25 AM,06/30/2015 02:42:13 PM,ONTIME,Closed,Case Closed. Closed date : 2015-06-30 14:42:13.467 :,Mice Infestation - Residential,Inspectional Services,Housing,Mice Infestation - Residential,ISD_Housing (INTERNAL),ISD,,,157 Cowper St  East Boston  MA  02128,1.0,09,1.0,A7,East Boston,1.0,Ward 1,112.0,R1,157 Cowper St,2128.0,Address,43931.0,42.3817,-71.014,Constituent Call,"(42.3817, -71.014)"
586615,101001419296,06/29/2015 10:11:00 AM,10/27/2015 10:11:18 AM,,OVERDUE,Open,,Mice Infestation - Residential,Inspectional Services,Housing,Mice Infestation - Residential,ISD_Housing (INTERNAL),ISD,,,27 Hosmer St  Mattapan  MA  02126,8.0,07,4.0,B3,Greater Mattapan,9.0,Ward 14,1414.0,CD,27 Hosmer St,2126.0,Address,75383.0,42.2807,-71.0906,Constituent Call,"(42.2807, -71.0906)"
586783,101001419531,06/29/2015 12:32:00 PM,10/27/2015 12:32:18 PM,,OVERDUE,Open,,Mice Infestation - Residential,Inspectional Services,Housing,Mice Infestation - Residential,ISD_Housing (INTERNAL),ISD,,,16 Yarmouth St  Boston  MA  02116,4.0,1C,2.0,D4,Boston,6.0,04,402.0,R4,16 Yarmouth St,2116.0,Address,339904.0,42.3458,-71.0768,Constituent Call,"(42.3458, -71.0768)"
586902,101001419693,06/29/2015 02:24:00 PM,10/27/2015 02:24:49 PM,07/30/2015 10:43:33 AM,ONTIME,Closed,Case Closed. Closed date : 2015-07-30 10:43:33.37 :,Mice Infestation - Residential,Inspectional Services,Housing,Mice Infestation - Residential,ISD_Housing (INTERNAL),ISD,,,54 Holworthy St  Dorchester  MA  02121,9.0,10B,7.0,B2,Roxbury,13.0,Ward 12,1202.0,A,54 Holworthy St,2121.0,Address,252770.0,42.3161,-71.089,Constituent Call,"(42.3161, -71.089)"
587101,101001419993,06/29/2015 11:43:00 PM,10/27/2015 11:43:41 PM,06/30/2015 03:41:56 PM,ONTIME,Closed,Case Closed. Closed date : 2015-06-30 15:41:56.487 Case Invalid Constituent reports that the rats are not in her apartment they are outside.  Putting in a new case for this.,Mice Infestation - Residential,Inspectional Services,Housing,Mice Infestation - Residential,ISD_Housing (INTERNAL),ISD,,,233 Beacon St  Boston  MA  02116,4.0,1C,8.0,D4,Back Bay,14.0,Ward 5,507.0,A,233 Beacon St,2116.0,Address,183889.0,42.3537,-71.078,Self Service,"(42.3537, -71.078)"
587413,101001420414,06/30/2015 11:35:00 AM,10/28/2015 11:35:11 AM,,OVERDUE,Open,,Mice Infestation - Residential,Inspectional Services,Housing,Mice Infestation - Residential,ISD_Housing (INTERNAL),ISD,,,59 Oldfields Rd  Dorchester  MA  02121,7.0,03,4.0,B2,Roxbury,13.0,Ward 14,1401.0,R2,59 Oldfields Rd,2121.0,Address,105225.0,42.3086,-71.0801,Constituent Call,"(42.3086, -71.0801)"
588514,101001421936,07/02/2015 08:52:00 AM,10/30/2015 08:52:48 AM,08/11/2015 02:18:05 PM,ONTIME,Closed,Case Closed. Closed date : 2015-08-11 14:18:05.12 :,Mice Infestation - Residential,Inspectional Services,Housing,Mice Infestation - Residential,ISD_Housing (INTERNAL),ISD,,,24 W Cottage St  Dorchester  MA  02125,7.0,03,7.0,B2,Roxbury,13.0,Ward 13,1302.0,R4,24 W Cottage St,2125.0,Address,43675.0,42.3208,-71.0734,Self Service,"(42.3208, -71.0734)"
588674,101001422148,07/02/2015 11:27:00 AM,10/30/2015 11:27:28 AM,,OVERDUE,Open,,Mice Infestation - Residential,Inspectional Services,Housing,Mice Infestation - Residential,ISD_Housing (INTERNAL),ISD,,,101 Wheatland Ave  Dorchester  MA  02124,8.0,07,4.0,B3,Dorchester,9.0,Ward 17,1703.0,R2,101 Wheatland Ave,2124.0,Address,336070.0,42.2928,-71.0772,Constituent Call,"(42.2928, -71.0772)"
588783,101001422292,07/02/2015 02:02:00 PM,10/30/2015 02:02:05 PM,,OVERDUE,Open,,Mice Infestation - Residential,Inspectional Services,Housing,Mice Infestation - Residential,ISD_Housing (INTERNAL),ISD,,,106 Brunswick St  Dorchester  MA  02121,7.0,03,4.0,B2,Roxbury,13.0,Ward 14,1401.0,R3,106 Brunswick St,2121.0,Address,198798.0,42.3108,-71.0794,Constituent Call,"(42.3108, -71.0794)"
589637,101001423577,07/06/2015 11:24:00 AM,11/03/2015 11:24:09 AM,,OVERDUE,Open,,Mice Infestation - Residential,Inspectional Services,Housing,Mice Infestation - Residential,ISD_Housing (INTERNAL),ISD,,,1619 Commonwealth Ave  Brighton  MA  02135,11.0,04,9.0,D14,Allston / Brighton,15.0,Ward 21,2110.0,A,1619 Commonwealth Ave,2135.0,Address,215226.0,42.3435,-71.1438,Constituent Call,"(42.3435, -71.1438)"
589755,101001423736,07/06/2015 01:25:00 PM,11/03/2015 01:25:08 PM,,OVERDUE,Open,,Mice Infestation - Residential,Inspectional Services,Housing,Mice Infestation - Residential,ISD_Housing (INTERNAL),ISD,,,40 Robinson St  Dorchester  MA  02122,7.0,03,3.0,C11,Dorchester,8.0,Ward 15,1509.0,R3,40 Robinson St,2122.0,Address,117377.0,42.3026,-71.0623,Self Service,"(42.3026, -71.0623)"
590288,101001424472,07/07/2015 11:22:00 AM,11/04/2015 11:22:14 AM,07/30/2015 09:08:57 AM,ONTIME,Closed,Case Closed. Closed date : 2015-07-30 09:08:57.663 :,Mice Infestation - Residential,Inspectional Services,Housing,Mice Infestation - Residential,ISD_Housing (INTERNAL),ISD,,,24 Walnut Park  Roxbury  MA  02119,9.0,10B,7.0,E13,Roxbury,13.0,Ward 11,1103.0,A,24 Walnut Park,2119.0,Address,327618.0,42.3159,-71.0965,Constituent Call,"(42.3159, -71.0965)"
590340,101001424549,07/07/2015 12:32:00 PM,11/04/2015 12:32:57 PM,,OVERDUE,Open,,Mice Infestation - Residential,Inspectional Services,Housing,Mice Infestation - Residential,ISD_Housing (INTERNAL),ISD,,,184 Heath St  Jamaica Plain  MA  02130,9.0,10A,6.0,E13,Jamaica Plain,11.0,Ward 10,1006.0,R2,184 Heath St,2130.0,Address,166164.0,42.3259,-71.1049,Self Service,"(42.3259, -71.1049)"
590558,101001424832,07/07/2015 04:54:00 PM,11/04/2015 04:54:48 PM,,OVERDUE,Open,,Mice Infestation - Residential,Inspectional Services,Housing,Mice Infestation - Residential,ISD_Housing (INTERNAL),ISD,,,228 Westview St  Dorchester  MA  02124,8.0,07,4.0,B3,Greater Mattapan,9.0,Ward 14,1410.0,E,228 Westview St,2124.0,Address,335718.0,42.2908,-71.0879,Constituent Call,"(42.2908, -71.0879)"
591106,101001425591,07/08/2015 03:30:49 PM,11/05/2015 03:30:48 PM,,OVERDUE,Open,,Mice Infestation - Residential,Inspectional Services,Housing,Mice Infestation - Residential,ISD_Housing (INTERNAL),ISD,,,3 Presby Pl  Roxbury  MA  02119,7.0,10B,7.0,B2,Roxbury,13.0,Ward 8,807.0,R1,3 Presby Pl,2119.0,Address,112569.0,42.3241,-71.0763,Constituent Call,"(42.3241, -71.0763)"
591469,101001426048,07/09/2015 11:35:38 AM,11/06/2015 11:35:38 AM,,OVERDUE,Open,,Mice Infestation - Residential,Inspectional Services,Housing,Mice Infestation - Residential,ISD_Housing (INTERNAL),ISD,,,86 Hammond St  Mission Hill  MA  02120,7.0,10B,7.0,D4,Roxbury,13.0,Ward 9,903.0,R4,86 Hammond St,2120.0,Address,245720.0,42.3362,-71.0835,Constituent Call,"(42.3362, -71.0835)"
591493,101001426084,07/09/2015 12:09:00 PM,11/06/2015 12:09:37 PM,07/27/2015 10:02:27 AM,ONTIME,Closed,Case Closed. Closed date : 2015-07-27 10:02:27.657 :,Mice Infestation - Residential,Inspectional Services,Housing,Mice Infestation - Residential,ISD_Housing (INTERNAL),ISD,,,24 Seaver St  Dorchester  MA  02121,9.0,10B,7.0,B2,Dorchester,13.0,12,1208.0,A,24 Seaver St,2121.0,Address,307898.0,42.313,-71.0937,Constituent Call,"(42.313, -71.0937)"
591527,101001426129,07/09/2015 12:44:00 PM,11/06/2015 12:44:36 PM,09/16/2015 10:14:31 AM,ONTIME,Closed,Case Closed. Closed date : 2015-09-16 10:14:31.433 :,Mice Infestation - Residential,Inspectional Services,Housing,Mice Infestation - Residential,ISD_Housing (INTERNAL),ISD,,,10 Jamaicaway  Jamaica Plain  MA  02130,9.0,10A,8.0,E13,Mission Hill,11.0,Ward 10,1008.0,CD,10 Jamaicaway,2130.0,Address,79359.0,42.3313,-71.1124,Constituent Call,"(42.3313, -71.1124)"
592166,101001426997,07/10/2015 02:07:00 PM,11/07/2015 02:07:53 PM,,OVERDUE,Open,,Mice Infestation - Residential,Inspectional Services,Housing,Mice Infestation - Residential,ISD_Housing (INTERNAL),ISD,,,31 Wade St  Brighton  MA  02135,11.0,04,9.0,D14,Allston / Brighton,15.0,Ward 21,2116.0,R2,31 Wade St,2135.0,Address,141263.0,42.3387,-71.1608,Constituent Call,"(42.3387, -71.1608)"
593724,101001429169,07/14/2015 12:44:00 PM,11/11/2015 12:44:42 PM,07/29/2015 02:46:55 PM,ONTIME,Closed,Case Closed. Closed date : 2015-07-29 14:46:55.57 :,Mice Infestation - Residential,Inspectional Services,Housing,Mice Infestation - Residential,ISD_Housing (INTERNAL),ISD,,,132 Hemenway St  Boston  MA  02115,4.0,10A,7.0,D4,Fenway / Kenmore / Audubon Circle / Longwood,13.0,Ward 4,408.0,A,132 Hemenway St,2115.0,Address,250419.0,42.3423,-71.0901,Constituent Call,"(42.3423, -71.0901)"
594088,101001429638,07/15/2015 03:59:00 AM,11/12/2015 03:59:08 AM,,OVERDUE,Open,,Mice Infestation - Residential,Inspectional Services,Housing,Mice Infestation - Residential,ISD_Housing (INTERNAL),ISD,,,27 Greenock St  Dorchester  MA  02124,8.0,07,4.0,B3,Greater Mattapan,9.0,Ward 14,1411.0,CD,27 Greenock St,2124.0,Address,66634.0,42.2905,-71.0903,Self Service,"(42.2905, -71.0903)"
594413,101001430040,07/15/2015 12:13:00 PM,11/12/2015 12:13:22 PM,07/15/2015 01:30:02 PM,ONTIME,Closed,Case Closed. Closed date : 2015-07-15 13:30:02.453 :,Mice Infestation - Residential,Inspectional Services,Housing,Mice Infestation - Residential,ISD_Housing (INTERNAL),ISD,,,120 Winthrop St  Roxbury  MA  02119,7.0,10B,7.0,B2,Roxbury,13.0,Ward 8,807.0,R3,120 Winthrop St,2119.0,Address,150998.0,42.3239,-71.0764,Constituent Call,"(42.3239, -71.0764)"
595100,101001430953,07/16/2015 12:20:00 PM,11/13/2015 12:20:13 PM,,OVERDUE,Open,,Mice Infestation - Residential,Inspectional Services,Housing,Mice Infestation - Residential,ISD_Housing (INTERNAL),ISD,,,65 Franklin Hill Ave  Dorchester  MA  02124,8.0,07,4.0,B3,Dorchester,9.0,14,1409.0,,65 Franklin Hill Ave,2124.0,Address,354367.0,42.3594,-71.0587,Constituent Call,"(0, 0)"
595614,101001431651,07/17/2015 09:39:00 AM,11/14/2015 09:39:24 AM,,OVERDUE,Open,,Mice Infestation - Residential,Inspectional Services,Housing,Mice Infestation - Residential,ISD_Housing (INTERNAL),ISD,,,742 Hyde Park Ave  Hyde Park  MA  02136,12.0,08,5.0,E18,Hyde Park,10.0,Ward 18,1808.0,R2,742 Hyde Park Ave,2136.0,Address,77548.0,42.275,-71.1196,Constituent Call,"(42.275, -71.1196)"
596598,101001432979,07/20/2015 10:17:00 AM,11/17/2015 10:17:12 AM,07/20/2015 10:37:22 AM,ONTIME,Closed,Case Closed. Closed date : 2015-07-20 10:37:22.773 :,Mice Infestation - Residential,Inspectional Services,Housing,Mice Infestation - Residential,ISD_Housing (INTERNAL),ISD,,,21 Peaceable St  Brighton  MA  02135,11.0,04,9.0,D14,Allston / Brighton,15.0,Ward 22,2203.0,R1,21 Peaceable St,2135.0,Address,108722.0,42.3481,-71.1524,Constituent Call,"(42.3481, -71.1524)"
596675,101001433084,07/20/2015 11:08:00 AM,11/17/2015 11:08:53 AM,07/20/2015 01:16:08 PM,ONTIME,Closed,Case Closed. Closed date : 2015-07-20 13:16:08.94 :,Mice Infestation - Residential,Inspectional Services,Housing,Mice Infestation - Residential,ISD_Housing (INTERNAL),ISD,,,885 American Legion Hwy  Roslindale  MA  02131,12.0,08,5.0,E18,Roslindale,10.0,18,1808.0,,885 American Legion Hwy,2131.0,Address,177669.0,42.2775,-71.1164,Constituent Call,"(42.2775, -71.1164)"
597550,101001434210,07/21/2015 01:26:00 PM,11/18/2015 01:26:51 PM,,OVERDUE,Open,,Mice Infestation - Residential,Inspectional Services,Housing,Mice Infestation - Residential,ISD_Housing (INTERNAL),ISD,,,26 Mayfield St  Dorchester  MA  02125,7.0,03,3.0,C11,Dorchester,7.0,Ward 13,1308.0,R2,26 Mayfield St,2125.0,Address,93223.0,42.3163,-71.0581,Constituent Call,"(42.3163, -71.0581)"
598145,101001435159,07/23/2015 12:35:00 PM,11/20/2015 12:35:23 PM,08/27/2015 03:02:00 PM,ONTIME,Closed,Case Closed. Closed date : 2015-08-27 15:02:00.527 CLOSED: Closed/No Permit,Mice Infestation - Residential,Inspectional Services,Housing,Mice Infestation - Residential,ISD_Housing (INTERNAL),ISD,,,642 E Third St  South Boston  MA  02127,6.0,05,2.0,C6,South Boston / South Boston Waterfront,5.0,Ward 6,607.0,R3,642 E Third St,2127.0,Address,135076.0,42.3367,-71.0342,Constituent Call,"(42.3367, -71.0342)"
598195,101001435233,07/23/2015 01:22:00 PM,11/20/2015 01:22:28 PM,,OVERDUE,Open,,Mice Infestation - Residential,Inspectional Services,Housing,Mice Infestation - Residential,ISD_Housing (INTERNAL),ISD,,,154 Fawndale Rd  Roslindale  MA  02131,12.0,02,5.0,E5,Roslindale,10.0,Ward 19,1913.0,A,154 Fawndale Rd,2131.0,Address,233911.0,42.288,-71.122,Constituent Call,"(42.288, -71.122)"
598415,101001435542,07/23/2015 04:26:00 PM,11/20/2015 04:26:02 PM,07/24/2015 10:28:33 AM,ONTIME,Closed,Case Closed. Closed date : 2015-07-24 10:28:33.257 :,Mice Infestation - Residential,Inspectional Services,Housing,Mice Infestation - Residential,ISD_Housing (INTERNAL),ISD,,,17 O'Meara Ct  Charlestown  MA  02129,3.0,1A,1.0,A15,Charlestown,2.0,02,202.0,,17 O'Meara Ct,2129.0,Address,350575.0,42.3594,-71.0587,Constituent Call,"(0, 0)"
598938,101001436250,07/24/2015 01:53:00 PM,11/21/2015 01:53:29 PM,08/21/2015 01:17:02 PM,ONTIME,Closed,Case Closed. Closed date : 2015-08-21 13:17:02.24 :,Mice Infestation - Residential,Inspectional Services,Housing,Mice Infestation - Residential,ISD_Housing (INTERNAL),ISD,,,515-517 Geneva Ave  Dorchester  MA  02124,7.0,07,3.0,C11,Dorchester,7.0,Ward 16,1601.0,R3,515-517 Geneva Ave,2124.0,Address,63362.0,42.2984,-71.0634,Constituent Call,"(42.2984, -71.0634)"
599459,101001436978,07/26/2015 08:05:00 PM,11/23/2015 08:05:17 PM,08/17/2015 12:13:57 PM,ONTIME,Closed,Case Closed. Closed date : 2015-08-17 12:13:57.193 NOACC: Closed-No Access,Mice Infestation - Residential,Inspectional Services,Housing,Mice Infestation - Residential,ISD_Housing (INTERNAL),ISD,,,104 Hemenway St  Boston  MA  02115,4.0,10A,8.0,D4,Fenway / Kenmore / Audubon Circle / Longwood,14.0,Ward 4,407.0,A,104 Hemenway St,2115.0,Address,250309.0,42.3434,-71.0898,Self Service,"(42.3434, -71.0898)"
599578,101001437152,07/27/2015 09:12:00 AM,11/24/2015 09:12:48 AM,,OVERDUE,Open,,Mice Infestation - Residential,Inspectional Services,Housing,Mice Infestation - Residential,ISD_Housing (INTERNAL),ISD,,,58 Norton St  Dorchester  MA  02125,7.0,03,4.0,C11,Dorchester,8.0,Ward 15,1502.0,R3,58 Norton St,2125.0,Address,103968.0,42.306,-71.0681,Constituent Call,"(42.306, -71.0681)"
599582,101001437157,07/27/2015 09:15:00 AM,11/24/2015 09:15:37 AM,,OVERDUE,Open,,Mice Infestation - Residential,Inspectional Services,Housing,Mice Infestation - Residential,ISD_Housing (INTERNAL),ISD,,,2 Browning Ave  Dorchester  MA  02124,8.0,03,4.0,B3,Greater Mattapan,8.0,Ward 14,1402.0,R3,2 Browning Ave,2124.0,Address,22784.0,42.2943,-71.0804,Constituent Call,"(42.2943, -71.0804)"
599618,101001437204,07/27/2015 09:46:00 AM,11/24/2015 09:46:54 AM,07/27/2015 11:08:20 AM,ONTIME,Closed,Case Closed. Closed date : 2015-07-27 11:08:20.887 :,Mice Infestation - Residential,Inspectional Services,Housing,Mice Infestation - Residential,ISD_Housing (INTERNAL),ISD,,,90 Mount Pleasant Ave  Roxbury  MA  02119,7.0,10B,7.0,B2,Roxbury,13.0,Ward 8,807.0,R2,90 Mount Pleasant Ave,2119.0,Address,98426.0,42.3257,-71.0777,Constituent Call,"(42.3257, -71.0777)"
599716,101001437338,07/27/2015 10:46:00 AM,11/24/2015 10:46:22 AM,,OVERDUE,Open,,Mice Infestation - Residential,Inspectional Services,Housing,Mice Infestation - Residential,ISD_Housing (INTERNAL),ISD,,,156 Talbot Ave  Dorchester  MA  02124,8.0,03,4.0,B3,Greater Mattapan,8.0,Ward 14,1402.0,R3,156 Talbot Ave,2124.0,Address,133669.0,42.2927,-71.08,Constituent Call,"(42.2927, -71.08)"
599937,101001437604,07/27/2015 01:28:00 PM,11/24/2015 01:28:45 PM,,OVERDUE,Open,,Mice Infestation - Residential,Inspectional Services,Housing,Mice Infestation - Residential,ISD_Housing (INTERNAL),ISD,,,33 Holborn St  Dorchester  MA  02121,9.0,10B,7.0,B2,Roxbury,13.0,Ward 12,1206.0,R3,33 Holborn St,2121.0,Address,252471.0,42.3143,-71.0809,Constituent Call,"(42.3143, -71.0809)"
599948,101001437619,07/27/2015 01:40:00 PM,11/24/2015 01:40:52 PM,,OVERDUE,Open,,Mice Infestation - Residential,Inspectional Services,Housing,Mice Infestation - Residential,ISD_Housing (INTERNAL),ISD,,,29-31 Litchfield St  Brighton  MA  02135,11.0,04,9.0,D14,Allston / Brighton,15.0,Ward 22,2205.0,R3,29-31 Litchfield St,2135.0,Address,86709.0,42.3591,-71.141,Constituent Call,"(42.3591, -71.141)"
599961,101001437637,07/27/2015 02:00:00 PM,11/24/2015 02:00:13 PM,08/06/2015 02:32:44 PM,ONTIME,Closed,Case Closed. Closed date : 2015-08-06 14:32:44.913 :,Mice Infestation - Residential,Inspectional Services,Housing,Mice Infestation - Residential,ISD_Housing (INTERNAL),ISD,,,7-9 Becket St  Dorchester  MA  02124,8.0,07,3.0,C11,Dorchester,7.0,Ward 16,1611.0,R3,7-9 Becket St,2124.0,Address,13059.0,42.2814,-71.065,Constituent Call,"(42.2814, -71.065)"
599969,101001437647,07/27/2015 02:06:00 PM,11/24/2015 02:06:38 PM,08/17/2015 11:54:16 AM,ONTIME,Closed,Case Closed. Closed date : 2015-08-17 11:54:16.407 NOVIO: No Violation Found/No Cause,Mice Infestation - Residential,Inspectional Services,Housing,Mice Infestation - Residential,ISD_Housing (INTERNAL),ISD,,,32 Frankfort St  East Boston  MA  02128,1.0,09,1.0,A7,East Boston,1.0,Ward 1,102.0,R3,32 Frankfort St,2128.0,Address,60516.0,42.3697,-71.0356,Constituent Call,"(42.3697, -71.0356)"
599977,101001437658,07/27/2015 02:11:00 PM,11/24/2015 02:11:26 PM,08/06/2015 02:16:00 PM,ONTIME,Closed,Case Closed. Closed date : 2015-08-06 14:16:00.237 :,Mice Infestation - Residential,Inspectional Services,Housing,Mice Infestation - Residential,ISD_Housing (INTERNAL),ISD,,,134 Union Park St  Roxbury  MA  02118,4.0,1C,2.0,D4,South End,4.0,Ward 3,307.0,RC,134 Union Park St,2118.0,Address,170701.0,42.3398,-71.065,Constituent Call,"(42.3398, -71.065)"
600024,101001437717,07/27/2015 02:39:00 PM,11/24/2015 02:39:24 PM,09/16/2015 12:29:23 PM,ONTIME,Closed,Case Closed. Closed date : 2015-09-16 12:29:23.537 :,Mice Infestation - Residential,Inspectional Services,Housing,Mice Infestation - Residential,ISD_Housing (INTERNAL),ISD,,,693 Dudley St  Dorchester  MA  02125,7.0,03,7.0,B2,Dorchester,13.0,Ward 13,1305.0,RC,693 Dudley St,2125.0,Address,226782.0,42.3183,-71.0685,Constituent Call,"(42.3183, -71.0685)"
600662,101001438541,07/28/2015 01:15:00 PM,11/25/2015 01:15:15 PM,,OVERDUE,Open,,Mice Infestation - Residential,Inspectional Services,Housing,Mice Infestation - Residential,ISD_Housing (INTERNAL),ISD,,,14 Wilmore St  Mattapan  MA  02126,8.0,07,4.0,B3,Greater Mattapan,9.0,Ward 18,1802.0,R3,14 Wilmore St,2126.0,Address,150473.0,42.2782,-71.0925,Constituent Call,"(42.2782, -71.0925)"
600798,101001438723,07/28/2015 03:23:00 PM,11/25/2015 03:23:26 PM,08/17/2015 02:21:45 PM,ONTIME,Closed,Case Closed. Closed date : 2015-08-17 14:21:45.453 NOVIO: No Violation Found/No Cause,Mice Infestation - Residential,Inspectional Services,Housing,Mice Infestation - Residential,ISD_Housing (INTERNAL),ISD,,,53 Adams St  Roxbury  MA  02119,7.0,10B,7.0,B2,Roxbury,13.0,08,803.0,RC,53 Adams St,2119.0,Address,341824.0,42.328,-71.0773,Constituent Call,"(42.328, -71.0773)"
600859,101001438797,07/28/2015 05:02:00 PM,11/25/2015 05:02:18 PM,,OVERDUE,Open,,Mice Infestation - Residential,Inspectional Services,Housing,Mice Infestation - Residential,ISD_Housing (INTERNAL),ISD,,,451 Norfolk St  Mattapan  MA  02126,8.0,07,4.0,B3,Greater Mattapan,9.0,Ward 14,1405.0,A,451 Norfolk St,2126.0,Address,283775.0,42.2809,-71.088,Constituent Call,"(42.2809, -71.088)"
