,CASE_ENQUIRY_ID,OPEN_DT,TARGET_DT,CLOSED_DT,OnTime_Status,CASE_STATUS,CLOSURE_REASON,CASE_TITLE,SUBJECT,REASON,TYPE,QUEUE,Department,SubmittedPhoto,ClosedPhoto,Location,fire_district,pwd_district,city_council_district,police_district,neighborhood,neighborhood_services_district,ward,precinct,land_usage,LOCATION_STREET_NAME,LOCATION_ZIPCODE,Property_Type,Property_ID,LATITUDE,LONGITUDE,Source,Geocoded_Location
470124,101001241736,01/03/2015 04:40:58 PM,01/20/2015 08:30:00 AM,01/10/2015 09:43:17 PM,ONTIME,Closed,Case Closed Case Invalid no address provided; entered as City Hall Plz,Missing Sign,Transportation - Traffic Division,Signs & Signals,Missing Sign,INFO_Reallocation From Dept,INFO,,,100 City Hall Plz  Boston  MA  02108,3.0,1B,1.0,A1,Downtown / Financial District,3.0,Ward 3,306.0,C,100 City Hall Plz,2108.0,Address,207940.0,42.3595,-71.0588,Self Service,"(42.3595, -71.0588)"
470542,101001242311,01/05/2015 10:46:44 AM,01/20/2015 10:46:44 AM,01/14/2015 07:30:12 AM,ONTIME,Closed,Case Closed Case Resolved Work completed 1/13/15.,Missing Sign,Transportation - Traffic Division,Signs & Signals,Missing Sign,BTDT_Sign Shop_Sign Installation,BTDT,,,INTERSECTION of Boylston St & Exeter St  Boston  MA,4.0,1C,2.0,D4,Back Bay,6.0,Ward 4,402.0,,INTERSECTION Boylston St & Exeter St,,Intersection,1777.0,42.3495,-71.0795,City Worker App,"(42.3495, -71.0795)"
470649,101001242465,01/05/2015 01:47:07 PM,01/20/2015 01:47:06 PM,01/06/2015 07:20:55 AM,ONTIME,Closed,Case Closed Duplicate of Existing Case Duplicate CRM,Missing Sign,Transportation - Traffic Division,Signs & Signals,Missing Sign,BTDT_District 01,BTDT,,,INTERSECTION of Egan Way & Oakland St  Brighton  MA,11.0,04,9.0,D14,Allston / Brighton,15.0,Ward 22,,,INTERSECTION Egan Way & Oakland St,,Intersection,4436.0,42.3503,-71.1579,Self Service,"(42.3503, -71.1579)"
470696,101001242537,01/05/2015 02:58:51 PM,01/20/2015 02:58:00 PM,01/05/2015 06:23:52 PM,ONTIME,Closed,Case Closed Case Noted reinstallation of a pedestrian delineator will be reevaluated at the end of the winter snow season.,Missing Sign,Transportation - Traffic Division,Signs & Signals,Missing Sign,BTDT_District 06,BTDT,,,INTERSECTION of E Dedham St & Harrison Ave  Roxbury  MA,4.0,1C,2.0,D4,South End,6.0,Ward 8,801.0,,INTERSECTION E Dedham St & Harrison Ave,,Intersection,3981.0,42.3393,-71.0697,Employee Generated,"(42.3393, -71.0697)"
470753,101001242620,01/05/2015 04:35:28 PM,01/20/2015 04:35:28 PM,01/09/2015 02:27:39 PM,ONTIME,Closed,Case Closed Case Resolved Work completed 1/9/15.,Missing Sign,Transportation - Traffic Division,Signs & Signals,Missing Sign,BTDT_Sign Shop_Sign Installation,BTDT,,,80 Green St  Charlestown  MA  02129,3.0,1A,1.0,A15,Charlestown,2.0,Ward 2,204.0,R1,80 Green St,2129.0,Address,66304.0,42.3781,-71.0621,Self Service,"(42.3781, -71.0621)"
470863,101001242779,01/06/2015 08:17:56 AM,01/21/2015 08:30:00 AM,01/12/2015 12:51:34 PM,ONTIME,Closed,Case Closed Case Resolved Work completed 1/12/15.,Missing Sign,Transportation - Traffic Division,Signs & Signals,Missing Sign,BTDT_Sign Shop_Sign Installation,BTDT,,,INTERSECTION of Hazelton St & Westmore Rd  Mattapan  MA,8.0,07,4.0,B3,Greater Mattapan,9.0,Ward 14,1408.0,,INTERSECTION Hazelton St & Westmore Rd,,Intersection,5833.0,42.2825,-71.0984,Constituent Call,"(42.2825, -71.0984)"
470909,101001242839,01/06/2015 09:04:51 AM,01/21/2015 09:04:51 AM,01/06/2015 10:22:49 AM,ONTIME,Closed,Case Closed Case Noted duplicate of crm #233430; work order issued 12/16/2014.,Missing Sign,Transportation - Traffic Division,Signs & Signals,Missing Sign,BTDT_District 06,BTDT,,,INTERSECTION of Charter St & Salem St  Boston  MA,3.0,1B,1.0,A1,Downtown / Financial District,3.0,Ward 3,302.0,,INTERSECTION Charter St & Salem St,,Intersection,2832.0,42.367,-71.0543,Self Service,"(42.367, -71.0543)"
471014,101001242988,01/06/2015 10:46:52 AM,01/21/2015 10:46:52 AM,01/09/2015 02:26:30 PM,ONTIME,Closed,Case Closed Case Resolved Work completed 1/9/15.,Missing Sign,Transportation - Traffic Division,Signs & Signals,Missing Sign,BTDT_Sign Shop_Sign Installation,BTDT,,,32 Baldwin St  Charlestown  MA  02129,3.0,1A,1.0,A15,Charlestown,2.0,Ward 2,207.0,R1,32 Baldwin St,2129.0,Address,7874.0,42.3811,-71.0715,City Worker App,"(42.3811, -71.0715)"
471019,101001242997,01/06/2015 10:53:05 AM,01/21/2015 10:53:05 AM,01/14/2015 07:28:15 AM,ONTIME,Closed,Case Closed Case Resolved Work completed 1/13/15.,Missing Sign,Transportation - Traffic Division,Signs & Signals,Missing Sign,BTDT_Sign Shop_Sign Installation,BTDT,,,INTERSECTION of Beacham St & Gardner St  Charlestown  MA,3.0,1A,1.0,A15,Charlestown,2.0,Ward 2,207.0,,INTERSECTION Beacham St & Gardner St,,Intersection,1072.0,42.385,-71.075,City Worker App,"(42.385, -71.075)"
471035,101001243024,01/06/2015 11:26:17 AM,01/08/2015 11:26:17 AM,01/07/2015 02:35:56 PM,ONTIME,Closed,Case Closed Case Noted completed upon arrival,Missing Sign,Transportation - Traffic Division,Signs & Signals,Missing Sign,BTDT_District 04,BTDT,,,INTERSECTION of Ditson St & Westville St  Dorchester  MA,7.0,03,4.0,C11,Dorchester,8.0,Ward 15,1505.0,,INTERSECTION Ditson St & Westville St,,Intersection,4090.0,42.3018,-71.0643,Self Service,"(42.3018, -71.0643)"
471094,101001243121,01/06/2015 01:40:29 PM,01/08/2015 01:40:29 PM,01/09/2015 02:29:52 PM,OVERDUE,Closed,Case Closed Case Resolved Work completed 1/9/15.,Missing Sign,Transportation - Traffic Division,Signs & Signals,Missing Sign,BTDT_Sign Shop_Sign Installation,BTDT,,,INTERSECTION of Havre St & Meridian St  East Boston  MA,1.0,09,1.0,A7,East Boston,1.0,Ward 1,104.0,,INTERSECTION Havre St & Meridian St,,Intersection,5806.0,42.3723,-71.039,Constituent Call,"(42.3723, -71.039)"
471154,101001243204,01/06/2015 02:59:47 PM,01/21/2015 02:59:47 PM,01/07/2015 10:11:09 AM,ONTIME,Closed,Case Closed Case Resolved The space is not long enough to allow parking. A vehicle parking in this area (abiding by the corner restriction) would not leave enough room for vehicles to swing into the driveway because of the narrowness of the street. The parking restrictions are posted correctly.,Missing Sign,Transportation - Traffic Division,Signs & Signals,Missing Sign,BTDT_Engineering_New Sign and Pavement Marking Requests,BTDT,,,31 Oak St  Charlestown  MA  02129,3.0,1A,1.0,A15,Charlestown,2.0,Ward 2,206.0,R2,31 Oak St,2129.0,Address,104595.0,42.3807,-71.0685,Self Service,"(42.3807, -71.0685)"
471286,101001243374,01/06/2015 09:00:49 PM,01/22/2015 08:30:00 AM,01/21/2015 08:05:17 AM,ONTIME,Closed,Case Closed Case Resolved,Missing Sign,Transportation - Traffic Division,Signs & Signals,Missing Sign,BTDT_Sign Shop_Sign Installation,BTDT,,,4 Summer St  Hyde Park  MA  02136,12.0,08,5.0,E18,Hyde Park,10.0,Ward 18,1812.0,R4,4 Summer St,2136.0,Address,131919.0,42.2566,-71.1261,Self Service,"(42.2566, -71.1261)"
471332,101001243432,01/07/2015 07:57:29 AM,01/09/2015 07:57:29 AM,01/14/2015 01:28:01 PM,OVERDUE,Closed,Case Closed Case Resolved Work completed 1/14/15.,Missing Sign,Transportation - Traffic Division,Signs & Signals,Missing Sign,BTDT_Sign Shop_Sign Installation,BTDT,,,INTERSECTION of Manthorne Rd & Pierpont Rd  West Roxbury  MA,12.0,06,6.0,E5,West Roxbury,10.0,Ward 20,2007.0,,INTERSECTION Manthorne Rd & Pierpont Rd,,Intersection,7034.0,42.2898,-71.1518,Constituent Call,"(42.2898, -71.1518)"
471346,101001243453,01/07/2015 08:21:23 AM,01/22/2015 08:30:00 AM,01/14/2015 07:27:30 AM,ONTIME,Closed,Case Closed Case Resolved Work completed 1/13/15.,Missing Sign,Transportation - Traffic Division,Signs & Signals,Missing Sign,BTDT_Sign Shop_Sign Installation,BTDT,,,41 Bartlett St  Charlestown  MA  02129,3.0,1A,1.0,A15,Charlestown,2.0,Ward 2,204.0,R2,41 Bartlett St,2129.0,Address,8459.0,42.378,-71.0632,City Worker App,"(42.378, -71.0632)"
471374,101001243502,01/07/2015 09:42:44 AM,01/22/2015 09:42:44 AM,01/07/2015 10:15:53 AM,ONTIME,Closed,Case Closed Case Noted Duplicate CRM,Missing Sign,Transportation - Traffic Division,Signs & Signals,Missing Sign,BTDT_District 01,BTDT,https://cityworker.cityofboston.gov:8443/attachments/report/54ad45e2d052065cdb4cfa28/photo/Report.jpg,,INTERSECTION of Havre St & Meridian St  East Boston  MA,1.0,09,1.0,A7,East Boston,1.0,Ward 1,104.0,,INTERSECTION Havre St & Meridian St,,Intersection,5806.0,42.3723,-71.039,City Worker App,"(42.3723, -71.039)"
471379,101001243508,01/07/2015 09:53:39 AM,01/22/2015 09:53:39 AM,01/09/2015 07:20:18 AM,ONTIME,Closed,Case Closed Case Resolved Work completed 1/8/15.,Missing Sign,Transportation - Traffic Division,Signs & Signals,Missing Sign,BTDT_Sign Shop_Sign Installation,BTDT,,,INTERSECTION of Boylston St & Tamworth St  Boston  MA,4.0,1C,2.0,A1,Downtown / Financial District,4.0,Ward 3,308.0,,INTERSECTION Boylston St & Tamworth St,,Intersection,1785.0,42.3523,-71.0641,City Worker App,"(42.3523, -71.0641)"
471423,101001243569,01/07/2015 11:10:19 AM,01/22/2015 11:10:19 AM,01/08/2015 09:21:43 AM,ONTIME,Closed,Case Closed Case Resolved The No Left Turn sign has been removed. Sign was a temporary restriction for road work that was being done on Albany st,Missing Sign,Transportation - Traffic Division,Signs & Signals,Missing Sign,BTDT_District 03,BTDT,,,INTERSECTION of Albany St & Melnea Cass Blvd  Roxbury  MA,7.0,10B,7.0,B2,Roxbury,13.0,Ward 8,803.0,,INTERSECTION Albany St & Melnea Cass Blvd,,Intersection,196.0,42.3312,-71.0769,Self Service,"(42.3312, -71.0769)"
471435,101001243584,01/07/2015 11:24:02 AM,01/22/2015 11:24:02 AM,01/09/2015 07:19:59 AM,ONTIME,Closed,Case Closed Case Resolved Work completed 1/8/15.,Missing Sign,Transportation - Traffic Division,Signs & Signals,Missing Sign,BTDT_Sign Shop_Sign Installation,BTDT,,,190 Newbury St  Boston  MA  02116,4.0,1C,8.0,D4,Back Bay,14.0,Ward 5,507.0,CM,190 Newbury St,2116.0,Address,155892.0,42.3502,-71.0796,City Worker App,"(42.3502, -71.0796)"
471439,101001243588,01/07/2015 11:28:38 AM,01/22/2015 11:28:38 AM,01/09/2015 07:19:24 AM,ONTIME,Closed,Case Closed Case Resolved Work completed 1/8/15.,Missing Sign,Transportation - Traffic Division,Signs & Signals,Missing Sign,BTDT_Sign Shop_Sign Installation,BTDT,,,INTERSECTION of Exeter St & Newbury St  Boston  MA,4.0,1C,8.0,D4,Back Bay,14.0,Ward 5,508.0,,INTERSECTION Exeter St & Newbury St,,Intersection,4720.0,42.3503,-71.0799,City Worker App,"(42.3503, -71.0799)"
471506,101001243698,01/07/2015 01:20:15 PM,01/22/2015 01:20:15 PM,01/15/2015 10:07:23 AM,ONTIME,Closed,Case Closed Case Resolved Work completed 1/15/14.,Missing Sign,Transportation - Traffic Division,Signs & Signals,Missing Sign,BTDT_Sign Shop_Sign Installation,BTDT,https://cityworker.cityofboston.gov:8443/attachments/report/54ad78dcd052065cdb4cfe7f/photo/Report.jpg,,1 Amboy St  Allston  MA  02134,11.0,04,9.0,D14,Allston / Brighton,15.0,Ward 22,2201.0,R2,1 Amboy St,2134.0,Address,3074.0,42.3598,-71.1239,City Worker App,"(42.3598, -71.1239)"
471755,101001244059,01/08/2015 10:22:14 AM,01/23/2015 10:22:14 AM,01/09/2015 02:28:48 PM,ONTIME,Closed,Case Closed Case Resolved Work completed 1/9/15.,Missing Sign,Transportation - Traffic Division,Signs & Signals,Missing Sign,BTDT_Sign Shop_Sign Installation,BTDT,https://cityworker.cityofboston.gov:8443/attachments/report/54aea0a4d052065cdb4d019d/photo/Report.jpg,,INTERSECTION of Harold St & Townsend St  Dorchester  MA,9.0,10B,7.0,B2,Roxbury,13.0,Ward 12,1202.0,,INTERSECTION Harold St & Townsend St,,Intersection,5655.0,42.318,-71.0895,City Worker App,"(42.318, -71.0895)"
472221,101001244713,01/09/2015 09:28:05 AM,01/26/2015 09:28:05 AM,01/12/2015 12:50:18 PM,ONTIME,Closed,Case Closed Case Resolved Work completed 1/12/15.,Missing Sign,Transportation - Traffic Division,Signs & Signals,Missing Sign,BTDT_Sign Shop_Sign Installation,BTDT,,,38-42 Boylston St  Boston  MA  02116,4.0,1C,2.0,A1,Boston,4.0,03,308.0,RC,38-42 Boylston St,2116.0,Address,162417.0,42.3522,-71.0638,City Worker App,"(42.3522, -71.0638)"
472336,101001244867,01/09/2015 11:31:08 AM,01/26/2015 11:31:08 AM,01/15/2015 10:06:14 AM,ONTIME,Closed,Case Closed Case Resolved Work completed 1/15/14.,Missing Sign,Transportation - Traffic Division,Signs & Signals,Missing Sign,BTDT_Sign Shop_Sign Installation,BTDT,,,46 Dartmouth St  Boston  MA  02116,4.0,1C,2.0,D4,South End,6.0,Ward 4,401.0,CM,46 Dartmouth St,2116.0,Address,46513.0,42.3441,-71.0746,City Worker App,"(42.3441, -71.0746)"
472533,101001245169,01/09/2015 05:44:42 PM,01/13/2015 05:44:42 PM,01/14/2015 10:59:11 AM,OVERDUE,Closed,Case Closed Case Resolved Work completed 1/14/15.,Missing Sign,Transportation - Traffic Division,Signs & Signals,Missing Sign,BTDT_Sign Shop_Sign Installation,BTDT,,,6 Glenway St  Dorchester  MA  02121,7.0,03,4.0,B3,Greater Mattapan,13.0,Ward 14,1403.0,R3,6 Glenway St,2121.0,Address,64754.0,42.3017,-71.0848,Self Service,"(42.3017, -71.0848)"
472610,101001245275,01/10/2015 10:48:54 AM,01/27/2015 08:30:00 AM,01/21/2015 08:26:35 AM,ONTIME,Closed,Case Closed Case Resolved,Missing Sign,Transportation - Traffic Division,Signs & Signals,Missing Sign,BTDT_Sign Shop_Sign Installation,BTDT,,,19 Cohasset St  Roslindale  MA  02131,12.0,06,5.0,E5,Roslindale,10.0,Ward 20,2002.0,R1,19 Cohasset St,2131.0,Address,34285.0,42.2857,-71.1304,Self Service,"(42.2857, -71.1304)"
472725,101001245469,01/11/2015 11:41:15 AM,01/27/2015 08:30:00 AM,01/14/2015 07:35:31 AM,ONTIME,Closed,Case Closed Case Resolved Work completed 1/13/15.,Missing Sign,Transportation - Traffic Division,Signs & Signals,Missing Sign,BTDT_Sign Shop_Sign Installation,BTDT,https://cityworker.cityofboston.gov:8443/attachments/report/54b2a7a5d052065cdb4d0e80/photo/Report.jpg,,135 Ashley St  East Boston  MA  02128,1.0,09,1.0,A7,East Boston,1.0,Ward 1,113.0,R1,135 Ashley St,2128.0,Address,5243.0,42.3892,-71.0101,City Worker App,"(42.3892, -71.0101)"
472984,101001245824,01/12/2015 09:43:32 AM,01/27/2015 07:00:00 PM,01/13/2015 02:37:06 PM,ONTIME,Closed,Case Closed Case Resolved We have no record of No Parking Signs on this Street - If you and your neighbors are looking for one side to be posted - Please provide a petition of all the residents on the street deciding on what side it should be on. Submit this petition to your Mayor's Office of Neighborhood Services coordinator Alec Bonelli to coordinate with BTD Engineering,Missing Sign,Transportation - Traffic Division,Signs & Signals,Missing Sign,BTDT_Engineering_New Sign and Pavement Marking Requests,BTDT,,,10 Rosecliff Ter  Roslindale  MA  02131,12.0,06,5.0,E5,Roslindale,10.0,18,1810.0,,10 Rosecliff Ter,2131.0,Address,352991.0,42.3594,-71.0587,Self Service,"(0, 0)"
472994,101001245840,01/12/2015 09:57:37 AM,01/27/2015 09:57:37 AM,01/14/2015 07:30:30 AM,ONTIME,Closed,Case Closed Case Resolved Work completed 1/13/15.,Missing Sign,Transportation - Traffic Division,Signs & Signals,Missing Sign,BTDT_Sign Shop_Sign Installation,BTDT,,,50-54 Devonshire St  Boston  MA  02109,3.0,1C,1.0,A1,Downtown / Financial District,3.0,Ward 3,306.0,CL,50-54 Devonshire St,2109.0,Address,47632.0,42.3583,-71.0571,City Worker App,"(42.3583, -71.0571)"
473123,101001246073,01/12/2015 01:12:33 PM,01/27/2015 01:12:33 PM,01/15/2015 10:06:53 AM,ONTIME,Closed,Case Closed Case Resolved Work completed 1/15/14.,Missing Sign,Transportation - Traffic Division,Signs & Signals,Missing Sign,BTDT_Sign Shop_Sign Installation,BTDT,,,INTERSECTION of Berkeley St & Stanhope St  Boston  MA,4.0,1C,2.0,D4,Back Bay,6.0,Ward 5,501.0,,INTERSECTION Berkeley St & Stanhope St,,Intersection,1357.0,42.3491,-71.072,City Worker App,"(42.3491, -71.072)"
473401,101001246483,01/13/2015 09:43:41 AM,01/15/2015 09:43:41 AM,01/21/2015 10:06:32 AM,OVERDUE,Closed,Case Closed Case Resolved Work resolved 1/21/15.,Missing Sign,Transportation - Traffic Division,Signs & Signals,Missing Sign,BTDT_Sign Shop_Sign Installation,BTDT,,,INTERSECTION of Intervale St & Magnolia St  Dorchester  MA,7.0,03,4.0,B2,Roxbury,13.0,Ward 14,1401.0,,INTERSECTION Intervale St & Magnolia St,,Intersection,6501.0,42.3097,-71.0752,Constituent Call,"(42.3097, -71.0752)"
473504,101001246642,01/13/2015 12:56:44 PM,01/28/2015 12:56:43 PM,01/14/2015 01:29:13 PM,ONTIME,Closed,Case Closed Case Noted Work completed 1/14/15.,Missing Sign,Transportation - Traffic Division,Signs & Signals,Missing Sign,BTDT_Sign Shop_Sign Installation,BTDT,,,INTERSECTION of Beacon St & Bowdoin St  Boston  MA,3.0,1B,8.0,A1,Downtown / Financial District,14.0,Ward 5,503.0,,INTERSECTION Beacon St & Bowdoin St,,Intersection,1111.0,42.3579,-71.0627,City Worker App,"(42.3579, -71.0627)"
473759,101001246999,01/14/2015 08:40:02 AM,01/29/2015 08:38:00 AM,01/21/2015 01:16:48 PM,ONTIME,Closed,Case Closed Case Resolved Work completed 1/21/15.,Missing Sign,Transportation - Traffic Division,Signs & Signals,Missing Sign,BTDT_Sign Shop_Sign Installation,BTDT,,,126 High St  Boston  MA  02110,3.0,1C,1.0,A1,Downtown / Financial District,3.0,Ward 3,306.0,C,126 High St,2110.0,Address,166215.0,42.3556,-71.0539,Constituent Call,"(42.3556, -71.0539)"
473775,101001247030,01/14/2015 09:07:12 AM,01/29/2015 09:07:12 AM,01/23/2015 07:28:22 AM,ONTIME,Closed,Case Closed Case Resolved Work completed 1/22/15.,Missing Sign,Transportation - Traffic Division,Signs & Signals,Missing Sign,BTDT_Sign Shop_Sign Installation,BTDT,,,INTERSECTION of Corey Rd & Cummings Rd  Brighton  MA,11.0,04,9.0,D14,Allston / Brighton,15.0,Ward 21,2112.0,,INTERSECTION Corey Rd & Cummings Rd,,Intersection,3508.0,42.3403,-71.1424,Self Service,"(42.3403, -71.1424)"
473777,101001247033,01/14/2015 09:12:09 AM,01/29/2015 09:12:09 AM,01/16/2015 12:46:52 PM,ONTIME,Closed,Case Closed Case Resolved Work completed 1/16/15.,Missing Sign,Transportation - Traffic Division,Signs & Signals,Missing Sign,BTDT_Sign Shop_Sign Installation,BTDT,https://cityworker.cityofboston.gov:8443/attachments/report/54b67936d052065cdb4d246c/photo/Report.jpg,,18 Francis St  Boston  MA  02115,4.0,10A,8.0,B2,Mission Hill,14.0,Ward 10,1003.0,A,18 Francis St,2115.0,Address,60420.0,42.3346,-71.1059,City Worker App,"(42.3346, -71.1059)"
473864,101001247151,01/14/2015 11:04:52 AM,01/29/2015 11:04:52 AM,03/03/2015 12:10:52 PM,OVERDUE,Closed,Case Closed Case Resolved Work completed 3/3/2015.,Missing Sign,Transportation - Traffic Division,Signs & Signals,Missing Sign,BTDT_Sign Shop_Sign Installation,BTDT,,,INTERSECTION of E Cottage St & W Cottage St  Roxbury  MA,7.0,03,7.0,B2,Roxbury,13.0,Ward 8,805.0,,INTERSECTION E Cottage St & W Cottage St,,Intersection,3585.0,42.3214,-71.0722,Self Service,"(42.3214, -71.0722)"
473965,101001247301,01/14/2015 01:32:59 PM,01/29/2015 01:32:59 PM,01/21/2015 08:22:53 AM,ONTIME,Closed,Case Closed Case Resolved,Missing Sign,Transportation - Traffic Division,Signs & Signals,Missing Sign,BTDT_Sign Shop_Sign Installation,BTDT,,,161 Devonshire St  Boston  MA  02110,3.0,1C,1.0,A1,Downtown / Financial District,3.0,Ward 3,306.0,C,161 Devonshire St,2110.0,Address,155974.0,42.3563,-71.0575,City Worker App,"(42.3563, -71.0575)"
474278,101001247777,01/15/2015 10:40:27 AM,01/30/2015 10:40:27 AM,01/16/2015 12:45:22 PM,ONTIME,Closed,Case Closed Case Resolved Work completed 1/16/15.,Missing Sign,Transportation - Traffic Division,Signs & Signals,Missing Sign,BTDT_Sign Shop_Sign Installation,BTDT,,,INTERSECTION of Lawrence St & Phipps St  Charlestown  MA,3.0,1A,1.0,A15,Charlestown,2.0,Ward 2,206.0,,INTERSECTION Lawrence St & Phipps St,,Intersection,6793.0,42.3767,-71.0672,City Worker App,"(42.3767, -71.0672)"
474280,101001247779,01/15/2015 10:42:39 AM,01/30/2015 10:42:39 AM,01/21/2015 10:07:02 AM,ONTIME,Closed,Case Closed Case Resolved Work resolved 1/21/15.,Missing Sign,Transportation - Traffic Division,Signs & Signals,Missing Sign,BTDT_Sign Shop_Sign Installation,BTDT,https://cityworker.cityofboston.gov:8443/attachments/report/54b7dfeed052065cdb4d3206/photo/Report.jpg,,91 Everett St  East Boston  MA  02128,1.0,09,1.0,A7,East Boston,1.0,Ward 1,101.0,R3,91 Everett St,2128.0,Address,55184.0,42.3673,-71.0345,City Worker App,"(42.3673, -71.0345)"
474302,101001247808,01/15/2015 11:09:51 AM,01/30/2015 11:09:51 AM,01/16/2015 12:43:25 PM,ONTIME,Closed,Case Closed Case Resolved Work completed 1/16/15.,Missing Sign,Transportation - Traffic Division,Signs & Signals,Missing Sign,BTDT_Sign Shop_Sign Installation,BTDT,,,33 Bowdoin St  Boston  MA  02114,3.0,1B,1.0,A1,Boston,3.0,03,306.0,E,33 Bowdoin St,2114.0,Address,17609.0,42.3602,-71.0631,City Worker App,"(42.3602, -71.0631)"
474351,101001247864,01/15/2015 12:17:12 PM,01/30/2015 12:17:12 PM,01/16/2015 12:44:15 PM,ONTIME,Closed,Case Closed Case Resolved Work completed 1/16/15.,Missing Sign,Transportation - Traffic Division,Signs & Signals,Missing Sign,BTDT_Sign Shop_Sign Installation,BTDT,,,INTERSECTION of Clarendon St & Stuart St  Boston  MA,4.0,1C,2.0,D4,Back Bay,6.0,Ward 4,402.0,,INTERSECTION Clarendon St & Stuart St,,Intersection,3072.0,42.3489,-71.0744,City Worker App,"(42.3489, -71.0744)"
474439,101001247997,01/15/2015 02:34:48 PM,01/20/2015 02:34:48 PM,01/16/2015 09:25:50 AM,ONTIME,Closed,Case Closed Case Noted Duplicate of CRM # 246483 which is currently being processed,Missing Sign,Transportation - Traffic Division,Signs & Signals,Missing Sign,BTDT_District 03,BTDT,,,INTERSECTION of Intervale St & Magnolia St  Dorchester  MA,7.0,03,4.0,B2,Roxbury,13.0,Ward 14,1401.0,,INTERSECTION Intervale St & Magnolia St,,Intersection,6501.0,42.3097,-71.0752,Constituent Call,"(42.3097, -71.0752)"
474802,101001248550,01/16/2015 12:28:19 PM,02/02/2015 12:28:19 PM,01/21/2015 08:22:21 AM,ONTIME,Closed,Case Closed Case Resolved,Missing Sign,Transportation - Traffic Division,Signs & Signals,Missing Sign,BTDT_Sign Shop_Sign Installation,BTDT,,,INTERSECTION of Clarendon St & Stanhope St  Boston  MA,4.0,1C,2.0,D4,Back Bay,6.0,Ward 4,402.0,,INTERSECTION Clarendon St & Stanhope St,,Intersection,3073.0,42.3481,-71.074,City Worker App,"(42.3481, -71.074)"
475093,101001248974,01/17/2015 11:41:26 AM,01/22/2015 11:41:26 AM,01/22/2015 11:22:32 AM,ONTIME,Closed,Case Closed Case Resolved,Missing Sign,Transportation - Traffic Division,Signs & Signals,Missing Sign,BTDT_Sign Shop_Sign Installation,BTDT,,,INTERSECTION of Duval St & Litchfield St  Brighton  MA,11.0,04,9.0,D14,Allston / Brighton,15.0,Ward 22,2205.0,,INTERSECTION Duval St & Litchfield St,,Intersection,4340.0,42.3605,-71.1405,Constituent Call,"(42.3605, -71.1405)"
475447,101001249452,01/19/2015 06:01:08 PM,02/03/2015 08:30:00 AM,04/02/2015 09:57:27 AM,OVERDUE,Closed,Case Closed Case Resolved Work completed 4/1/15.,Missing Sign,Transportation - Traffic Division,Signs & Signals,Missing Sign,BTDT_Sign Shop_Sign Installation,BTDT,,,INTERSECTION of Carmel St & Delle Ave  Mission Hill  MA,9.0,10A,8.0,B2,Mission Hill,14.0,Ward 10,1002.0,,INTERSECTION Carmel St & Delle Ave,,Intersection,2451.0,42.3318,-71.1005,Self Service,"(42.3318, -71.1005)"
475494,101001249510,01/20/2015 02:55:01 AM,02/03/2015 08:30:00 AM,01/21/2015 07:52:22 AM,ONTIME,Closed,Case Closed Case Noted work order was wrote 1-15-2015 will get to on normal work process,Missing Sign,Transportation - Traffic Division,Signs & Signals,Missing Sign,BTDT_District 02,BTDT,https://cityworker.cityofboston.gov:8443/attachments/report/54be09d2d052ca5552ff6507/photo/Report.jpg,,5245 Washington St  West Roxbury  MA  02132,12.0,06,6.0,E5,West Roxbury,12.0,Ward 20,2015.0,R1,5245 Washington St,2132.0,Address,145672.0,42.2602,-71.1588,City Worker App,"(42.2602, -71.1588)"
475928,101001249954,01/20/2015 08:09:09 AM,02/03/2015 08:30:00 AM,01/20/2015 11:49:28 AM,ONTIME,Closed,Case Closed Case Invalid test only,Missing Sign,Transportation - Traffic Division,Signs & Signals,Missing Sign,BTDT_District 06,BTDT,,,INTERSECTION of Washington St & Devonshire Pl  Boston  MA,3.0,1C,1.0,A1,Downtown / Financial District,3.0,Ward 3,306.0,,INTERSECTION Washington St & Devonshire Pl,,Intersection,6081.0,42.3586,-71.0578,City Worker App,"(42.3586, -71.0578)"
475961,101001249997,01/20/2015 08:52:38 AM,02/03/2015 08:52:38 AM,01/20/2015 11:49:45 AM,ONTIME,Closed,Case Closed Case Invalid test only,Missing Sign,Transportation - Traffic Division,Signs & Signals,Missing Sign,BTDT_District 06,BTDT,,,INTERSECTION of Devonshire St & State St  Boston  MA,3.0,1C,1.0,A1,Downtown / Financial District,3.0,Ward 3,306.0,,INTERSECTION Devonshire St & State St,,Intersection,4060.0,42.3588,-71.057,City Worker App,"(42.3588, -71.057)"
476104,101001250226,01/20/2015 11:22:39 AM,02/03/2015 11:22:39 AM,01/20/2015 11:29:55 AM,ONTIME,Closed,Case Closed Case Invalid test,Missing Sign,Transportation - Traffic Division,Signs & Signals,Missing Sign,BTDT_District 06,BTDT,,,INTERSECTION of Washington St & West St  Boston  MA,3.0,1C,2.0,A1,Downtown / Financial District,4.0,Ward 3,308.0,,INTERSECTION Washington St & West St,,Intersection,6073.0,42.3543,-71.0617,City Worker App,"(42.3543, -71.0617)"
476571,101001250950,01/21/2015 10:20:39 AM,02/04/2015 10:20:39 AM,05/18/2015 01:58:07 PM,OVERDUE,Closed,Case Closed. Closed date : 2015-05-18 13:58:07.03 Case Resolved,Missing Sign,Transportation - Traffic Division,Signs & Signals,Missing Sign,BTDT_Sign Shop_Sign Installation,BTDT,,,INTERSECTION of Braintree St & Franklin St  Brighton  MA,11.0,04,9.0,D14,Allston / Brighton,15.0,Ward 22,2202.0,,INTERSECTION Braintree St & Franklin St,,Intersection,1872.0,42.3559,-71.1328,Self Service,"(42.3559, -71.1328)"
476608,101001251002,01/21/2015 10:53:16 AM,02/04/2015 10:53:16 AM,02/25/2015 02:34:09 PM,OVERDUE,Closed,Case Closed Case Resolved Work completed 2/25/15.,Missing Sign,Transportation - Traffic Division,Signs & Signals,Missing Sign,BTDT_Sign Shop_Sign Installation,BTDT,,,1575 Commonwealth Ave  Brighton  MA  02135,11.0,04,9.0,D14,Allston / Brighton,15.0,Ward 21,2110.0,A,1575 Commonwealth Ave,2135.0,Address,37860.0,42.3444,-71.1431,Self Service,"(42.3444, -71.1431)"
476610,101001251007,01/21/2015 10:55:02 AM,02/04/2015 10:55:02 AM,02/25/2015 02:32:50 PM,OVERDUE,Closed,Case Closed Case Resolved Work completed 2/25/15.,Missing Sign,Transportation - Traffic Division,Signs & Signals,Missing Sign,BTDT_Sign Shop_Sign Installation,BTDT,,,21 Presentation Rd  Brighton  MA  02135,11.0,04,9.0,D14,Allston / Brighton,15.0,Ward 22,2213.0,R2,21 Presentation Rd,2135.0,Address,112681.0,42.3534,-71.1717,Self Service,"(42.3534, -71.1717)"
476622,101001251035,01/21/2015 11:08:46 AM,02/04/2015 11:08:46 AM,02/27/2015 07:08:07 AM,OVERDUE,Closed,Case Closed Case Resolved Work completed 2/26/15,Missing Sign,Transportation - Traffic Division,Signs & Signals,Missing Sign,BTDT_Sign Shop_Sign Installation,BTDT,https://cityworker.cityofboston.gov:8443/attachments/report/54bfcf0cd052fe3c4d00fc72/photo/Report.jpg,,17-19 Horace St  East Boston  MA  02128,1.0,09,1.0,A7,East Boston,1.0,Ward 1,111.0,R2,17-19 Horace St,2128.0,Address,75322.0,42.3815,-71.0188,City Worker App,"(42.3815, -71.0188)"
477153,101001251878,01/22/2015 12:07:18 PM,02/05/2015 12:07:18 PM,01/23/2015 12:24:42 PM,ONTIME,Closed,Case Closed Case Resolved Work completed 1/23/15.,Missing Sign,Transportation - Traffic Division,Signs & Signals,Missing Sign,BTDT_Sign Shop_Sign Installation,BTDT,,,INTERSECTION of Ninth St & Third Ave  Charlestown  MA,3.0,1A,1.0,A15,Charlestown,2.0,Ward 2,202.0,,INTERSECTION Ninth St & Third Ave,,Intersection,7584.0,42.3767,-71.0531,City Worker App,"(42.3767, -71.0531)"
477193,101001251933,01/22/2015 01:05:04 PM,02/05/2015 01:05:04 PM,01/23/2015 12:22:55 PM,ONTIME,Closed,Case Closed Case Resolved Work completed 1/23/15.,Missing Sign,Transportation - Traffic Division,Signs & Signals,Missing Sign,BTDT_Sign Shop_Sign Installation,BTDT,,,1 Huntington Ave  Boston  MA  02116,4.0,1C,2.0,D4,Boston,6.0,04,402.0,CM,1 Huntington Ave,2116.0,Address,155058.0,42.3487,-71.0783,City Worker App,"(42.3487, -71.0783)"
477394,101001252253,01/23/2015 07:40:45 AM,01/27/2015 07:40:45 AM,01/26/2015 01:40:31 PM,ONTIME,Closed,Case Closed Case Resolved Work completed 1/26/15.,Missing Sign,Transportation - Traffic Division,Signs & Signals,Missing Sign,BTDT_Sign Shop_Sign Installation,BTDT,,,INTERSECTION of Court St & State St  Boston  MA,3.0,1C,1.0,A1,Downtown / Financial District,3.0,Ward 3,306.0,,INTERSECTION Court St & State St,,Intersection,3608.0,42.3588,-71.0578,City Worker App,"(42.3588, -71.0578)"
477410,101001252290,01/23/2015 08:19:40 AM,02/06/2015 08:30:00 AM,01/30/2015 08:44:10 AM,ONTIME,Closed,Case Closed Duplicate of Existing Case Duplicate of CRM# 252212,Missing Sign,Transportation - Traffic Division,Signs & Signals,Missing Sign,BTDT_District 01,BTDT,https://cityworker.cityofboston.gov:8443/attachments/report/54c24a66d0522e4ef0e338f7/photo/Report.jpg,,INTERSECTION of Bennington St & Moore St  East Boston  MA,1.0,09,1.0,A7,East Boston,1.0,Ward 1,111.0,,INTERSECTION Bennington St & Moore St,,Intersection,1328.0,42.3826,-71.0184,City Worker App,"(42.3826, -71.0184)"
477680,101001252757,01/23/2015 02:32:36 PM,01/27/2015 02:32:36 PM,01/26/2015 12:06:44 PM,ONTIME,Closed,Case Closed Case Resolved The stop sign is posted on Rugg rd and Denby rd.,Missing Sign,Transportation - Traffic Division,Signs & Signals,Missing Sign,BTDT_District 01,BTDT,,,INTERSECTION of Denby Rd & Rugg Rd  Allston  MA,11.0,04,9.0,D14,Allston / Brighton,15.0,Ward 22,2202.0,,INTERSECTION Denby Rd & Rugg Rd,,Intersection,4015.0,42.356,-71.1353,Constituent Call,"(42.356, -71.1353)"
477742,101001252857,01/23/2015 04:11:43 PM,02/06/2015 04:11:43 PM,05/18/2015 02:02:28 PM,OVERDUE,Closed,Case Closed. Closed date : 2015-05-18 14:02:28.647 Case Resolved,Missing Sign,Transportation - Traffic Division,Signs & Signals,Missing Sign,BTDT_Sign Shop_Sign Installation,BTDT,,,48 Dudley St  Roxbury  MA  02119,7.0,10B,7.0,B2,Roxbury,13.0,Ward 9,905.0,CL,48 Dudley St,2119.0,Address,49760.0,42.3295,-71.0877,Constituent Call,"(42.3295, -71.0877)"
478431,101001254085,01/26/2015 10:33:07 AM,02/09/2015 10:33:07 AM,02/24/2015 08:10:47 AM,OVERDUE,Closed,Case Closed Case Resolved,Missing Sign,Transportation - Traffic Division,Signs & Signals,Missing Sign,BTDT_Sign Shop_Sign Installation,BTDT,,,INTERSECTION of Broad St & Central St  Boston  MA,3.0,1C,1.0,A1,Downtown / Financial District,3.0,Ward 3,306.0,,INTERSECTION Broad St & Central St,,Intersection,1969.0,42.3587,-71.0544,City Worker App,"(42.3587, -71.0544)"
478437,101001254096,01/26/2015 10:35:44 AM,02/09/2015 10:35:43 AM,02/24/2015 08:11:04 AM,OVERDUE,Closed,Case Closed Case Resolved,Missing Sign,Transportation - Traffic Division,Signs & Signals,Missing Sign,BTDT_Sign Shop_Sign Installation,BTDT,,,INTERSECTION of Central St & India St  Boston  MA,3.0,1C,1.0,A1,Downtown / Financial District,3.0,Ward 3,306.0,,INTERSECTION Central St & India St,,Intersection,2601.0,42.3588,-71.0538,City Worker App,"(42.3588, -71.0538)"
478654,101001254604,01/26/2015 10:01:52 PM,02/10/2015 08:30:00 AM,03/20/2015 10:19:55 AM,OVERDUE,Closed,Case Closed Case Resolved Work completed 3/20/15.,Missing Sign,Transportation - Traffic Division,Signs & Signals,Missing Sign,BTDT_Sign Shop_Sign Installation,BTDT,,,34 Pond St  Dorchester  MA  02125,7.0,03,3.0,C11,Dorchester,7.0,Ward 13,1307.0,R3,34 Pond St,2125.0,Address,111703.0,42.3189,-71.0587,Self Service,"(42.3189, -71.0587)"
483085,101001259823,01/28/2015 07:32:54 PM,02/12/2015 08:30:00 AM,02/25/2015 12:29:13 PM,OVERDUE,Closed,Case Closed Case Resolved Work completed 2/25/15.,Missing Sign,Transportation - Traffic Division,Signs & Signals,Missing Sign,BTDT_Sign Shop_Sign Installation,BTDT,,,INTERSECTION of E Cottage St & Pleasant St  Dorchester  MA,7.0,03,3.0,C11,Dorchester,7.0,Ward 13,1307.0,,INTERSECTION E Cottage St & Pleasant St,,Intersection,3592.0,42.3186,-71.0589,Self Service,"(42.3186, -71.0589)"
484662,101001262004,01/29/2015 01:42:29 PM,02/02/2015 01:42:29 PM,03/17/2015 11:53:38 AM,OVERDUE,Closed,Case Closed Case Resolved Work completed 3/17/15.,Missing Sign,Transportation - Traffic Division,Signs & Signals,Missing Sign,BTDT_Sign Shop_Sign Installation,BTDT,,,INTERSECTION of Denby Rd & Rugg Rd  Allston  MA,11.0,04,9.0,D14,Allston / Brighton,15.0,Ward 22,2202.0,,INTERSECTION Denby Rd & Rugg Rd,,Intersection,4015.0,42.356,-71.1353,Constituent Call,"(42.356, -71.1353)"
485892,101001263970,01/30/2015 09:24:17 AM,02/13/2015 09:24:17 AM,03/05/2015 10:13:41 AM,OVERDUE,Closed,Case Closed Case Resolved WorK completed 3/5/15.,Missing Sign,Transportation - Traffic Division,Signs & Signals,Missing Sign,BTDT_Sign Shop_Sign Installation,BTDT,,,INTERSECTION of Merchants Row & State St  Boston  MA,3.0,1C,1.0,A1,Downtown / Financial District,3.0,Ward 3,306.0,,INTERSECTION Merchants Row & State St,,Intersection,7253.0,42.3591,-71.0554,City Worker App,"(42.3591, -71.0554)"
486090,101001264318,01/30/2015 11:00:26 AM,02/13/2015 11:00:26 AM,03/11/2015 02:26:38 PM,OVERDUE,Closed,Case Closed Case Resolved Work completed 3/11/15.,Missing Sign,Transportation - Traffic Division,Signs & Signals,Missing Sign,BTDT_Sign Shop_Sign Installation,BTDT,,,INTERSECTION of Congress St & Quaker Ln  Boston  MA,3.0,1C,1.0,A1,Downtown / Financial District,3.0,Ward 3,306.0,,INTERSECTION Congress St & Quaker Ln,,Intersection,3432.0,42.358,-71.0565,City Worker App,"(42.358, -71.0565)"
486147,101001264402,01/30/2015 11:27:41 AM,02/13/2015 11:27:41 AM,02/24/2015 08:12:22 AM,OVERDUE,Closed,Case Closed Case Resolved,Missing Sign,Transportation - Traffic Division,Signs & Signals,Missing Sign,BTDT_Sign Shop_Sign Installation,BTDT,,,INTERSECTION of Batterymarch St & Milk St  Boston  MA,3.0,1C,1.0,A1,Downtown / Financial District,3.0,Ward 3,306.0,,INTERSECTION Batterymarch St & Milk St,,Intersection,1021.0,42.3577,-71.0544,City Worker App,"(42.3577, -71.0544)"
486322,101001264692,01/30/2015 01:25:24 PM,02/13/2015 01:25:24 PM,02/24/2015 08:13:26 AM,OVERDUE,Closed,Case Closed Case Resolved,Missing Sign,Transportation - Traffic Division,Signs & Signals,Missing Sign,BTDT_Sign Shop_Sign Installation,BTDT,,,560 Boylston St  Boston  MA  02116,4.0,1C,2.0,D4,Boston,6.0,04,402.0,,560 Boylston St,2116.0,Address,342031.0,42.3594,-71.0587,City Worker App,"(0, 0)"
493070,101001274145,02/04/2015 10:58:16 AM,02/06/2015 10:58:16 AM,03/17/2015 11:56:18 AM,OVERDUE,Closed,Case Closed Case Resolved Work completed 3/17/15.,Missing Sign,Transportation - Traffic Division,Signs & Signals,Missing Sign,BTDT_Sign Shop_Sign Installation,BTDT,https://cityworker.cityofboston.gov:8443/attachments/report/54d24194d052841a638fa04d/photo/Report.jpg,,INTERSECTION of Cutter Rd & Dow Rd  West Roxbury  MA,12.0,06,6.0,E5,West Roxbury,12.0,Ward 20,2005.0,,INTERSECTION Cutter Rd & Dow Rd,,Intersection,3796.0,42.2809,-71.1671,City Worker App,"(42.2809, -71.1671)"
495145,101001277335,02/05/2015 09:38:31 AM,02/09/2015 09:38:31 AM,04/15/2015 11:02:02 AM,OVERDUE,Closed,Case Closed Case Resolved Work complete 4/15/15.,Missing Sign,Transportation - Traffic Division,Signs & Signals,Missing Sign,BTDT_Sign Shop_Sign Installation,BTDT,,,INTERSECTION of Caddy Rd & Sanford St  Mattapan  MA,8.0,07,3.0,B3,Dorchester,7.0,Ward 17,1714.0,,INTERSECTION Caddy Rd & Sanford St,,Intersection,2292.0,42.2736,-71.074,Constituent Call,"(42.2736, -71.074)"
496547,101001279472,02/06/2015 08:44:20 AM,02/23/2015 08:44:20 AM,02/24/2015 10:08:58 AM,OVERDUE,Closed,Case Closed Case Resolved Work completed 2/24/15.,Missing Sign,Transportation - Traffic Division,Signs & Signals,Missing Sign,BTDT_Sign Shop_Sign Installation,BTDT,,,INTERSECTION of Milk St & Pearl St  Boston  MA,3.0,1C,1.0,A1,Downtown / Financial District,3.0,Ward 3,306.0,,INTERSECTION Milk St & Pearl St,,Intersection,7298.0,42.3569,-71.0557,City Worker App,"(42.3569, -71.0557)"
498989,101001283228,02/09/2015 12:05:29 PM,02/24/2015 12:05:29 PM,02/24/2015 10:09:50 AM,ONTIME,Closed,Case Closed Case Resolved Work completed 2/24/15.,Missing Sign,Transportation - Traffic Division,Signs & Signals,Missing Sign,BTDT_Sign Shop_Sign Installation,BTDT,,,206 Newbury St  Boston  MA  02116,4.0,1C,8.0,D4,Boston,14.0,05,508.0,C,206 Newbury St,2116.0,Address,282042.0,42.3499,-71.0804,City Worker App,"(42.3499, -71.0804)"
499719,101001284079,02/09/2015 05:44:08 PM,02/25/2015 08:30:00 AM,02/11/2015 08:59:57 AM,ONTIME,Closed,Case Closed Duplicate of Existing Case duplicate of crm #276140  work order issued 2/5/2015.,Missing Sign,Transportation - Traffic Division,Signs & Signals,Missing Sign,BTDT_District 06,BTDT,,,INTERSECTION of Prince St & Salem St  Boston  MA,3.0,1B,1.0,A1,Downtown / Financial District,3.0,Ward 3,303.0,,INTERSECTION Prince St & Salem St,,Intersection,7971.0,42.3652,-71.0555,Self Service,"(42.3652, -71.0555)"
501459,101001286332,02/10/2015 04:36:24 PM,02/25/2015 04:36:24 PM,03/24/2015 03:10:21 PM,OVERDUE,Closed,Case Closed Case Resolved The neighborhood has decided to eliminate parking on one side of the road and this will help with truck turns into the driveway.,Missing Sign,Transportation - Traffic Division,Signs & Signals,Missing Sign,BTDT_Engineering_New Sign and Pavement Marking Requests,BTDT,,,55 Enterprise St  Dorchester  MA  02125,6.0,03,2.0,C6,Dorchester,5.0,Ward 7,708.0,I,55 Enterprise St,2125.0,Address,54141.0,42.3241,-71.0625,Self Service,"(42.3241, -71.0625)"
502381,101001287700,02/11/2015 09:21:35 AM,02/26/2015 09:21:35 AM,02/24/2015 10:12:33 AM,ONTIME,Closed,Case Closed Case Resolved Work completed 2/24/15.,Missing Sign,Transportation - Traffic Division,Signs & Signals,Missing Sign,BTDT_Sign Shop_Sign Installation,BTDT,,,INTERSECTION of Essex St & Kingston St  Boston  MA,3.0,1C,2.0,A1,Downtown / Financial District,4.0,Ward 3,308.0,,INTERSECTION Essex St & Kingston St,,Intersection,4636.0,42.3525,-71.0594,City Worker App,"(42.3525, -71.0594)"
502538,101001287928,02/11/2015 10:11:11 AM,02/26/2015 10:11:11 AM,02/24/2015 10:09:33 AM,ONTIME,Closed,Case Closed Case Resolved Work completed 2/24/15.,Missing Sign,Transportation - Traffic Division,Signs & Signals,Missing Sign,BTDT_Sign Shop_Sign Installation,BTDT,,,INTERSECTION of Devonshire St & Devonshire Pl  Boston  MA,3.0,1C,1.0,A1,Downtown / Financial District,3.0,Ward 3,306.0,,INTERSECTION Devonshire St & Devonshire Pl,,Intersection,4059.0,42.3586,-71.0572,City Worker App,"(42.3586, -71.0572)"
502546,101001287940,02/11/2015 10:13:59 AM,02/26/2015 10:13:59 AM,02/11/2015 10:41:28 AM,ONTIME,Closed,Case Closed Case Invalid,Missing Sign,Transportation - Traffic Division,Signs & Signals,Missing Sign,BTDT_District 06,BTDT,,,25-29 State St  Boston  MA  02109,3.0,1C,1.0,A1,Boston,3.0,03,306.0,C,25-29 State St,2109.0,Address,170000.0,42.3585,-71.0571,City Worker App,"(42.3585, -71.0571)"
502721,101001288220,02/11/2015 11:30:33 AM,02/26/2015 11:30:33 AM,02/12/2015 07:19:15 AM,ONTIME,Closed,Case Closed Case Resolved,Missing Sign,Transportation - Traffic Division,Signs & Signals,Missing Sign,BTDT_Sign Shop_Sign Installation,BTDT,,,49 Rev Richard A Burke St  South Boston  MA  02127,6.0,05,2.0,C6,South Boston,5.0,07,204.0,,49 Rev Richard A Burke St,2127.0,Address,162744.0,42.3309,-71.0509,City Worker App,"(42.3309, -71.0509)"
502759,101001288272,02/11/2015 11:45:57 AM,02/26/2015 11:45:57 AM,02/13/2015 10:46:22 AM,ONTIME,Closed,"Case Closed Case Noted school st is not a ""school bus"" zone on any section of the street....it is posted as a no parking zone on the right side  resident parking on the left....2 ""no idling signs are posted in the area near Summer st.",Missing Sign,Transportation - Traffic Division,Signs & Signals,Missing Sign,BTDT_District 06,BTDT,,,INTERSECTION of School St & Summer St  Charlestown  MA,3.0,1A,1.0,A15,Charlestown,2.0,Ward 2,205.0,,INTERSECTION School St & Summer St,,Intersection,8308.0,42.3777,-71.0645,Constituent Call,"(42.3777, -71.0645)"
502787,101001288310,02/11/2015 11:56:10 AM,02/26/2015 11:56:10 AM,02/12/2015 07:19:38 AM,ONTIME,Closed,Case Closed Case Resolved,Missing Sign,Transportation - Traffic Division,Signs & Signals,Missing Sign,BTDT_Sign Shop_Sign Installation,BTDT,,,49 Rev Richard A Burke St  South Boston  MA  02127,6.0,05,2.0,C6,South Boston,5.0,07,204.0,,49 Rev Richard A Burke St,2127.0,Address,162744.0,42.3309,-71.0509,City Worker App,"(42.3309, -71.0509)"
502955,101001288553,02/11/2015 01:28:43 PM,02/26/2015 01:28:43 PM,02/24/2015 01:50:58 PM,ONTIME,Closed,Case Closed Case Resolved Work completed 2/24/15.,Missing Sign,Transportation - Traffic Division,Signs & Signals,Missing Sign,BTDT_Sign Shop_Sign Installation,BTDT,,,1 Huntington Ave  Boston  MA  02116,4.0,1C,2.0,D4,Back Bay,6.0,Ward 4,402.0,CC,1 Huntington Ave,2116.0,Address,76138.0,42.3488,-71.078,City Worker App,"(42.3488, -71.078)"
503396,101001289182,02/11/2015 04:56:35 PM,02/26/2015 04:56:35 PM,02/13/2015 11:19:45 AM,ONTIME,Closed,Case Closed Case Noted There is a Woodville pk street name sign on location attached to a wood pole,Missing Sign,Transportation - Traffic Division,Signs & Signals,Missing Sign,BTDT_District 03,BTDT,,,8 Woodville Park  Roxbury  MA  02119,7.0,03,7.0,B2,Roxbury,13.0,Ward 8,805.0,R1,8 Woodville Park,2119.0,Address,151983.0,42.3218,-71.075,Self Service,"(42.3218, -71.075)"
503684,101001289621,02/11/2015 07:36:07 PM,02/16/2015 07:36:07 PM,03/03/2015 01:55:30 PM,OVERDUE,Closed,Case Closed Case Resolved Work completed 3/2/2015.,Missing Sign,Transportation - Traffic Division,Signs & Signals,Missing Sign,BTDT_Sign Shop_Sign Installation,BTDT,,,19 Westminster Ave  Roxbury  MA  02119,9.0,10B,7.0,E13,Roxbury,13.0,Ward 11,1103.0,CD,19 Westminster Ave,2119.0,Address,148523.0,42.316,-71.0957,Constituent Call,"(42.316, -71.0957)"
503997,101001290135,02/12/2015 07:49:42 AM,02/27/2015 08:30:00 AM,02/24/2015 10:10:12 AM,ONTIME,Closed,Case Closed Case Resolved Work completed 2/24/15.,Missing Sign,Transportation - Traffic Division,Signs & Signals,Missing Sign,BTDT_Sign Shop_Sign Installation,BTDT,,,230 Dartmouth St  Boston  MA  02116,4.0,1C,2.0,D4,Back Bay,6.0,Ward 4,402.0,E,230 Dartmouth St,2116.0,Address,46329.0,42.3495,-71.0776,City Worker App,"(42.3495, -71.0776)"
504819,101001291397,02/12/2015 01:52:56 PM,02/27/2015 01:52:56 PM,02/25/2015 01:36:05 PM,ONTIME,Closed,Case Closed Case Resolved Work completed 2/25/15.,Missing Sign,Transportation - Traffic Division,Signs & Signals,Missing Sign,BTDT_Sign Shop_Sign Installation,BTDT,,,99 Harrison Ave  Boston  MA  02111,4.0,1C,2.0,A1,Downtown / Financial District,4.0,03,308.0,C,99 Harrison Ave,2111.0,Address,70098.0,42.3508,-71.0616,City Worker App,"(42.3508, -71.0616)"
506113,101001293315,02/13/2015 11:22:37 AM,03/02/2015 11:22:36 AM,03/09/2015 01:22:58 PM,OVERDUE,Closed,Case Closed Case Resolved Work completed 3/9/15.,Missing Sign,Transportation - Traffic Division,Signs & Signals,Missing Sign,BTDT_Sign Shop_Sign Installation,BTDT,,,INTERSECTION of Lawnwood Pl & Johnson Ave  Charlestown  MA,3.0,1A,1.0,A15,Charlestown,2.0,Ward 2,206.0,,INTERSECTION Lawnwood Pl & Johnson Ave,,Intersection,6788.0,42.3769,-71.0662,City Worker App,"(42.3769, -71.0662)"
513922,101001303665,02/18/2015 09:59:43 AM,02/21/2015 09:51:00 AM,02/20/2015 09:54:04 AM,ONTIME,Closed,Case Closed Case Invalid Case Closed Case Invalid,Missing Sign,Transportation - Traffic Division,Signs & Signals,Missing Sign,BTDT_Administration,BTDT,,,45 Vine St  Charlestown  MA  02129,3.0,1A,1.0,A15,Charlestown,2.0,02,202.0,,45 Vine St,2129.0,Address,347566.0,42.3594,-71.0587,City Worker App,"(0, 0)"
513982,101001303743,02/18/2015 10:20:33 AM,03/04/2015 10:20:33 AM,02/25/2015 12:34:02 PM,ONTIME,Closed,Case Closed Case Resolved Work completed 2/25/15.,Missing Sign,Transportation - Traffic Division,Signs & Signals,Missing Sign,BTDT_Sign Shop_Sign Installation,BTDT,,,INTERSECTION of Corey St & Moulton Way  Charlestown  MA,3.0,1A,1.0,A15,Charlestown,2.0,Ward 2,202.0,,INTERSECTION Corey St & Moulton Way,,Intersection,3518.0,42.377,-71.0563,City Worker App,"(42.377, -71.0563)"
513994,101001303758,02/18/2015 10:23:00 AM,03/04/2015 10:23:00 AM,02/25/2015 12:33:44 PM,ONTIME,Closed,Case Closed Case Resolved Work completed 2/25/15.,Missing Sign,Transportation - Traffic Division,Signs & Signals,Missing Sign,BTDT_Sign Shop_Sign Installation,BTDT,,,50 Walford Way  Charlestown  MA  02129,3.0,1A,1.0,A15,Charlestown,2.0,Ward 2,202.0,E,50 Walford Way,2129.0,Address,326169.0,42.3783,-71.0562,City Worker App,"(42.3783, -71.0562)"
514015,101001303794,02/18/2015 10:31:28 AM,03/04/2015 10:31:28 AM,02/25/2015 12:30:40 PM,ONTIME,Closed,Case Closed Case Resolved Work completed 2/25/15.,Missing Sign,Transportation - Traffic Division,Signs & Signals,Missing Sign,BTDT_Sign Shop_Sign Installation,BTDT,,,INTERSECTION of Monument Sq & Monument St  Charlestown  MA,3.0,1A,1.0,A15,Charlestown,2.0,Ward 2,203.0,,INTERSECTION Monument Sq & Monument St,,Intersection,7383.0,42.3769,-71.0605,City Worker App,"(42.3769, -71.0605)"
514034,101001303820,02/18/2015 10:37:09 AM,03/04/2015 10:37:09 AM,02/25/2015 12:30:23 PM,ONTIME,Closed,Case Closed Case Resolved Work completed 2/25/15.,Missing Sign,Transportation - Traffic Division,Signs & Signals,Missing Sign,BTDT_Sign Shop_Sign Installation,BTDT,,,INTERSECTION of Bunker Hill St & Moulton St  Charlestown  MA,3.0,1A,1.0,A15,Charlestown,2.0,Ward 2,202.0,,INTERSECTION Bunker Hill St & Moulton St,,Intersection,2202.0,42.3765,-71.0568,City Worker App,"(42.3765, -71.0568)"
514269,101001304135,02/18/2015 12:11:56 PM,03/05/2015 12:11:00 PM,05/18/2015 02:12:52 PM,OVERDUE,Closed,Case Closed. Closed date : 2015-05-18 14:12:52.583 Case Resolved,Missing Sign,Transportation - Traffic Division,Signs & Signals,Missing Sign,BTDT_Sign Shop_Sign Installation,BTDT,,,80 Lanark Rd  Brighton  MA  02135,11.0,04,9.0,D14,Allston / Brighton,15.0,Ward 21,2114.0,R2,80 Lanark Rd,2135.0,Address,83800.0,42.3404,-71.1472,Constituent Call,"(42.3404, -71.1472)"
514499,101001304474,02/18/2015 02:12:52 PM,03/04/2015 02:12:52 PM,02/25/2015 12:32:59 PM,ONTIME,Closed,Case Closed Case Resolved Work completed 2/25/15.,Missing Sign,Transportation - Traffic Division,Signs & Signals,Missing Sign,BTDT_Sign Shop_Sign Installation,BTDT,,,INTERSECTION of Otis St & Winthrop Ln  Boston  MA,3.0,1C,1.0,A1,Downtown / Financial District,3.0,Ward 3,306.0,,INTERSECTION Otis St & Winthrop Ln,,Intersection,7749.0,42.355,-71.0577,City Worker App,"(42.355, -71.0577)"
515863,101001306583,02/19/2015 11:50:07 AM,03/05/2015 11:50:07 AM,02/26/2015 12:15:36 PM,ONTIME,Closed,Case Closed Case Noted Research plus Field Verification indicate no such signage at this address - left message for clarification,Missing Sign,Transportation - Traffic Division,Signs & Signals,Missing Sign,BTDT_District 04,BTDT,,,745 River St  Mattapan  MA  02126,8.0,08,5.0,E18,Hyde Park,9.0,Ward 18,1805.0,C,745 River St,2126.0,Address,116718.0,42.2638,-71.1035,Constituent Call,"(42.2638, -71.1035)"
516791,101001307932,02/20/2015 07:43:01 AM,03/06/2015 08:30:00 AM,03/17/2015 01:32:50 PM,OVERDUE,Closed,Case Closed Case Resolved Work completed 3/17/15.,Missing Sign,Transportation - Traffic Division,Signs & Signals,Missing Sign,BTDT_Sign Shop_Sign Installation,BTDT,,,,,,,,,,,,,,,,,42.3594,-71.0587,Self Service,"(0, 0)"
517280,101001308636,02/20/2015 12:22:16 PM,03/06/2015 12:22:16 PM,02/24/2015 01:51:21 PM,ONTIME,Closed,Case Closed Case Resolved Work completed 2/24/15.,Missing Sign,Transportation - Traffic Division,Signs & Signals,Missing Sign,BTDT_Sign Shop_Sign Installation,BTDT,,,INTERSECTION of Cumberland St & Huntington Ave  Boston  MA,4.0,1C,7.0,D4,Back Bay,14.0,Ward 4,405.0,,INTERSECTION Cumberland St & Huntington Ave,,Intersection,3717.0,42.3443,-71.083,City Worker App,"(42.3443, -71.083)"
517462,101001308900,02/20/2015 02:31:37 PM,03/06/2015 02:31:37 PM,02/24/2015 10:11:05 AM,ONTIME,Closed,Case Closed Case Resolved Work completed 2/24/15.,Missing Sign,Transportation - Traffic Division,Signs & Signals,Missing Sign,BTDT_Sign Shop_Sign Installation,BTDT,,,INTERSECTION of Warrenton St & Stuart St  Boston  MA,4.0,1C,2.0,A1,Downtown / Financial District,6.0,Ward 5,501.0,,INTERSECTION Warrenton St & Stuart St,,Intersection,5948.0,42.3511,-71.0661,City Worker App,"(42.3511, -71.0661)"
517511,101001308963,02/20/2015 03:01:48 PM,03/06/2015 03:01:48 PM,02/24/2015 11:54:01 AM,ONTIME,Closed,Case Closed Case Resolved #850 Dorchester ave is a bus stop not a 2 hour patking. Bus stop sign is posted on a edison.,Missing Sign,Transportation - Traffic Division,Signs & Signals,Missing Sign,BTDT_District 05,BTDT,,,850 Dorchester Ave  Dorchester  MA  02125,6.0,03,2.0,C6,Dorchester,5.0,Ward 7,708.0,RC,850 Dorchester Ave,2125.0,Address,48756.0,42.3218,-71.0565,Self Service,"(42.3218, -71.0565)"
518807,101001310893,02/22/2015 12:10:09 PM,03/09/2015 08:30:00 AM,03/12/2015 12:52:39 PM,OVERDUE,Closed,Case Closed Case Resolved Work completed 3/12/15.,Missing Sign,Transportation - Traffic Division,Signs & Signals,Missing Sign,BTDT_Sign Shop_Sign Installation,BTDT,https://cityworker.cityofboston.gov:8443/attachments/report/54ea0d6dd052841a638fee5b/photo/Report.jpg,,1 Moore St  East Boston  MA  02128,1.0,09,1.0,A7,East Boston,1.0,Ward 1,111.0,R1,1 Moore St,2128.0,Address,97199.0,42.3842,-71.02,City Worker App,"(42.3842, -71.02)"
519177,101001311498,02/23/2015 07:55:24 AM,02/25/2015 07:55:24 AM,03/12/2015 12:52:53 PM,OVERDUE,Closed,Case Closed Case Resolved Work completed 3/12/15.,Missing Sign,Transportation - Traffic Division,Signs & Signals,Missing Sign,BTDT_Sign Shop_Sign Installation,BTDT,,,INTERSECTION of Marion St & Paris St  East Boston  MA,1.0,09,1.0,A7,East Boston,1.0,Ward 1,105.0,,INTERSECTION Marion St & Paris St,,Intersection,7094.0,42.3752,-71.0344,Self Service,"(42.3752, -71.0344)"
519584,101001312104,02/23/2015 11:05:28 AM,03/09/2015 11:05:28 AM,03/17/2015 11:53:22 AM,OVERDUE,Closed,Case Closed Case Resolved Work completed 3/17/15.,Missing Sign,Transportation - Traffic Division,Signs & Signals,Missing Sign,BTDT_Sign Shop_Sign Installation,BTDT,,,15 Euston Rd  Brighton  MA  02135,11.0,04,9.0,D14,Allston / Brighton,15.0,Ward 21,2111.0,CM,15 Euston Rd,2135.0,Address,54613.0,42.3423,-71.1469,Constituent Call,"(42.3423, -71.1469)"
521021,101001314216,02/24/2015 11:32:19 AM,03/10/2015 11:32:19 AM,02/24/2015 11:35:20 AM,ONTIME,Closed,Case Closed Case Invalid duplicate......,Missing Sign,Transportation - Traffic Division,Signs & Signals,Missing Sign,BTDT_District 06,BTDT,,,INTERSECTION of Congress St & Quaker Ln  Boston  MA,3.0,1C,1.0,A1,Downtown / Financial District,3.0,Ward 3,306.0,,INTERSECTION Congress St & Quaker Ln,,Intersection,3432.0,42.358,-71.0565,City Worker App,"(42.358, -71.0565)"
521124,101001314359,02/24/2015 12:41:25 PM,03/12/2015 10:09:00 AM,02/26/2015 10:10:42 AM,ONTIME,Closed,Case Closed Case Invalid Correction to SLA Date to fix Reporting issue.,Missing Sign,Transportation - Traffic Division,Signs & Signals,Missing Sign,BTDT_Administration,BTDT,,,185 Dartmouth St  Boston  MA  02116,4.0,1C,2.0,D4,Back Bay,6.0,04,402.0,,185 Dartmouth St,2116.0,Address,344926.0,42.3594,-71.0587,City Worker App,"(0, 0)"
521132,101001314370,02/24/2015 12:45:12 PM,03/10/2015 12:45:12 PM,03/18/2015 02:21:01 PM,OVERDUE,Closed,Case Closed Case Resolved Work completed 3/18/15.,Missing Sign,Transportation - Traffic Division,Signs & Signals,Missing Sign,BTDT_Sign Shop_Sign Installation,BTDT,,,441 Stuart St  Boston  MA  02116,4.0,1C,2.0,D4,Back Bay,6.0,Ward 4,402.0,CM,441 Stuart St,2116.0,Address,131663.0,42.3486,-71.076,City Worker App,"(42.3486, -71.076)"
521840,101001315402,02/25/2015 08:22:49 AM,02/27/2015 08:22:49 AM,03/11/2015 02:32:28 PM,OVERDUE,Closed,Case Closed Case Resolved Work completed 3/11/15.,Missing Sign,Transportation - Traffic Division,Signs & Signals,Missing Sign,BTDT_Sign Shop_Sign Installation,BTDT,,,INTERSECTION of Hyde Park Ave & Stanbro St  Hyde Park  MA,12.0,08,5.0,E18,Hyde Park,10.0,Ward 18,1820.0,,INTERSECTION Hyde Park Ave & Stanbro St,,Intersection,6449.0,42.2354,-71.1327,Constituent Call,"(42.2354, -71.1327)"
522035,101001315711,02/25/2015 10:21:37 AM,03/11/2015 10:21:37 AM,02/27/2015 07:10:28 AM,ONTIME,Closed,Case Closed Case Resolved Work completed 2/26/15,Missing Sign,Transportation - Traffic Division,Signs & Signals,Missing Sign,BTDT_Sign Shop_Sign Installation,BTDT,,,50 Congress St  Boston  MA  02109,3.0,1C,1.0,A1,Downtown / Financial District,3.0,Ward 3,306.0,C,50 Congress St,2109.0,Address,163836.0,42.358,-71.056,City Worker App,"(42.358, -71.056)"
522175,101001315903,02/25/2015 11:36:54 AM,03/11/2015 11:36:54 AM,03/04/2015 12:41:24 PM,ONTIME,Closed,Case Closed Case Resolved Work completed 3/4/15.,Missing Sign,Transportation - Traffic Division,Signs & Signals,Missing Sign,BTDT_Sign Shop_Sign Installation,BTDT,https://cityworker.cityofboston.gov:8443/attachments/report/54edfa21d052841a63900b8e/photo/Report.jpg,,2041 Columbus Ave  Roxbury  MA  02119,9.0,02,7.0,E13,Jamaica Plain,11.0,Ward 11,1105.0,A,2041 Columbus Ave,2119.0,Address,211662.0,42.3141,-71.0965,City Worker App,"(42.3141, -71.0965)"
522314,101001316085,02/25/2015 01:07:41 PM,03/11/2015 01:07:41 PM,03/09/2015 12:37:09 PM,ONTIME,Closed,Case Closed Case Resolved Work completed 3/9/15.,Missing Sign,Transportation - Traffic Division,Signs & Signals,Missing Sign,BTDT_Sign Shop_Sign Installation,BTDT,,,INTERSECTION of Clarendon St & Stuart St  Boston  MA,4.0,1C,2.0,D4,Back Bay,6.0,Ward 4,402.0,,INTERSECTION Clarendon St & Stuart St,,Intersection,3072.0,42.3489,-71.0744,City Worker App,"(42.3489, -71.0744)"
522343,101001316122,02/25/2015 01:26:29 PM,03/11/2015 01:26:29 PM,02/27/2015 01:19:34 PM,ONTIME,Closed,Case Closed Case Resolved Work completed 2/27/15,Missing Sign,Transportation - Traffic Division,Signs & Signals,Missing Sign,BTDT_Sign Shop_Sign Installation,BTDT,,,231 W Newton St  Boston  MA  02116,4.0,1C,7.0,D4,Back Bay,14.0,Ward 4,405.0,CM,231 W Newton St,2116.0,Address,102506.0,42.3444,-71.08,City Worker App,"(42.3444, -71.08)"
523170,101001317301,02/26/2015 09:58:14 AM,03/12/2015 09:58:14 AM,02/27/2015 01:19:06 PM,ONTIME,Closed,Case Closed Case Resolved Work completed 2/27/15,Missing Sign,Transportation - Traffic Division,Signs & Signals,Missing Sign,BTDT_Sign Shop_Sign Installation,BTDT,,,INTERSECTION of Joy St & Pinckney St  Boston  MA,3.0,1B,8.0,A1,Beacon Hill,14.0,Ward 5,503.0,,INTERSECTION Joy St & Pinckney St,,Intersection,6575.0,42.3588,-71.0651,City Worker App,"(42.3588, -71.0651)"
523245,101001317426,02/26/2015 10:38:27 AM,03/12/2015 10:38:27 AM,03/25/2015 02:31:35 PM,OVERDUE,Closed,Case Closed Case Resolved Work completed 3/25/15.,Missing Sign,Transportation - Traffic Division,Signs & Signals,Missing Sign,BTDT_Sign Shop_Sign Installation,BTDT,https://cityworker.cityofboston.gov:8443/attachments/report/54ef3df1d052841a63901486/photo/Report.jpg,,182 Bowdoin St  Dorchester  MA  02121,7.0,03,4.0,C11,Dorchester,8.0,Ward 15,1502.0,R1,182 Bowdoin St,2121.0,Address,17665.0,42.3047,-71.0695,City Worker App,"(42.3047, -71.0695)"
523310,101001317509,02/26/2015 11:02:43 AM,03/12/2015 11:02:43 AM,02/27/2015 01:18:30 PM,ONTIME,Closed,Case Closed Case Resolved Work completed 2/27/15,Missing Sign,Transportation - Traffic Division,Signs & Signals,Missing Sign,BTDT_Sign Shop_Sign Installation,BTDT,,,INTERSECTION of Mason St & West St  Boston  MA,3.0,1C,2.0,A1,Downtown / Financial District,4.0,Ward 3,308.0,,INTERSECTION Mason St & West St,,Intersection,7130.0,42.3548,-71.0627,City Worker App,"(42.3548, -71.0627)"
523521,101001317793,02/26/2015 12:55:33 PM,03/12/2015 12:55:33 PM,02/27/2015 01:18:12 PM,ONTIME,Closed,Case Closed Case Resolved Work completed 2/27/15,Missing Sign,Transportation - Traffic Division,Signs & Signals,Missing Sign,BTDT_Sign Shop_Sign Installation,BTDT,,,342-342A Hanover St  Boston  MA  02113,3.0,1B,1.0,A1,Downtown / Financial District,3.0,03,303.0,RC,342-342A Hanover St,2113.0,Address,69113.0,42.3649,-71.0535,City Worker App,"(42.3649, -71.0535)"
523588,101001317889,02/26/2015 01:49:19 PM,03/12/2015 01:49:19 PM,03/17/2015 01:30:40 PM,OVERDUE,Closed,Case Closed Case Resolved Work completed 3/17/15.,Missing Sign,Transportation - Traffic Division,Signs & Signals,Missing Sign,BTDT_Sign Shop_Sign Installation,BTDT,https://cityworker.cityofboston.gov:8443/attachments/report/54ef6aaad052841a63901c72/photo/Report.jpg,,INTERSECTION of Farrington Ave & Highgate St  Allston  MA,11.0,04,9.0,D14,Allston / Brighton,15.0,Ward 21,2104.0,,INTERSECTION Farrington Ave & Highgate St,,Intersection,4824.0,42.3544,-71.1314,City Worker App,"(42.3544, -71.1314)"
523835,101001318260,02/26/2015 05:19:45 PM,03/02/2015 05:19:45 PM,03/10/2015 10:13:14 AM,OVERDUE,Closed,Case Closed Case Noted Thank you for contacting the Boston Transportation Department. As this is a temporary configuration  only one sign is being installed at each intersection.,Missing Sign,Transportation - Traffic Division,Signs & Signals,Missing Sign,BTDT_Engineering_New Sign and Pavement Marking Requests,BTDT,,,110hf Old Harbor St  South Boston  MA  02127,6.0,05,2.0,C6,South Boston / South Boston Waterfront,5.0,Ward 7,704.0,R3,110hf Old Harbor St,2127.0,Address,105109.0,42.3311,-71.0472,Self Service,"(42.3311, -71.0472)"
524269,101001318895,02/27/2015 10:17:05 AM,03/13/2015 10:17:05 AM,03/03/2015 12:13:41 PM,ONTIME,Closed,Case Closed Case Resolved Work completed 3/3/2015.,Missing Sign,Transportation - Traffic Division,Signs & Signals,Missing Sign,BTDT_Sign Shop_Sign Installation,BTDT,https://cityworker.cityofboston.gov:8443/attachments/report/54f08a6cd052841a639020d3/photo/Report.jpg,,745 River St  Mattapan  MA  02126,8.0,08,5.0,E18,Hyde Park,9.0,Ward 18,1805.0,C,745 River St,2126.0,Address,116718.0,42.2638,-71.1035,City Worker App,"(42.2638, -71.1035)"
524294,101001318928,02/27/2015 10:29:08 AM,03/03/2015 10:29:08 AM,03/12/2015 12:56:51 PM,OVERDUE,Closed,Case Closed Case Resolved Work completed 3/12/15.,Missing Sign,Transportation - Traffic Division,Signs & Signals,Missing Sign,BTDT_Sign Shop_Sign Installation,BTDT,,,INTERSECTION of Burrell St & Clifton St  Roxbury  MA,7.0,03,7.0,B2,Roxbury,13.0,Ward 8,806.0,,INTERSECTION Burrell St & Clifton St,,Intersection,2229.0,42.3229,-71.0708,Self Service,"(42.3229, -71.0708)"
525069,101001320146,02/28/2015 04:00:18 PM,03/04/2015 04:00:18 PM,03/02/2015 08:04:43 AM,ONTIME,Closed,Case Closed Case Noted Location to be re-evaluated for re-installation after winter season.,Missing Sign,Transportation - Traffic Division,Signs & Signals,Missing Sign,BTDT_District 01,BTDT,,,INTERSECTION of Buswell St & Park Dr  Boston  MA,4.0,10A,8.0,D4,Fenway / Kenmore / Audubon Circle / Longwood,14.0,Ward 21,2102.0,,INTERSECTION Buswell St & Park Dr,,Intersection,2258.0,42.3475,-71.1056,Constituent Call,"(42.3475, -71.1056)"
525484,101001320834,03/02/2015 07:38:43 AM,03/16/2015 08:30:00 AM,03/03/2015 12:12:58 PM,ONTIME,Closed,Case Closed Case Resolved Work completed 3/3/2015.,Missing Sign,Transportation - Traffic Division,Signs & Signals,Missing Sign,BTDT_Sign Shop_Sign Installation,BTDT,,,INTERSECTION of Harrison Ave & E Springfield St  Roxbury  MA,4.0,1C,2.0,D4,South End,6.0,Ward 8,802.0,,INTERSECTION Harrison Ave & E Springfield St,,Intersection,5682.0,42.3355,-71.0745,City Worker App,"(42.3355, -71.0745)"
525577,101001320965,03/02/2015 09:24:01 AM,03/16/2015 09:24:01 AM,03/02/2015 10:54:42 AM,ONTIME,Closed,Case Closed Case Noted checked archives and GEO and rule book there was never a STOP SIGN there sorry,Missing Sign,Transportation - Traffic Division,Signs & Signals,Missing Sign,BTDT_District 02,BTDT,,,INTERSECTION of Sanborn Ave & RUMFORD Rd  West Roxbury  MA,12.0,06,6.0,E5,West Roxbury,12.0,Ward 20,2013.0,,INTERSECTION Sanborn Ave & RUMFORD Rd,,Intersection,8279.0,42.2834,-71.1676,Constituent Call,"(42.2834, -71.1676)"
525875,101001321382,03/02/2015 01:07:15 PM,03/16/2015 01:07:15 PM,05/18/2015 02:37:55 PM,OVERDUE,Closed,Case Closed. Closed date : 2015-05-18 14:37:55.087 Case Resolved,Missing Sign,Transportation - Traffic Division,Signs & Signals,Missing Sign,BTDT_Sign Shop_Sign Installation,BTDT,https://cityworker.cityofboston.gov:8443/attachments/report/54f4a6cfd052841a639031c3/photo/Report.jpg,,INTERSECTION of Brighton Ave & Malvern St  Allston  MA,11.0,04,9.0,D14,Allston / Brighton,14.0,Ward 21,2103.0,,INTERSECTION Brighton Ave & Malvern St,,Intersection,1952.0,42.3522,-71.1252,City Worker App,"(42.3522, -71.1252)"
525885,101001321396,03/02/2015 01:12:58 PM,03/16/2015 01:12:58 PM,03/04/2015 09:45:31 AM,ONTIME,Closed,Case Closed Case Resolved Work completed 3/3/15.,Missing Sign,Transportation - Traffic Division,Signs & Signals,Missing Sign,BTDT_Sign Shop_Sign Installation,BTDT,https://cityworker.cityofboston.gov:8443/attachments/report/54f4a825d052841a639031fc/photo/Report.jpg,,911 Massachusetts Ave  Roxbury  MA  02119,7.0,10B,7.0,C6,Roxbury,13.0,Ward 8,806.0,C,911 Massachusetts Ave,2119.0,Address,92668.0,42.3305,-71.0703,City Worker App,"(42.3305, -71.0703)"
525901,101001321422,03/02/2015 01:26:18 PM,03/16/2015 01:26:18 PM,03/03/2015 01:54:55 PM,ONTIME,Closed,Case Closed Case Resolved Work completed 3/2/2015.,Missing Sign,Transportation - Traffic Division,Signs & Signals,Missing Sign,BTDT_Sign Shop_Sign Installation,BTDT,,,INTERSECTION of Devonshire St & Franklin St  Boston  MA,3.0,1C,1.0,A1,Downtown / Financial District,3.0,Ward 3,306.0,,INTERSECTION Devonshire St & Franklin St,,Intersection,4057.0,42.3554,-71.0573,City Worker App,"(42.3554, -71.0573)"
525985,101001321529,03/02/2015 02:06:29 PM,03/16/2015 02:06:29 PM,03/03/2015 07:15:52 AM,ONTIME,Closed,Case Closed Case Invalid No information or eForm provided.,Missing Sign,Transportation - Traffic Division,Signs & Signals,Missing Sign,BTDT_Sign Repair,BTDT,,,3 Saint Casimir St  South Boston  MA  02127,6.0,05,2.0,C6,South Boston,5.0,06,601.0,,3 Saint Casimir St,2127.0,Address,353698.0,42.3594,-71.0587,Constituent Call,"(0, 0)"
526012,101001321562,03/02/2015 02:20:41 PM,03/16/2015 02:20:41 PM,03/03/2015 07:16:36 AM,ONTIME,Closed,Case Closed Case Invalid No information or eForm provided.,Missing Sign,Transportation - Traffic Division,Signs & Signals,Missing Sign,BTDT_Sign Repair,BTDT,,,3 Saint Casimir St  South Boston  MA  02127,6.0,05,2.0,C6,South Boston,5.0,06,601.0,,3 Saint Casimir St,2127.0,Address,353698.0,42.3594,-71.0587,Constituent Call,"(0, 0)"
526386,101001322103,03/03/2015 08:30:52 AM,03/17/2015 08:30:52 AM,03/12/2015 12:55:51 PM,ONTIME,Closed,Case Closed Case Resolved Work completed 3/12/15.,Missing Sign,Transportation - Traffic Division,Signs & Signals,Missing Sign,BTDT_Sign Shop_Sign Installation,BTDT,,,INTERSECTION of Tremont St & Head Pl  Boston  MA,3.0,1C,8.0,A1,,14.0,Ward 5,503.0,,INTERSECTION Tremont St & Head Pl,,Intersection,8553.0,42.3528,-71.0644,City Worker App,"(42.3528, -71.0644)"
526393,101001322113,03/03/2015 08:34:44 AM,03/17/2015 08:34:44 AM,03/04/2015 12:49:21 PM,ONTIME,Closed,Case Closed Case Resolved Work completed 3/4/15.,Missing Sign,Transportation - Traffic Division,Signs & Signals,Missing Sign,BTDT_Sign Shop_Sign Installation,BTDT,,,INTERSECTION of Tremont St & Head Pl  Boston  MA,3.0,1C,8.0,A1,,14.0,Ward 5,503.0,,INTERSECTION Tremont St & Head Pl,,Intersection,8553.0,42.3528,-71.0644,City Worker App,"(42.3528, -71.0644)"
526583,101001322447,03/03/2015 10:13:18 AM,03/17/2015 10:13:18 AM,05/18/2015 02:39:22 PM,OVERDUE,Closed,Case Closed. Closed date : 2015-05-18 14:39:22.473 Case Resolved,Missing Sign,Transportation - Traffic Division,Signs & Signals,Missing Sign,BTDT_Sign Shop_Sign Installation,BTDT,https://cityworker.cityofboston.gov:8443/attachments/report/54f5cf88d052841a639035b5/photo/Report.jpg,,INTERSECTION of Gurney St & Smith St  Mission Hill  MA,9.0,10A,7.0,B2,Mission Hill,13.0,Ward 9,904.0,,INTERSECTION Gurney St & Smith St,,Intersection,5526.0,42.3328,-71.0964,City Worker App,"(42.3328, -71.0964)"
527273,101001323518,03/04/2015 09:22:48 AM,03/18/2015 09:22:48 AM,05/29/2015 10:03:57 AM,OVERDUE,Closed,Case Closed. Closed date : 2015-05-29 10:03:57.063 Case Resolved work completed.,Missing Sign,Transportation - Traffic Division,Signs & Signals,Missing Sign,BTDT_Sign Shop_Sign Installation,BTDT,,,INTERSECTION of Fay St & Harrison Ave  Roxbury  MA,4.0,1C,2.0,D4,South End,4.0,Ward 3,307.0,,INTERSECTION Fay St & Harrison Ave,,Intersection,4838.0,42.3431,-71.0648,City Worker App,"(42.3431, -71.0648)"
527395,101001323670,03/04/2015 10:27:26 AM,03/18/2015 10:27:26 AM,03/05/2015 07:53:40 AM,ONTIME,Closed,Case Closed Case Noted no sign needed at this location,Missing Sign,Transportation - Traffic Division,Signs & Signals,Missing Sign,BTDT_District 04,BTDT,https://cityworker.cityofboston.gov:8443/attachments/report/54f72458d052e1b550e673c0/photo/Report.jpg,,123-125 Richmond St  Dorchester  MA  02124,8.0,07,3.0,C11,Dorchester,7.0,Ward 17,1713.0,R3,123-125 Richmond St,2124.0,Address,115801.0,42.2751,-71.0626,City Worker App,"(42.2751, -71.0626)"
527456,101001323750,03/04/2015 11:09:00 AM,03/18/2015 11:09:00 AM,03/04/2015 11:10:58 AM,ONTIME,Closed,Case Closed Case Invalid,Missing Sign,Transportation - Traffic Division,Signs & Signals,Missing Sign,BTDT_District 02,BTDT,,,925 Centre St  Jamaica Plain  MA  02130,9.0,02,6.0,E13,Jamaica Plain,11.0,Ward 19,1902.0,R1,925 Centre St,2130.0,Address,28293.0,42.3086,-71.1228,City Worker App,"(42.3086, -71.1228)"
527510,101001323829,03/04/2015 12:08:53 PM,03/18/2015 12:08:53 PM,03/05/2015 10:13:58 AM,ONTIME,Closed,Case Closed Case Resolved WorK completed 3/5/15.,Missing Sign,Transportation - Traffic Division,Signs & Signals,Missing Sign,BTDT_Sign Shop_Sign Installation,BTDT,,,22-22 Merchants Row  Boston  MA  02109,3.0,1B,1.0,A1,Downtown / Financial District,3.0,Ward 3,306.0,C,22-22 Merchants Row,2109.0,Address,157866.0,42.3594,-71.0558,City Worker App,"(42.3594, -71.0558)"
527523,101001323846,03/04/2015 12:23:59 PM,03/18/2015 12:23:59 PM,03/18/2015 01:24:57 PM,OVERDUE,Closed,Case Closed Case Resolved Work completed 3/18/15.,Missing Sign,Transportation - Traffic Division,Signs & Signals,Missing Sign,BTDT_Sign Shop_Sign Installation,BTDT,https://cityworker.cityofboston.gov:8443/attachments/report/54f73fa9d052e1b550e6755c/photo/Report.jpg,,644 Columbia Rd  Dorchester  MA  02125,7.0,03,7.0,B2,Dorchester,13.0,Ward 7,710.0,R2,644 Columbia Rd,2125.0,Address,35330.0,42.3186,-71.0638,City Worker App,"(42.3186, -71.0638)"
527540,101001323870,03/04/2015 12:47:04 PM,03/18/2015 12:47:04 PM,03/05/2015 09:41:03 AM,ONTIME,Closed,Case Closed Case Resolved WorK completed 3/5/15.,Missing Sign,Transportation - Traffic Division,Signs & Signals,Missing Sign,BTDT_Sign Shop_Sign Installation,BTDT,,,INTERSECTION of Boylston St & Tremont St  Boston  MA,4.0,1C,2.0,A1,Downtown / Financial District,4.0,Ward 3,308.0,,INTERSECTION Boylston St & Tremont St,,Intersection,1784.0,42.3524,-71.0645,City Worker App,"(42.3524, -71.0645)"
527982,101001324559,03/05/2015 08:42:04 AM,03/19/2015 08:42:04 AM,03/09/2015 10:47:54 AM,ONTIME,Closed,Case Closed Case Resolved Work completed 3/9/15.,Missing Sign,Transportation - Traffic Division,Signs & Signals,Missing Sign,BTDT_Sign Shop_Sign Installation,BTDT,,,55-56 Chatham St  Boston  MA  02109,3.0,1B,1.0,A1,Downtown / Financial District,3.0,Ward 3,306.0,I,55-56 Chatham St,2109.0,Address,30077.0,42.3595,-71.0548,City Worker App,"(42.3595, -71.0548)"
527983,101001324562,03/05/2015 08:44:20 AM,03/19/2015 08:44:20 AM,05/29/2015 10:03:16 AM,OVERDUE,Closed,Case Closed. Closed date : 2015-05-29 10:03:16.543 Case Resolved work completed..,Missing Sign,Transportation - Traffic Division,Signs & Signals,Missing Sign,BTDT_Sign Shop_Sign Installation,BTDT,,,INTERSECTION of Chatham Row & Chatham St  Boston  MA,3.0,1B,1.0,A1,Downtown / Financial District,3.0,Ward 3,306.0,,INTERSECTION Chatham Row & Chatham St,,Intersection,2839.0,42.3597,-71.0544,City Worker App,"(42.3597, -71.0544)"
528003,101001324591,03/05/2015 08:58:35 AM,03/19/2015 08:58:35 AM,03/11/2015 02:30:56 PM,ONTIME,Closed,Case Closed Case Resolved Work completed 3/11/15.,Missing Sign,Transportation - Traffic Division,Signs & Signals,Missing Sign,BTDT_Sign Shop_Sign Installation,BTDT,https://cityworker.cityofboston.gov:8443/attachments/report/54f86105d052e1b550e67c6a/photo/Report.jpg,,18 Eldora St  Mission Hill  MA  02120,9.0,10A,8.0,B2,Mission Hill,14.0,Ward 10,1004.0,R1,18 Eldora St,2120.0,Address,52627.0,42.3313,-71.1084,City Worker App,"(42.3313, -71.1084)"
528128,101001324777,03/05/2015 10:20:03 AM,03/19/2015 10:20:03 AM,03/11/2015 02:27:28 PM,ONTIME,Closed,Case Closed Case Resolved Work completed 3/11/15.,Missing Sign,Transportation - Traffic Division,Signs & Signals,Missing Sign,BTDT_Sign Shop_Sign Installation,BTDT,https://cityworker.cityofboston.gov:8443/attachments/report/54f87422d052e1b550e68026/photo/Report.jpg,,47 Hansborough St  Dorchester  MA  02124,8.0,07,4.0,B3,Greater Mattapan,9.0,Ward 14,1411.0,CM,47 Hansborough St,2124.0,Address,166000.0,42.2884,-71.0923,City Worker App,"(42.2884, -71.0923)"
528140,101001324792,03/05/2015 10:26:27 AM,03/19/2015 10:26:27 AM,03/31/2015 11:25:40 AM,OVERDUE,Closed,Case Closed Case Resolved Work completed 3/30/15,Missing Sign,Transportation - Traffic Division,Signs & Signals,Missing Sign,BTDT_Sign Shop_Sign Installation,BTDT,https://cityworker.cityofboston.gov:8443/attachments/report/54f8759ed052e1b550e6808e/photo/Report.jpg,,7-9 Wilcock St  Dorchester  MA  02124,8.0,07,4.0,B3,Greater Mattapan,9.0,Ward 14,1411.0,R3,7-9 Wilcock St,2124.0,Address,149683.0,42.2869,-71.0912,City Worker App,"(42.2869, -71.0912)"
528302,101001325025,03/05/2015 12:48:58 PM,03/19/2015 12:48:58 PM,03/05/2015 01:27:09 PM,ONTIME,Closed,Case Closed Case Resolved Unable to replace 2 hr parking sign & pole at this location due to the M.B.T.A. posted a bus stop sign with a right arrow pointing towards Mt. Vernon St. on cement light pole making this a legal bus stop. There is a 2 hr parking sign posted on same cement light pole with a left arrow letting vehicles park for 2 hrs after the M.B.T.A. bus stop. Refer to M.B.T.A. for relocation of bus stop.,Missing Sign,Transportation - Traffic Division,Signs & Signals,Missing Sign,BTDT_District 05,BTDT,,,854 Dorchester Ave  Dorchester  MA  02125,6.0,03,2.0,C6,Dorchester,5.0,Ward 7,708.0,CD,854 Dorchester Ave,2125.0,Address,48758.0,42.3217,-71.0566,Constituent Call,"(42.3217, -71.0566)"
528859,101001325842,03/06/2015 10:22:02 AM,03/20/2015 10:22:02 AM,03/11/2015 02:30:20 PM,ONTIME,Closed,Case Closed Case Resolved Work completed 3/11/15.,Missing Sign,Transportation - Traffic Division,Signs & Signals,Missing Sign,BTDT_Sign Shop_Sign Installation,BTDT,https://cityworker.cityofboston.gov:8443/attachments/report/54f9c614d052e6be166bc8f7/photo/Report.jpg,,INTERSECTION of Aguadilla St & Tremont St  Roxbury  MA,4.0,1C,2.0,D4,South End,6.0,Ward 9,901.0,,INTERSECTION Aguadilla St & Tremont St,,Intersection,157.0,42.3417,-71.0759,City Worker App,"(42.3417, -71.0759)"
528915,101001325936,03/06/2015 11:07:07 AM,03/20/2015 11:07:07 AM,03/12/2015 08:42:06 AM,ONTIME,Closed,Case Closed Duplicate of Existing Case,Missing Sign,Transportation - Traffic Division,Signs & Signals,Missing Sign,BTDT_District 04,BTDT,https://cityworker.cityofboston.gov:8443/attachments/report/54f9d0a7d052e6be166bcb05/photo/Report.jpg,,INTERSECTION of Dorchester Ave & East St  Dorchester  MA,7.0,03,3.0,C11,Dorchester,8.0,Ward 15,1506.0,,INTERSECTION Dorchester Ave & East St,,Intersection,4152.0,42.3076,-71.0584,City Worker App,"(42.3076, -71.0584)"
529030,101001326096,03/06/2015 01:10:59 PM,03/20/2015 01:10:59 PM,03/12/2015 01:57:03 PM,ONTIME,Closed,Case Closed Case Resolved Work completed 3/12/15.,Missing Sign,Transportation - Traffic Division,Signs & Signals,Missing Sign,BTDT_Sign Shop_Sign Installation,BTDT,https://cityworker.cityofboston.gov:8443/attachments/report/54f9edaed052e6be166bcf44/photo/Report.jpg,,15 Ellington St  Dorchester  MA  02121,7.0,03,4.0,B3,Greater Mattapan,13.0,Ward 14,1403.0,R2,15 Ellington St,2121.0,Address,52842.0,42.3023,-71.0847,City Worker App,"(42.3023, -71.0847)"
529035,101001326107,03/06/2015 01:15:08 PM,03/20/2015 01:15:07 PM,03/12/2015 12:58:16 PM,ONTIME,Closed,Case Closed Case Resolved Work completed 3/12/15.,Missing Sign,Transportation - Traffic Division,Signs & Signals,Missing Sign,BTDT_Sign Shop_Sign Installation,BTDT,https://cityworker.cityofboston.gov:8443/attachments/report/54f9eeaad052e6be166bcf87/photo/Report.jpg,,INTERSECTION of Michigan Ave & Old Rd  Dorchester  MA,7.0,03,4.0,B3,Greater Mattapan,13.0,Ward 14,1403.0,,INTERSECTION Michigan Ave & Old Rd,,Intersection,7288.0,42.3033,-71.0843,City Worker App,"(42.3033, -71.0843)"
529036,101001326109,03/06/2015 01:16:04 PM,03/20/2015 01:16:04 PM,03/12/2015 12:58:00 PM,ONTIME,Closed,Case Closed Case Resolved Work completed 3/12/15.,Missing Sign,Transportation - Traffic Division,Signs & Signals,Missing Sign,BTDT_Sign Shop_Sign Installation,BTDT,https://cityworker.cityofboston.gov:8443/attachments/report/54f9eee2d052e6be166bcf97/photo/Report.jpg,,INTERSECTION of Michigan Ave & Old Rd  Dorchester  MA,7.0,03,4.0,B3,Greater Mattapan,13.0,Ward 14,1403.0,,INTERSECTION Michigan Ave & Old Rd,,Intersection,7288.0,42.3033,-71.0843,City Worker App,"(42.3033, -71.0843)"
529301,101001326552,03/07/2015 06:49:23 AM,03/11/2015 07:49:23 AM,04/28/2015 02:05:19 PM,OVERDUE,Closed,Case Closed Case Resolved Work completed 4/28/15.,Missing Sign,Transportation - Traffic Division,Signs & Signals,Missing Sign,BTDT_Sign Shop_Sign Installation,BTDT,,,227-229 Wood Ave  Hyde Park  MA  02136,12.0,08,5.0,E18,Hyde Park,10.0,Ward 18,1815.0,R2,227-229 Wood Ave,2136.0,Address,151250.0,42.2659,-71.111,Constituent Call,"(42.2659, -71.111)"
529608,101001327046,03/08/2015 12:27:51 PM,03/23/2015 08:30:00 AM,03/19/2015 01:22:15 PM,ONTIME,Closed,Case Closed Case Resolved Work completed 3/19/15.,Missing Sign,Transportation - Traffic Division,Signs & Signals,Missing Sign,BTDT_Sign Shop_Sign Installation,BTDT,https://cityworker.cityofboston.gov:8443/attachments/report/54fc7882d052dab9f2a8267a/photo/Report.jpg,,53 Boardman St  East Boston  MA  02128,1.0,09,1.0,A7,East Boston,1.0,Ward 1,113.0,R2,53 Boardman St,2128.0,Address,16688.0,42.3887,-71.0097,City Worker App,"(42.3887, -71.0097)"
529655,101001327131,03/08/2015 04:07:36 PM,03/23/2015 08:30:00 AM,03/09/2015 08:30:07 AM,ONTIME,Closed,Case Closed Duplicate of Existing Case Duplicate CRM,Missing Sign,Transportation - Traffic Division,Signs & Signals,Missing Sign,BTDT_District 01,BTDT,https://cityworker.cityofboston.gov:8443/attachments/report/54fcac06d052dab9f2a826ac/photo/Report.jpg,,43 Holton St  Allston  MA  02134,11.0,04,9.0,D14,Allston / Brighton,15.0,Ward 22,2202.0,E,43 Holton St,2134.0,Address,74828.0,42.3601,-71.1354,City Worker App,"(42.3601, -71.1354)"
529657,101001327132,03/08/2015 04:08:42 PM,03/23/2015 08:30:00 AM,06/03/2015 01:49:40 PM,OVERDUE,Closed,Case Closed. Closed date : 2015-06-03 13:49:40.167 Case Resolved,Missing Sign,Transportation - Traffic Division,Signs & Signals,Missing Sign,BTDT_Sign Shop_Sign Installation,BTDT,https://cityworker.cityofboston.gov:8443/attachments/report/54fcac46d052dab9f2a826bc/photo/Report.jpg,,43 Holton St  Allston  MA  02134,11.0,04,9.0,D14,Allston / Brighton,15.0,Ward 22,2202.0,E,43 Holton St,2134.0,Address,74828.0,42.3601,-71.1354,City Worker App,"(42.3601, -71.1354)"
529980,101001327658,03/09/2015 10:37:08 AM,03/23/2015 10:37:08 AM,03/24/2015 01:08:02 PM,OVERDUE,Closed,Case Closed Case Resolved Work completed 3/20/15.,Missing Sign,Transportation - Traffic Division,Signs & Signals,Missing Sign,BTDT_Sign Shop_Sign Installation,BTDT,https://cityworker.cityofboston.gov:8443/attachments/report/54fdb00ed052dab9f2a82fb3/photo/Report.jpg,,20 Greenwood St  Dorchester  MA  02121,7.0,03,4.0,B3,Greater Mattapan,8.0,Ward 14,1402.0,R1,20 Greenwood St,2121.0,Address,66974.0,42.3014,-71.0795,City Worker App,"(42.3014, -71.0795)"
530410,101001328324,03/09/2015 06:56:26 PM,03/24/2015 08:30:00 AM,03/24/2015 01:06:59 PM,OVERDUE,Closed,Case Closed Case Resolved Work completed 3/20/15.,Missing Sign,Transportation - Traffic Division,Signs & Signals,Missing Sign,BTDT_Sign Shop_Sign Installation,BTDT,,,7-9 Argyle St  Dorchester  MA  02124,8.0,07,3.0,C11,Dorchester,8.0,Ward 16,1603.0,R2,7-9 Argyle St,2124.0,Address,4718.0,42.2886,-71.0654,Constituent Call,"(42.2886, -71.0654)"
530507,101001328467,03/10/2015 08:10:02 AM,03/24/2015 08:30:00 AM,04/30/2015 09:53:35 AM,OVERDUE,Closed,Case Closed Case Resolved Work completed 4/30/15.,Missing Sign,Transportation - Traffic Division,Signs & Signals,Missing Sign,BTDT_Sign Shop_Sign Installation,BTDT,,,9 Jenkins St  South Boston  MA  02127,6.0,05,2.0,C6,South Boston / South Boston Waterfront,5.0,Ward 7,706.0,R1,9 Jenkins St,2127.0,Address,79631.0,42.3308,-71.0538,Constituent Call,"(42.3308, -71.0538)"
530584,101001328580,03/10/2015 09:01:58 AM,03/12/2015 09:01:58 AM,03/24/2015 10:43:20 AM,OVERDUE,Closed,Case Closed Case Resolved,Missing Sign,Transportation - Traffic Division,Signs & Signals,Missing Sign,BTDT_Sign Shop_Sign Installation,BTDT,,,INTERSECTION of E Eighth St & Gates St  South Boston  MA,6.0,05,2.0,C6,South Boston / South Boston Waterfront,5.0,Ward 7,704.0,,INTERSECTION E Eighth St & Gates St,,Intersection,4446.0,42.3312,-71.0482,Constituent Call,"(42.3312, -71.0482)"
530668,101001328710,03/10/2015 10:03:45 AM,03/24/2015 10:03:45 AM,03/25/2015 02:34:00 PM,OVERDUE,Closed,Case Closed Case Resolved Work completed 3/25/15.,Missing Sign,Transportation - Traffic Division,Signs & Signals,Missing Sign,BTDT_Sign Shop_Sign Installation,BTDT,https://cityworker.cityofboston.gov:8443/attachments/report/54fef9bcd052dab9f2a83f33/photo/Report.jpg,,INTERSECTION of Blagden St & Exeter St  Boston  MA,4.0,1C,2.0,D4,Back Bay,6.0,Ward 4,402.0,,INTERSECTION Blagden St & Exeter St,,Intersection,1475.0,42.3487,-71.0791,City Worker App,"(42.3487, -71.0791)"
530711,101001328789,03/10/2015 10:37:06 AM,03/24/2015 10:37:06 AM,03/25/2015 02:30:48 PM,OVERDUE,Closed,Case Closed Case Resolved Work completed 3/25/15.,Missing Sign,Transportation - Traffic Division,Signs & Signals,Missing Sign,BTDT_Sign Shop_Sign Installation,BTDT,,,53 Exchange Pl  Boston  MA  02109,3.0,1C,1.0,A1,Downtown / Financial District,3.0,Ward 3,306.0,C,53 Exchange Pl,2109.0,Address,232182.0,42.3583,-71.0561,City Worker App,"(42.3583, -71.0561)"
531507,101001330003,03/11/2015 10:44:37 AM,03/25/2015 10:44:37 AM,03/12/2015 12:50:43 PM,ONTIME,Closed,Case Closed Case Resolved Work completed 3/12/15.,Missing Sign,Transportation - Traffic Division,Signs & Signals,Missing Sign,BTDT_Sign Shop_Sign Installation,BTDT,https://cityworker.cityofboston.gov:8443/attachments/report/550054cfd052dab9f2a85602/photo/Report.jpg,,INTERSECTION of Medford St & Terminal St  Charlestown  MA,3.0,1A,1.0,A15,Charlestown,2.0,Ward 2,204.0,,INTERSECTION Medford St & Terminal St,,Intersection,7218.0,42.3808,-71.0616,City Worker App,"(42.3808, -71.0616)"
531534,101001330043,03/11/2015 11:11:08 AM,03/25/2015 11:11:08 AM,05/29/2015 10:00:51 AM,OVERDUE,Closed,Case Closed. Closed date : 2015-05-29 10:00:51.363 Case Resolved work completed.,Missing Sign,Transportation - Traffic Division,Signs & Signals,Missing Sign,BTDT_Sign Shop_Sign Installation,BTDT,,,INTERSECTION of City Sq & Harvard St  Charlestown  MA,3.0,1A,1.0,A15,Charlestown,2.0,Ward 2,201.0,,INTERSECTION City Sq & Harvard St,,Intersection,3043.0,42.3717,-71.0624,City Worker App,"(42.3717, -71.0624)"
531589,101001330131,03/11/2015 11:56:26 AM,03/25/2015 11:56:26 AM,06/03/2015 01:42:35 PM,OVERDUE,Closed,Case Closed. Closed date : 2015-06-03 13:42:35.05 Case Resolved,Missing Sign,Transportation - Traffic Division,Signs & Signals,Missing Sign,BTDT_Sign Shop_Sign Installation,BTDT,https://cityworker.cityofboston.gov:8443/attachments/report/550065a9d052dab9f2a8598f/photo/Report.jpg,,INTERSECTION of N Beacon St & Vineland St  Brighton  MA,11.0,04,9.0,D14,Allston / Brighton,15.0,Ward 22,2212.0,,INTERSECTION N Beacon St & Vineland St,,Intersection,1129.0,42.3572,-71.153,City Worker App,"(42.3572, -71.153)"
531999,101001330793,03/12/2015 07:37:53 AM,03/26/2015 08:30:00 AM,03/13/2015 06:58:59 AM,ONTIME,Closed,Case Closed Duplicate of Existing Case Duplicate CRM,Missing Sign,Transportation - Traffic Division,Signs & Signals,Missing Sign,BTDT_District 01,BTDT,https://cityworker.cityofboston.gov:8443/attachments/report/55017a8dd052dab9f2a8605b/photo/Report.jpg,,INTERSECTION of Marion Ct & Marion St  East Boston  MA,1.0,09,1.0,A7,East Boston,1.0,Ward 1,105.0,,INTERSECTION Marion Ct & Marion St,,Intersection,6236.0,42.3754,-71.0348,City Worker App,"(42.3754, -71.0348)"
532110,101001330953,03/12/2015 09:11:43 AM,03/26/2015 09:11:43 AM,03/16/2015 01:23:37 PM,ONTIME,Closed,Case Closed Case Resolved Work completed 3/16/15.,Missing Sign,Transportation - Traffic Division,Signs & Signals,Missing Sign,BTDT_Sign Shop_Sign Installation,BTDT,,,INTERSECTION of Clarendon St & Newbury St  Boston  MA,4.0,1C,8.0,D4,Back Bay,14.0,Ward 5,507.0,,INTERSECTION Clarendon St & Newbury St,,Intersection,3069.0,42.3515,-71.0756,City Worker App,"(42.3515, -71.0756)"
532339,101001331246,03/12/2015 11:14:04 AM,03/26/2015 11:14:04 AM,03/17/2015 10:04:09 AM,ONTIME,Closed,Case Closed Case Resolved Work completed 3/17/15.,Missing Sign,Transportation - Traffic Division,Signs & Signals,Missing Sign,BTDT_Sign Shop_Sign Installation,BTDT,https://cityworker.cityofboston.gov:8443/attachments/report/5501ad39d052dab9f2a86ac4/photo/Report.jpg,,INTERSECTION of Ayr Rd & Orkney Rd  Brighton  MA,11.0,04,9.0,D14,Allston / Brighton,15.0,Ward 21,2114.0,,INTERSECTION Ayr Rd & Orkney Rd,,Intersection,832.0,42.3372,-71.149,City Worker App,"(42.3372, -71.149)"
532343,101001331251,03/12/2015 11:18:43 AM,03/16/2015 11:18:43 AM,03/17/2015 10:02:16 AM,OVERDUE,Closed,Case Closed Case Resolved Work completed 3/17/15.,Missing Sign,Transportation - Traffic Division,Signs & Signals,Missing Sign,BTDT_Sign Shop_Sign Installation,BTDT,https://cityworker.cityofboston.gov:8443/attachments/report/5501ae4ed052dab9f2a86af3/photo/Report.jpg,,1960 Beacon St  Brighton  MA  02135,11.0,04,9.0,D14,Brighton,15.0,21,2114.0,,1960 Beacon St,2135.0,Address,343101.0,42.3594,-71.0587,City Worker App,"(0, 0)"
533178,101001332394,03/13/2015 10:40:34 AM,03/27/2015 10:40:34 AM,03/20/2015 10:21:05 AM,ONTIME,Closed,Case Closed Case Resolved Work completed 3/20/15.,Missing Sign,Transportation - Traffic Division,Signs & Signals,Missing Sign,BTDT_Sign Shop_Sign Installation,BTDT,,,INTERSECTION of Franklin Hill Ave & Shandon Rd  Dorchester  MA,8.0,07,4.0,B3,Greater Mattapan,9.0,Ward 14,1409.0,,INTERSECTION Franklin Hill Ave & Shandon Rd,,Intersection,5102.0,42.2945,-71.0894,Self Service,"(42.2945, -71.0894)"
533341,101001332613,03/13/2015 01:11:13 PM,03/27/2015 01:11:13 PM,03/19/2015 12:01:24 PM,ONTIME,Closed,Case Closed Case Resolved Work completed 3/19/15.,Missing Sign,Transportation - Traffic Division,Signs & Signals,Missing Sign,BTDT_Sign Shop_Sign Installation,BTDT,,,35 Commonwealth Ave  Boston  MA  02116,4.0,1C,8.0,D4,Back Bay,14.0,Ward 5,506.0,C,35 Commonwealth Ave,2116.0,Address,40340.0,42.3533,-71.0746,City Worker App,"(42.3533, -71.0746)"
533403,101001332709,03/13/2015 02:47:10 PM,03/27/2015 02:47:10 PM,03/19/2015 01:21:16 PM,ONTIME,Closed,Case Closed Case Resolved Work completed 3/19/15.,Missing Sign,Transportation - Traffic Division,Signs & Signals,Missing Sign,BTDT_Sign Shop_Sign Installation,BTDT,,,40 Dimock St  Roxbury  MA  02119,9.0,10B,6.0,B2,Roxbury,11.0,Ward 11,1104.0,E,40 Dimock St,2119.0,Address,47801.0,42.3193,-71.097,Constituent Call,"(42.3193, -71.097)"
533655,101001333083,03/14/2015 10:07:56 AM,03/30/2015 08:30:00 AM,03/16/2015 10:38:38 AM,ONTIME,Closed,Case Closed Case Noted this is a duplicate to %1333022,Missing Sign,Transportation - Traffic Division,Signs & Signals,Missing Sign,BTDT_District 02,BTDT,,,INTERSECTION of Austin St & West St  Hyde Park  MA,12.0,08,5.0,E18,Hyde Park,10.0,Ward 18,1822.0,,INTERSECTION Austin St & West St,,Intersection,795.0,42.2633,-71.1256,Self Service,"(42.2633, -71.1256)"
533722,101001333187,03/14/2015 03:32:37 PM,03/18/2015 03:32:37 PM,03/16/2015 10:39:52 AM,ONTIME,Closed,Case Closed Case Noted this is a duplicate to %1333022,Missing Sign,Transportation - Traffic Division,Signs & Signals,Missing Sign,BTDT_District 02,BTDT,,,216 West St  Hyde Park  MA  02136,12.0,08,5.0,E18,Hyde Park,10.0,18,1812.0,E,216 West St,2136.0,Address,147910.0,42.2632,-71.126,Constituent Call,"(42.2632, -71.126)"
533920,101001333525,03/15/2015 05:29:53 PM,03/30/2015 08:30:00 AM,03/17/2015 01:31:23 PM,ONTIME,Closed,Case Closed Case Resolved Work completed 3/17/15.,Missing Sign,Transportation - Traffic Division,Signs & Signals,Missing Sign,BTDT_Sign Shop_Sign Installation,BTDT,,,424 Massachusetts Ave  Roxbury  MA  02118,4.0,1C,7.0,D4,South End,6.0,Ward 4,404.0,CM,424 Massachusetts Ave,2118.0,Address,92091.0,42.3411,-71.082,Constituent Call,"(42.3411, -71.082)"
534000,101001333637,03/16/2015 07:04:07 AM,03/30/2015 08:30:00 AM,03/17/2015 02:47:47 PM,ONTIME,Closed,Case Closed Duplicate of Existing Case duplicate CRM,Missing Sign,Transportation - Traffic Division,Signs & Signals,Missing Sign,BTDT_District 01,BTDT,,,190 Beacon St  Boston  MA  02116,4.0,1C,8.0,D4,Back Bay,14.0,Ward 5,507.0,CD,190 Beacon St,2116.0,Address,9997.0,42.3543,-71.0775,Self Service,"(42.3543, -71.0775)"
534103,101001333796,03/16/2015 09:31:26 AM,03/30/2015 09:31:26 AM,03/17/2015 01:28:43 PM,ONTIME,Closed,Case Closed Case Resolved Work completed 3/17/15.,Missing Sign,Transportation - Traffic Division,Signs & Signals,Missing Sign,BTDT_Sign Shop_Sign Installation,BTDT,,,111 Causeway St  Boston  MA  02114,3.0,1B,1.0,A1,Downtown / Financial District,3.0,Ward 3,306.0,C,111 Causeway St,2114.0,Address,158230.0,42.3649,-71.0617,City Worker App,"(42.3649, -71.0617)"
534115,101001333809,03/16/2015 09:34:47 AM,03/30/2015 09:34:47 AM,03/19/2015 01:20:24 PM,ONTIME,Closed,Case Closed Case Resolved Work completed 3/19/15.,Missing Sign,Transportation - Traffic Division,Signs & Signals,Missing Sign,BTDT_Sign Shop_Sign Installation,BTDT,https://cityworker.cityofboston.gov:8443/attachments/report/5506dbf6d052dab9f2a88ade/photo/Report.jpg,,57 Monmouth St  East Boston  MA  02128,1.0,09,1.0,A7,East Boston,1.0,Ward 1,107.0,R3,57 Monmouth St,2128.0,Address,96409.0,42.3802,-71.0367,City Worker App,"(42.3802, -71.0367)"
534286,101001334049,03/16/2015 12:36:25 PM,03/18/2015 12:36:25 PM,03/17/2015 07:28:32 AM,ONTIME,Closed,Case Closed Duplicate of Existing Case %1333022,Missing Sign,Transportation - Traffic Division,Signs & Signals,Missing Sign,BTDT_District 02,BTDT,,,INTERSECTION of Austin St & West St  Hyde Park  MA,12.0,08,5.0,E18,Hyde Park,10.0,Ward 18,1822.0,,INTERSECTION Austin St & West St,,Intersection,795.0,42.2633,-71.1256,Constituent Call,"(42.2633, -71.1256)"
534490,101001334357,03/16/2015 05:34:22 PM,03/31/2015 08:30:00 AM,03/17/2015 02:34:43 PM,ONTIME,Closed,Case Closed Case Resolved Street Sign Name on cement ed pole (Commonwealth Av OB) - Field Verified,Missing Sign,Transportation - Traffic Division,Signs & Signals,Missing Sign,BTDT_District 01,BTDT,,,INTERSECTION of Allston St & Commonwealth Ave  Allston  MA,11.0,04,9.0,D14,Allston / Brighton,15.0,Ward 21,2108.0,,INTERSECTION Allston St & Commonwealth Ave,,Intersection,316.0,42.3483,-71.1378,Self Service,"(42.3483, -71.1378)"
534667,101001334629,03/17/2015 09:03:05 AM,03/31/2015 09:03:04 AM,03/24/2015 11:24:38 AM,ONTIME,Closed,Case Closed Case Resolved Work completed 3/24/15.,Missing Sign,Transportation - Traffic Division,Signs & Signals,Missing Sign,BTDT_Sign Shop_Sign Installation,BTDT,https://cityworker.cityofboston.gov:8443/attachments/report/55082604d052dab9f2a89908/photo/Report.jpg,,114 Byron St  East Boston  MA  02128,1.0,09,1.0,A7,East Boston,1.0,Ward 1,111.0,R2,114 Byron St,2128.0,Address,24582.0,42.3842,-71.0167,City Worker App,"(42.3842, -71.0167)"
535017,101001335097,03/17/2015 01:23:29 PM,03/31/2015 01:23:29 PM,03/24/2015 09:36:04 AM,ONTIME,Closed,Case Closed Case Resolved Work completed 3/24/15.,Missing Sign,Transportation - Traffic Division,Signs & Signals,Missing Sign,BTDT_Sign Shop_Sign Installation,BTDT,,,INTERSECTION of Decatur St & Walford Way  Charlestown  MA,3.0,1A,1.0,A15,Charlestown,2.0,Ward 2,202.0,,INTERSECTION Decatur St & Walford Way,,Intersection,3970.0,42.3779,-71.0543,City Worker App,"(42.3779, -71.0543)"
535018,101001335098,03/17/2015 01:24:01 PM,03/31/2015 01:24:00 PM,03/20/2015 10:49:51 AM,ONTIME,Closed,Case Closed Case Resolved Work completed 3/20/15.,Missing Sign,Transportation - Traffic Division,Signs & Signals,Missing Sign,BTDT_Sign Shop_Sign Installation,BTDT,,,INTERSECTION of Decatur St & Walford Way  Charlestown  MA,3.0,1A,1.0,A15,Charlestown,2.0,Ward 2,202.0,,INTERSECTION Decatur St & Walford Way,,Intersection,3970.0,42.3779,-71.0543,City Worker App,"(42.3779, -71.0543)"
535769,101001336065,03/18/2015 10:11:49 AM,04/01/2015 10:11:49 AM,03/24/2015 10:43:53 AM,ONTIME,Closed,Case Closed Case Resolved,Missing Sign,Transportation - Traffic Division,Signs & Signals,Missing Sign,BTDT_Sign Shop_Sign Installation,BTDT,,,448 E Seventh St  South Boston  MA  02127,6.0,05,2.0,C6,South Boston / South Boston Waterfront,5.0,Ward 7,703.0,CM,448 E Seventh St,2127.0,Address,125286.0,42.3323,-71.0432,Constituent Call,"(42.3323, -71.0432)"
535846,101001336166,03/18/2015 11:04:45 AM,04/01/2015 11:04:45 AM,03/24/2015 09:35:01 AM,ONTIME,Closed,Case Closed Case Resolved Work completed 3/24/15.,Missing Sign,Transportation - Traffic Division,Signs & Signals,Missing Sign,BTDT_Sign Shop_Sign Installation,BTDT,https://cityworker.cityofboston.gov:8443/attachments/report/55099408d052dab9f2a8b21d/photo/Report.jpg,,806-820 Beacon St  Boston  MA  02215,4.0,10A,8.0,D4,Fenway / Kenmore / Audubon Circle / Longwood,14.0,Ward 21,2102.0,A,806-820 Beacon St,2215.0,Address,12248.0,42.3476,-71.1023,City Worker App,"(42.3476, -71.1023)"
535851,101001336175,03/18/2015 11:09:02 AM,03/20/2015 11:09:02 AM,03/18/2015 11:41:37 AM,ONTIME,Closed,Case Closed Case Noted duplicate of a previously submitted crm;  location will be reevaluated for reinstallatiin of delineator at the end of the winter snow season,Missing Sign,Transportation - Traffic Division,Signs & Signals,Missing Sign,BTDT_District 06,BTDT,,,INTERSECTION of E Dedham St & Harrison Ave  Roxbury  MA,4.0,1C,2.0,D4,South End,6.0,Ward 8,801.0,,INTERSECTION E Dedham St & Harrison Ave,,Intersection,3981.0,42.3393,-71.0697,Employee Generated,"(42.3393, -71.0697)"
535916,101001336273,03/18/2015 12:28:13 PM,04/01/2015 12:28:13 PM,03/24/2015 01:48:16 PM,ONTIME,Closed,Case Closed Case Resolved Work completed 3/24/15.,Missing Sign,Transportation - Traffic Division,Signs & Signals,Missing Sign,BTDT_Sign Shop_Sign Installation,BTDT,https://cityworker.cityofboston.gov:8443/attachments/report/5509a799d052dab9f2a8b4a1/photo/Report.jpg,,INTERSECTION of N Beacon St & Dustin St  Allston  MA,11.0,04,9.0,D14,Allston / Brighton,15.0,Ward 21,2106.0,,INTERSECTION N Beacon St & Dustin St,,Intersection,1135.0,42.3549,-71.1442,City Worker App,"(42.3549, -71.1442)"
535939,101001336299,03/18/2015 12:43:03 PM,04/01/2015 12:43:02 PM,03/24/2015 03:07:07 PM,ONTIME,Closed,Case Closed Case Resolved This case exists already; please follow case #101001336301,Missing Sign,Transportation - Traffic Division,Signs & Signals,Missing Sign,BTDT_Sign Shop_Sign Installation,BTDT,https://cityworker.cityofboston.gov:8443/attachments/report/5509ab15d052dab9f2a8b591/photo/Report.jpg,,INTERSECTION of Glencoe St & Saybrook St  Brighton  MA,11.0,04,9.0,D14,Allston / Brighton,15.0,Ward 22,2206.0,,INTERSECTION Glencoe St & Saybrook St,,Intersection,5322.0,42.3546,-71.1482,City Worker App,"(42.3546, -71.1482)"
535979,101001336348,03/18/2015 01:15:12 PM,04/01/2015 01:15:12 PM,03/19/2015 11:59:10 AM,ONTIME,Closed,Case Closed Case Resolved Work completed 3/19/15.,Missing Sign,Transportation - Traffic Division,Signs & Signals,Missing Sign,BTDT_Sign Shop_Sign Installation,BTDT,,,INTERSECTION of Dalton St & Scotia St  Boston  MA,4.0,1C,2.0,D4,Back Bay,6.0,Ward 4,402.0,,INTERSECTION Dalton St & Scotia St,,Intersection,3859.0,42.3467,-71.085,City Worker App,"(42.3467, -71.085)"
536017,101001336412,03/18/2015 01:55:28 PM,04/01/2015 01:55:28 PM,04/02/2015 09:48:50 AM,OVERDUE,Closed,Case Closed Case Resolved Work completed 4/1/15.,Missing Sign,Transportation - Traffic Division,Signs & Signals,Missing Sign,BTDT_Sign Shop_Sign Installation,BTDT,,,23 Bradston St  Roxbury  MA  02118,6.0,1C,2.0,C6,South Boston / South Boston Waterfront,6.0,Ward 8,802.0,C,23 Bradston St,2118.0,Address,19120.0,42.3331,-71.0706,Self Service,"(42.3331, -71.0706)"
536188,101001336627,03/18/2015 04:23:06 PM,03/20/2015 04:23:06 PM,03/24/2015 10:46:58 AM,OVERDUE,Closed,Case Closed Case Resolved,Missing Sign,Transportation - Traffic Division,Signs & Signals,Missing Sign,BTDT_Sign Shop_Sign Installation,BTDT,,,INTERSECTION of Dudley St & Harrison Ave  Roxbury  MA,7.0,10B,7.0,B2,Roxbury,13.0,Ward 8,804.0,,INTERSECTION Dudley St & Harrison Ave,,Intersection,4268.0,42.3286,-71.0827,Self Service,"(42.3286, -71.0827)"
536314,101001336792,03/19/2015 06:40:54 AM,04/02/2015 08:30:00 AM,05/02/2015 07:23:25 PM,OVERDUE,Closed,Case Closed. Closed date : 2015-05-02 19:23:25.987 Case Invalid need better location,Missing Sign,Transportation - Traffic Division,Signs & Signals,Missing Sign,INFO_Reallocation From Dept,INFO,,,100 City Hall Plz  Boston  MA  02108,3.0,1B,1.0,A1,Downtown / Financial District,3.0,Ward 3,306.0,C,100 City Hall Plz,2108.0,Address,207940.0,42.3595,-71.0588,Self Service,"(42.3595, -71.0588)"
536675,101001337260,03/19/2015 10:55:25 AM,04/02/2015 10:55:24 AM,04/02/2015 09:48:34 AM,ONTIME,Closed,Case Closed Case Resolved Work completed 4/1/15.,Missing Sign,Transportation - Traffic Division,Signs & Signals,Missing Sign,BTDT_Sign Shop_Sign Installation,BTDT,,,1 Lincoln St  Boston  MA  02111,3.0,1C,2.0,A1,Downtown / Financial District,4.0,Ward 3,308.0,C,1 Lincoln St,2111.0,Address,264644.0,42.3531,-71.058,City Worker App,"(42.3531, -71.058)"
536701,101001337291,03/19/2015 11:20:08 AM,04/02/2015 11:20:08 AM,03/31/2015 11:21:03 AM,ONTIME,Closed,Case Closed Case Resolved Work completed 3/30/15,Missing Sign,Transportation - Traffic Division,Signs & Signals,Missing Sign,BTDT_Sign Shop_Sign Installation,BTDT,,,INTERSECTION of Harrison Ave & Harvard St  Boston  MA,4.0,1C,2.0,A1,Downtown / Financial District,4.0,Ward 3,308.0,,INTERSECTION Harrison Ave & Harvard St,,Intersection,5707.0,42.3498,-71.0619,City Worker App,"(42.3498, -71.0619)"
536713,101001337315,03/19/2015 11:42:10 AM,04/02/2015 11:42:10 AM,03/24/2015 01:03:23 PM,ONTIME,Closed,Case Closed Case Resolved Work completed 3/20/15.,Missing Sign,Transportation - Traffic Division,Signs & Signals,Missing Sign,BTDT_Sign Shop_Sign Installation,BTDT,,,131-137 Harrison Ave  Boston  MA  02111,4.0,1C,2.0,A1,Downtown / Financial District,4.0,Ward 3,308.0,E,131-137 Harrison Ave,2111.0,Address,69802.0,42.3501,-71.062,City Worker App,"(42.3501, -71.062)"
536816,101001337470,03/19/2015 02:14:11 PM,04/02/2015 02:14:10 PM,03/20/2015 07:20:30 AM,ONTIME,Closed,Case Closed Duplicate of Existing Case,Missing Sign,Transportation - Traffic Division,Signs & Signals,Missing Sign,BTDT_Sign Repair,BTDT,,,24-36 Aguadilla St  Roxbury  MA  02118,4.0,1C,2.0,D4,South End,6.0,09,901.0,,24-36 Aguadilla St,2118.0,Address,350990.0,42.3594,-71.0587,City Worker App,"(0, 0)"
536837,101001337497,03/19/2015 02:34:40 PM,04/02/2015 02:34:40 PM,03/20/2015 07:21:50 AM,ONTIME,Closed,Case Closed Duplicate of Existing Case,Missing Sign,Transportation - Traffic Division,Signs & Signals,Missing Sign,BTDT_Sign Repair,BTDT,,,24-36 Aguadilla St  Roxbury  MA  02118,4.0,1C,2.0,D4,South End,6.0,09,901.0,,24-36 Aguadilla St,2118.0,Address,350990.0,42.3594,-71.0587,City Worker App,"(0, 0)"
536877,101001337547,03/19/2015 02:58:56 PM,04/02/2015 02:58:55 PM,03/19/2015 03:29:43 PM,ONTIME,Closed,Case Closed Case Invalid eform error,Missing Sign,Transportation - Traffic Division,Signs & Signals,Missing Sign,BTDT_Sign Repair,BTDT,,,150 Staniford St  Boston  MA  02114,3.0,1B,8.0,A1,Back Bay,3.0,03,,,150 Staniford St,2114.0,Address,347193.0,42.3594,-71.0587,Constituent Call,"(0, 0)"
536879,101001337550,03/19/2015 03:02:04 PM,04/02/2015 03:02:04 PM,03/19/2015 03:30:12 PM,ONTIME,Closed,Case Closed Case Invalid Eform error,Missing Sign,Transportation - Traffic Division,Signs & Signals,Missing Sign,BTDT_Sign Repair,BTDT,,,150 Staniford St  Boston  MA  02114,3.0,1B,8.0,A1,Back Bay,3.0,03,,,150 Staniford St,2114.0,Address,347193.0,42.3594,-71.0587,Constituent Call,"(0, 0)"
536906,101001337588,03/19/2015 03:20:28 PM,03/23/2015 03:20:28 PM,03/19/2015 03:21:37 PM,ONTIME,Closed,Case Closed Case Invalid Technical Testing,Missing Sign,Transportation - Traffic Division,Signs & Signals,Missing Sign,BTDT_Sign Repair,BTDT,,,,,,,,,,,,,,,,,42.3594,-71.0587,Employee Generated,"(0, 0)"
537086,101001337850,03/20/2015 06:24:44 AM,04/03/2015 08:30:00 AM,,OVERDUE,Open,,Missing Sign,Transportation - Traffic Division,Signs & Signals,Missing Sign,INFO01_GenericeFormforOtherServiceRequestTypes,INFO,,,92 Main St  Charlestown  MA  02129,3.0,1A,1.0,A15,Charlestown,2.0,Ward 2,201.0,C,92 Main St,2129.0,Address,161212.0,42.3738,-71.0631,Constituent Call,"(42.3738, -71.0631)"
537113,101001337885,03/20/2015 08:00:30 AM,04/03/2015 08:30:00 AM,03/24/2015 09:34:24 AM,ONTIME,Closed,Case Closed Case Resolved Work completed 3/24/15.,Missing Sign,Transportation - Traffic Division,Signs & Signals,Missing Sign,BTDT_Sign Shop_Sign Installation,BTDT,https://cityworker.cityofboston.gov:8443/attachments/report/550c0bdbd052dab9f2a8d364/photo/Report.jpg,,INTERSECTION of London St & George R. Visconti Rd  East Boston  MA,1.0,09,1.0,A7,East Boston,1.0,Ward 1,106.0,,INTERSECTION London St & George R. Visconti Rd,,Intersection,6924.0,42.3744,-71.0377,City Worker App,"(42.3744, -71.0377)"
537123,101001337902,03/20/2015 08:10:36 AM,04/03/2015 08:30:00 AM,03/24/2015 10:47:17 AM,ONTIME,Closed,Case Closed Case Resolved,Missing Sign,Transportation - Traffic Division,Signs & Signals,Missing Sign,BTDT_Sign Shop_Sign Installation,BTDT,,,INTERSECTION of Albany St & Wareham St  Roxbury  MA,4.0,1C,2.0,D4,South End,6.0,Ward 8,801.0,,INTERSECTION Albany St & Wareham St,,Intersection,209.0,42.3385,-71.0665,City Worker App,"(42.3385, -71.0665)"
537167,101001337990,03/20/2015 09:00:25 AM,03/24/2015 09:00:25 AM,03/24/2015 11:25:07 AM,OVERDUE,Closed,Case Closed Case Resolved Work completed 3/24/15.,Missing Sign,Transportation - Traffic Division,Signs & Signals,Missing Sign,BTDT_Sign Shop_Sign Installation,BTDT,,,INTERSECTION of Goldstar St & Thurston St  East Boston  MA,1.0,09,1.0,A7,East Boston,1.0,Ward 1,112.0,,INTERSECTION Goldstar St & Thurston St,,Intersection,5378.0,42.3843,-71.0055,Constituent Call,"(42.3843, -71.0055)"
537270,101001338128,03/20/2015 10:21:16 AM,04/03/2015 10:21:16 AM,03/31/2015 11:23:50 AM,ONTIME,Closed,Case Closed Case Resolved Work completed 3/30/15,Missing Sign,Transportation - Traffic Division,Signs & Signals,Missing Sign,BTDT_Sign Shop_Sign Installation,BTDT,https://cityworker.cityofboston.gov:8443/attachments/report/550c2cdad052dab9f2a8dac0/photo/Report.jpg,,899-925 Commonwealth Ave  Boston  MA  02215,11.0,04,8.0,D14,Allston / Brighton,14.0,21,2102.0,E,899-925 Commonwealth Ave,2215.0,Address,41281.0,42.3516,-71.117,City Worker App,"(42.3516, -71.117)"
537279,101001338138,03/20/2015 10:24:25 AM,04/03/2015 10:24:25 AM,05/04/2015 01:05:17 PM,OVERDUE,Closed,Case Closed. Closed date : 2015-05-04 13:05:17.5 Case Resolved Work completed 5/4/15.,Missing Sign,Transportation - Traffic Division,Signs & Signals,Missing Sign,BTDT_Sign Shop_Sign Installation,BTDT,https://cityworker.cityofboston.gov:8443/attachments/report/550c2d97d052dab9f2a8dae4/photo/Report.jpg,,989 Commonwealth Ave  Boston  MA  02215,11.0,04,8.0,D14,Allston / Brighton,14.0,Ward 21,2102.0,E,989 Commonwealth Ave,2215.0,Address,41315.0,42.3521,-71.1206,City Worker App,"(42.3521, -71.1206)"
537283,101001338142,03/20/2015 10:25:59 AM,04/03/2015 10:25:59 AM,03/31/2015 11:24:18 AM,ONTIME,Closed,Case Closed Case Resolved Work completed 3/30/15,Missing Sign,Transportation - Traffic Division,Signs & Signals,Missing Sign,BTDT_Sign Shop_Sign Installation,BTDT,https://cityworker.cityofboston.gov:8443/attachments/report/550c2df5d052dab9f2a8db0a/photo/Report.jpg,,1019 Commonwealth Ave  Boston  MA  02215,11.0,04,9.0,D14,Allston / Brighton,14.0,Ward 21,2103.0,E,1019 Commonwealth Ave,2215.0,Address,212764.0,42.3523,-71.1214,City Worker App,"(42.3523, -71.1214)"
