,CASE_ENQUIRY_ID,OPEN_DT,TARGET_DT,CLOSED_DT,OnTime_Status,CASE_STATUS,CLOSURE_REASON,CASE_TITLE,SUBJECT,REASON,TYPE,QUEUE,Department,SubmittedPhoto,ClosedPhoto,Location,fire_district,pwd_district,city_council_district,police_district,neighborhood,neighborhood_services_district,ward,precinct,land_usage,LOCATION_STREET_NAME,LOCATION_ZIPCODE,Property_Type,Property_ID,LATITUDE,LONGITUDE,Source,Geocoded_Location
470415,101001242123,01/05/2015 08:49:13 AM,02/04/2015 08:49:13 AM,,OVERDUE,Open,,No Utilities Residential - Water,Inspectional Services,Housing,No Utilities Residential - Water,ISD_Housing (INTERNAL),ISD,,,180 Shawmut Ave  Roxbury  MA  02118,4.0,1C,2.0,D4,South End,4.0,Ward 3,308.0,A,180 Shawmut Ave,2118.0,Address,309706.0,42.3448,-71.0664,Constituent Call,"(42.3448, -71.0664)"
471760,101001244069,01/08/2015 10:34:32 AM,02/07/2015 10:34:32 AM,01/12/2015 03:47:29 PM,ONTIME,Closed,Case Closed :,No Utilities Residential - Water,Inspectional Services,Housing,No Utilities Residential - Water,ISD_Housing (INTERNAL),ISD,,,41-43 Shannon St  Brighton  MA  02135,11.0,04,9.0,D14,Allston / Brighton,15.0,22,2203.0,,41-43 Shannon St,2135.0,Address,347233.0,42.3594,-71.0587,Constituent Call,"(0, 0)"
471767,101001244078,01/08/2015 10:42:27 AM,02/07/2015 10:42:27 AM,01/09/2015 03:49:25 PM,ONTIME,Closed,Case Closed :,No Utilities Residential - Water,Inspectional Services,Housing,No Utilities Residential - Water,ISD_Housing (INTERNAL),ISD,,,247 Fuller St  Dorchester  MA  02124,8.0,07,4.0,B3,Dorchester,9.0,Ward 17,1710.0,R2,247 Fuller St,2124.0,Address,61159.0,42.2809,-71.0774,Constituent Call,"(42.2809, -71.0774)"
471771,101001244082,01/08/2015 10:48:31 AM,02/07/2015 10:48:31 AM,03/05/2015 03:30:27 PM,OVERDUE,Closed,Case Closed ADCLSD: Administratively Closed,No Utilities Residential - Water,Inspectional Services,Housing,No Utilities Residential - Water,ISD_Housing (INTERNAL),ISD,,,175 Minot St  Dorchester  MA  02122,8.0,07,3.0,C11,Dorchester,7.0,Ward 16,1609.0,R3,175 Minot St,2122.0,Address,275955.0,42.2839,-71.0546,Constituent Call,"(42.2839, -71.0546)"
471866,101001244214,01/08/2015 12:36:20 PM,02/07/2015 12:36:19 PM,,OVERDUE,Open,,No Utilities Residential - Water,Inspectional Services,Housing,No Utilities Residential - Water,ISD_Housing (INTERNAL),ISD,,,21 San Juan St  Roxbury  MA  02118,4.0,1C,2.0,D4,South End,6.0,09,901.0,,21 San Juan St,2118.0,Address,351018.0,42.3594,-71.0587,Constituent Call,"(0, 0)"
471909,101001244271,01/08/2015 01:07:00 PM,02/07/2015 01:07:00 PM,,OVERDUE,Open,,No Utilities Residential - Water,Inspectional Services,Housing,No Utilities Residential - Water,ISD_Housing (INTERNAL),ISD,,,19 Wedgemere Rd  West Roxbury  MA  02132,12.0,06,6.0,E5,West Roxbury,12.0,Ward 20,2005.0,R1,19 Wedgemere Rd,2132.0,Address,146985.0,42.2715,-71.1607,Self Service,"(42.2715, -71.1607)"
472087,101001244511,01/08/2015 06:41:12 PM,02/07/2015 06:41:12 PM,,OVERDUE,Open,,No Utilities Residential - Water,Inspectional Services,Housing,No Utilities Residential - Water,ISD_Housing (INTERNAL),ISD,,,298 Columbus Ave  Boston  MA  02116,4.0,1C,2.0,D4,South End,6.0,Ward 4,401.0,CM,298 Columbus Ave,2116.0,Address,35593.0,42.3465,-71.0741,Self Service,"(42.3465, -71.0741)"
472215,101001244707,01/09/2015 09:23:56 AM,02/08/2015 09:23:56 AM,01/09/2015 10:18:06 AM,ONTIME,Closed,Case Closed Case Resolved Tenant called to cancel.,No Utilities Residential - Water,Inspectional Services,Housing,No Utilities Residential - Water,ISD_Housing (INTERNAL),ISD,,,420 Talbot Ave  Dorchester  MA  02124,8.0,07,3.0,C11,Dorchester,8.0,Ward 16,1603.0,R3,420 Talbot Ave,2124.0,Address,317774.0,42.2899,-71.0687,Constituent Call,"(42.2899, -71.0687)"
472243,101001244745,01/09/2015 10:05:32 AM,02/08/2015 10:05:32 AM,,OVERDUE,Open,,No Utilities Residential - Water,Inspectional Services,Housing,No Utilities Residential - Water,ISD_Housing (INTERNAL),ISD,,,588 Park St  Dorchester  MA  02124,8.0,07,4.0,B3,Dorchester,9.0,Ward 17,1703.0,R2,588 Park St,2124.0,Address,289970.0,42.2945,-71.0767,Constituent Call,"(42.2945, -71.0767)"
472556,101001245199,01/09/2015 08:03:00 PM,02/08/2015 08:03:00 PM,,OVERDUE,Open,,No Utilities Residential - Water,Inspectional Services,Housing,No Utilities Residential - Water,ISD_Housing (INTERNAL),ISD,,,5 Edwin St  Dorchester  MA  02124,8.0,07,3.0,C11,Dorchester,7.0,Ward 16,1606.0,A,5 Edwin St,2124.0,Address,228452.0,42.2887,-71.0629,Constituent Call,"(42.2887, -71.0629)"
472559,101001245202,01/09/2015 08:14:20 PM,02/08/2015 08:14:20 PM,,OVERDUE,Open,,No Utilities Residential - Water,Inspectional Services,Housing,No Utilities Residential - Water,ISD_Housing (INTERNAL),ISD,,,100 W Dedham St  Roxbury  MA  02118,4.0,1C,2.0,D4,South End,6.0,09,901.0,EA,100 W Dedham St,2118.0,Address,46908.0,42.3421,-71.0737,Constituent Call,"(42.3421, -71.0737)"
472594,101001245251,01/10/2015 09:03:19 AM,02/09/2015 09:03:19 AM,,OVERDUE,Open,,No Utilities Residential - Water,Inspectional Services,Housing,No Utilities Residential - Water,ISD_Housing (INTERNAL),ISD,,,227 Roxbury St  Roxbury  MA  02119,7.0,10B,7.0,B2,Roxbury,13.0,Ward 9,905.0,RC,227 Roxbury St,2119.0,Address,119157.0,42.3303,-71.0923,Constituent Call,"(42.3303, -71.0923)"
472799,101001245571,01/11/2015 06:54:57 PM,02/10/2015 06:54:56 PM,,OVERDUE,Open,,No Utilities Residential - Water,Inspectional Services,Housing,No Utilities Residential - Water,ISD_Housing (INTERNAL),ISD,,,11-9 Higgins St  Allston  MA  02134,11.0,04,9.0,D14,Allston / Brighton,15.0,Ward 21,2106.0,R4,11-9 Higgins St,2134.0,Address,73262.0,42.3529,-71.1359,Constituent Call,"(42.3529, -71.1359)"
472808,101001245584,01/11/2015 08:24:44 PM,02/10/2015 08:24:44 PM,,OVERDUE,Open,,No Utilities Residential - Water,Inspectional Services,Housing,No Utilities Residential - Water,ISD_Housing (INTERNAL),ISD,,,5 Edwin St  Dorchester  MA  02124,8.0,07,3.0,C11,Dorchester,7.0,Ward 16,1606.0,A,5 Edwin St,2124.0,Address,228455.0,42.2887,-71.0629,Constituent Call,"(42.2887, -71.0629)"
473443,101001246546,01/13/2015 10:42:13 AM,02/12/2015 10:42:13 AM,,OVERDUE,Open,,No Utilities Residential - Water,Inspectional Services,Housing,No Utilities Residential - Water,ISD_Housing (INTERNAL),ISD,,,29 Clarence St  Roxbury  MA  02119,7.0,03,7.0,B2,Roxbury,13.0,Ward 8,805.0,R3,29 Clarence St,2119.0,Address,208073.0,42.3246,-71.0728,Constituent Call,"(42.3246, -71.0728)"
474148,101001247572,01/14/2015 11:01:02 PM,02/13/2015 11:01:02 PM,,OVERDUE,Open,,No Utilities Residential - Water,Inspectional Services,Housing,No Utilities Residential - Water,ISD_Housing (INTERNAL),ISD,,,650 Harrison Ave  Roxbury  MA  02118,4.0,1C,2.0,D4,Roxbury,6.0,08,801.0,E,650 Harrison Ave,2118.0,Address,341651.0,42.3395,-71.0693,Self Service,"(42.3395, -71.0693)"
475154,101001249061,01/17/2015 09:35:29 PM,02/16/2015 09:35:27 PM,,OVERDUE,Open,,No Utilities Residential - Water,Inspectional Services,Housing,No Utilities Residential - Water,ISD_Housing (INTERNAL),ISD,,,3 Edwin St  Dorchester  MA  02124,8.0,07,3.0,C11,Dorchester,7.0,Ward 16,1606.0,A,3 Edwin St,2124.0,Address,228436.0,42.2887,-71.063,Constituent Call,"(42.2887, -71.063)"
475979,101001250024,01/20/2015 09:10:53 AM,02/19/2015 09:10:53 AM,,OVERDUE,Open,,No Utilities Residential - Water,Inspectional Services,Housing,No Utilities Residential - Water,ISD_Housing (INTERNAL),ISD,,,311 River St  Mattapan  MA  02126,8.0,07,4.0,B3,Greater Mattapan,9.0,Ward 18,1804.0,R2,311 River St,2126.0,Address,116581.0,42.2709,-71.0863,Constituent Call,"(42.2709, -71.0863)"
476379,101001250655,01/20/2015 06:22:45 PM,02/19/2015 06:22:45 PM,,OVERDUE,Open,,No Utilities Residential - Water,Inspectional Services,Housing,No Utilities Residential - Water,ISD_Housing (INTERNAL),ISD,,,88 W Springfield St  Roxbury  MA  02118,4.0,1C,7.0,D4,South End,6.0,Ward 9,902.0,CD,88 W Springfield St,2118.0,Address,130031.0,42.3373,-71.0769,Self Service,"(42.3373, -71.0769)"
476675,101001251122,01/21/2015 12:18:40 PM,02/20/2015 12:18:40 PM,,OVERDUE,Open,,No Utilities Residential - Water,Inspectional Services,Housing,No Utilities Residential - Water,ISD_Housing (INTERNAL),ISD,,,61 Worcester St  Roxbury  MA  02118,4.0,1C,7.0,D4,South End,6.0,Ward 9,902.0,CD,61 Worcester St,2118.0,Address,152491.0,42.3391,-71.0774,Constituent Call,"(42.3391, -71.0774)"
476852,101001251406,01/21/2015 04:07:18 PM,02/20/2015 04:07:17 PM,,OVERDUE,Open,,No Utilities Residential - Water,Inspectional Services,Housing,No Utilities Residential - Water,ISD_Housing (INTERNAL),ISD,,,20 Thorn St  Mattapan  MA  02126,8.0,08,5.0,E18,Hyde Park,9.0,Ward 18,1805.0,A,20 Thorn St,2126.0,Address,135770.0,42.2641,-71.1037,Constituent Call,"(42.2641, -71.1037)"
476914,101001251505,01/21/2015 10:55:46 PM,02/20/2015 10:55:46 PM,,OVERDUE,Open,,No Utilities Residential - Water,Inspectional Services,Housing,No Utilities Residential - Water,ISD_Housing (INTERNAL),ISD,,,11 Glade Ave  Jamaica Plain  MA  02130,9.0,02,6.0,E13,Jamaica Plain,11.0,Ward 11,1107.0,R2,11 Glade Ave,2130.0,Address,63716.0,42.3079,-71.1008,Self Service,"(42.3079, -71.1008)"
477482,101001252427,01/23/2015 09:58:23 AM,02/22/2015 09:58:23 AM,01/23/2015 11:00:34 AM,ONTIME,Closed,Case Closed Case Invalid No E Form,No Utilities Residential - Water,Inspectional Services,Housing,No Utilities Residential - Water,ISD_Housing (INTERNAL),ISD,,,281 Humboldt Ave  Dorchester  MA  02121,9.0,10B,7.0,B2,Roxbury,13.0,Ward 12,1207.0,R3,281 Humboldt Ave,2121.0,Address,254338.0,42.3106,-71.0919,Constituent Call,"(42.3106, -71.0919)"
478450,101001254132,01/26/2015 10:56:09 AM,02/25/2015 10:56:09 AM,,OVERDUE,Open,,No Utilities Residential - Water,Inspectional Services,Housing,No Utilities Residential - Water,ISD_Housing (INTERNAL),ISD,,,5 Edwin St  Dorchester  MA  02124,8.0,07,3.0,C11,Dorchester,7.0,Ward 16,1606.0,A,5 Edwin St,2124.0,Address,228455.0,42.2887,-71.0629,Constituent Call,"(42.2887, -71.0629)"
478522,101001254283,01/26/2015 01:23:26 PM,02/25/2015 01:23:26 PM,,OVERDUE,Open,,No Utilities Residential - Water,Inspectional Services,Housing,No Utilities Residential - Water,ISD_Housing (INTERNAL),ISD,,,79 E Canton St  Roxbury  MA  02118,4.0,1C,2.0,D4,South End,6.0,Ward 8,801.0,EA,79 E Canton St,2118.0,Address,201793.0,42.3381,-71.0697,Constituent Call,"(42.3381, -71.0697)"
481078,101001257395,01/28/2015 09:50:22 AM,02/27/2015 09:50:21 AM,01/30/2015 02:12:28 PM,ONTIME,Closed,Case Closed :,No Utilities Residential - Water,Inspectional Services,Housing,No Utilities Residential - Water,ISD_Housing (INTERNAL),ISD,,,5 Edwin St  Dorchester  MA  02124,8.0,07,3.0,C11,Dorchester,7.0,Ward 16,1606.0,A,5 Edwin St,2124.0,Address,228452.0,42.2887,-71.0629,Constituent Call,"(42.2887, -71.0629)"
481960,101001258438,01/28/2015 01:39:38 PM,02/27/2015 01:39:38 PM,,OVERDUE,Open,,No Utilities Residential - Water,Inspectional Services,Housing,No Utilities Residential - Water,ISD_Housing (INTERNAL),ISD,,,882 Cummins Hwy  Mattapan  MA  02126,8.0,07,4.0,B3,Greater Mattapan,9.0,Ward 18,1804.0,A,882 Cummins Hwy,2126.0,Address,221331.0,42.269,-71.0956,Constituent Call,"(42.269, -71.0956)"
484224,101001261393,01/29/2015 11:07:34 AM,02/28/2015 11:07:34 AM,01/29/2015 11:08:35 AM,ONTIME,Closed,Case Closed Case Invalid,No Utilities Residential - Water,Inspectional Services,Housing,No Utilities Residential - Water,ISD_Housing (INTERNAL),ISD,,,9 Higgins St  Allston  MA  02134,11.0,04,9.0,D14,Allston / Brighton,15.0,Ward 21,2106.0,R4,9 Higgins St,2134.0,Address,251524.0,42.3529,-71.1359,Constituent Call,"(42.3529, -71.1359)"
484965,101001262446,01/29/2015 03:52:43 PM,02/28/2015 03:52:43 PM,,OVERDUE,Open,,No Utilities Residential - Water,Inspectional Services,Housing,No Utilities Residential - Water,ISD_Housing (INTERNAL),ISD,,,102 Lawrence Ave  Dorchester  MA  02121,7.0,03,4.0,B2,Roxbury,13.0,Ward 14,1401.0,R1,102 Lawrence Ave,2121.0,Address,84510.0,42.3109,-71.0747,Constituent Call,"(42.3109, -71.0747)"
486009,101001264176,01/30/2015 10:20:29 AM,03/01/2015 10:20:28 AM,,OVERDUE,Open,,No Utilities Residential - Water,Inspectional Services,Housing,No Utilities Residential - Water,ISD_Housing (INTERNAL),ISD,,,3-5 Edwin St  Dorchester  MA  02124,8.0,07,3.0,C11,Dorchester,7.0,Ward 16,1606.0,A,3-5 Edwin St,2124.0,Address,51398.0,42.2887,-71.063,Constituent Call,"(42.2887, -71.063)"
487734,101001266874,02/02/2015 08:09:35 AM,03/04/2015 08:09:35 AM,,OVERDUE,Open,,No Utilities Residential - Water,Inspectional Services,Housing,No Utilities Residential - Water,ISD_Housing (INTERNAL),ISD,,,3 Edwin St  Dorchester  MA  02124,8.0,07,3.0,C11,Dorchester,7.0,Ward 16,1606.0,A,3 Edwin St,2124.0,Address,164923.0,42.2886,-71.063,Constituent Call,"(42.2886, -71.063)"
488196,101001267550,02/02/2015 01:50:54 PM,03/04/2015 01:50:54 PM,,OVERDUE,Open,,No Utilities Residential - Water,Inspectional Services,Housing,No Utilities Residential - Water,ISD_Housing (INTERNAL),ISD,,,24 Abbot St  Dorchester  MA  02124,7.0,03,4.0,B3,Greater Mattapan,8.0,Ward 14,1407.0,R2,24 Abbot St,2124.0,Address,80.0,42.2966,-71.0854,Constituent Call,"(42.2966, -71.0854)"
488901,101001268352,02/02/2015 06:45:19 PM,03/04/2015 06:45:19 PM,02/02/2015 07:11:05 PM,ONTIME,Closed,Case Closed Case Invalid Caller wanted the case deleted.,No Utilities Residential - Water,Inspectional Services,Housing,No Utilities Residential - Water,ISD_Housing (INTERNAL),ISD,,,130 Central Ave  Hyde Park  MA  02136,12.0,08,5.0,E18,Hyde Park,10.0,Ward 18,1814.0,R2,130 Central Ave,2136.0,Address,27286.0,42.2627,-71.1188,Self Service,"(42.2627, -71.1188)"
490439,101001270348,02/03/2015 12:24:22 PM,03/05/2015 12:24:21 PM,,OVERDUE,Open,,No Utilities Residential - Water,Inspectional Services,Housing,No Utilities Residential - Water,ISD_Housing (INTERNAL),ISD,,,14 Ripley Rd  Dorchester  MA  02121,7.0,03,4.0,B3,Dorchester,8.0,Ward 14,1402.0,R3,14 Ripley Rd,2121.0,Address,298822.0,42.2988,-71.0763,Constituent Call,"(42.2988, -71.0763)"
492820,101001273769,02/04/2015 09:57:58 AM,03/06/2015 09:57:58 AM,,OVERDUE,Open,,No Utilities Residential - Water,Inspectional Services,Housing,No Utilities Residential - Water,ISD_Housing (INTERNAL),ISD,,,11-13 Dixwell St  Roxbury  MA  02119,9.0,02,7.0,E13,Jamaica Plain,11.0,11,1105.0,,11-13 Dixwell St,2119.0,Address,343780.0,42.3594,-71.0587,Constituent Call,"(0, 0)"
493030,101001274092,02/04/2015 10:52:25 AM,03/06/2015 10:52:25 AM,,OVERDUE,Open,,No Utilities Residential - Water,Inspectional Services,Housing,No Utilities Residential - Water,ISD_Housing (INTERNAL),ISD,,,113 Harrishof St  Dorchester  MA  02121,9.0,10B,7.0,B2,Roxbury,13.0,Ward 12,1202.0,R3,113 Harrishof St,2121.0,Address,247477.0,42.3171,-71.0888,Constituent Call,"(42.3171, -71.0888)"
493451,101001274696,02/04/2015 12:55:09 PM,03/06/2015 12:55:08 PM,,OVERDUE,Open,,No Utilities Residential - Water,Inspectional Services,Housing,No Utilities Residential - Water,ISD_Housing (INTERNAL),ISD,,,5 Edwin St  Dorchester  MA  02124,8.0,07,3.0,C11,Dorchester,7.0,Ward 16,1606.0,A,5 Edwin St,2124.0,Address,228452.0,42.2887,-71.0629,Constituent Call,"(42.2887, -71.0629)"
494489,101001276268,02/04/2015 07:33:00 PM,03/06/2015 07:32:59 PM,,OVERDUE,Open,,No Utilities Residential - Water,Inspectional Services,Housing,No Utilities Residential - Water,ISD_Housing (INTERNAL),ISD,,,124 Calumet St  Mission Hill  MA  02120,9.0,10A,8.0,B2,Mission Hill,14.0,Ward 10,1003.0,CM,124 Calumet St,2120.0,Address,24912.0,42.331,-71.1024,Constituent Call,"(42.331, -71.1024)"
495328,101001277596,02/05/2015 10:48:30 AM,03/07/2015 10:48:30 AM,,OVERDUE,Open,,No Utilities Residential - Water,Inspectional Services,Housing,No Utilities Residential - Water,ISD_Housing (INTERNAL),ISD,,,311 River St  Mattapan  MA  02126,8.0,07,4.0,B3,Greater Mattapan,9.0,Ward 18,1804.0,R2,311 River St,2126.0,Address,116581.0,42.2709,-71.0863,Constituent Call,"(42.2709, -71.0863)"
499590,101001283931,02/09/2015 04:41:40 PM,03/11/2015 04:41:40 PM,,OVERDUE,Open,,No Utilities Residential - Water,Inspectional Services,Housing,No Utilities Residential - Water,ISD_Housing (INTERNAL),ISD,,,70 Marlborough St  Boston  MA  02116,4.0,1C,8.0,D4,Back Bay,14.0,Ward 5,506.0,CD,70 Marlborough St,2116.0,Address,91515.0,42.3536,-71.0753,Self Service,"(42.3536, -71.0753)"
500938,101001285620,02/10/2015 01:36:53 PM,03/12/2015 01:36:53 PM,,OVERDUE,Open,,No Utilities Residential - Water,Inspectional Services,Housing,No Utilities Residential - Water,ISD_Housing (INTERNAL),ISD,,,6 Humboldt Ave  Roxbury  MA  02119,9.0,10B,7.0,B2,Roxbury,13.0,Ward 12,1203.0,R3,6 Humboldt Ave,2119.0,Address,254364.0,42.3204,-71.0857,Constituent Call,"(42.3204, -71.0857)"
502760,101001288273,02/11/2015 11:46:09 AM,03/13/2015 11:46:09 AM,,OVERDUE,Open,,No Utilities Residential - Water,Inspectional Services,Housing,No Utilities Residential - Water,ISD_Housing (INTERNAL),ISD,,,130 Central Ave  Hyde Park  MA  02136,12.0,08,5.0,E18,Hyde Park,10.0,Ward 18,1814.0,R2,130 Central Ave,2136.0,Address,27286.0,42.2627,-71.1188,Self Service,"(42.2627, -71.1188)"
505817,101001292911,02/13/2015 09:22:16 AM,03/15/2015 09:22:16 AM,03/14/2015 09:27:31 AM,ONTIME,Closed,Case Closed :,No Utilities Residential - Water,Inspectional Services,Housing,No Utilities Residential - Water,ISD_Housing (INTERNAL),ISD,,,61 Worcester St  Roxbury  MA  02118,4.0,1C,7.0,D4,South End,6.0,Ward 9,902.0,CD,61 Worcester St,2118.0,Address,152491.0,42.3391,-71.0774,Constituent Call,"(42.3391, -71.0774)"
506292,101001293566,02/13/2015 01:03:01 PM,03/15/2015 01:03:01 PM,,OVERDUE,Open,,No Utilities Residential - Water,Inspectional Services,Housing,No Utilities Residential - Water,ISD_Housing (INTERNAL),ISD,,,1304 Dorchester Ave  Dorchester  MA  02122,7.0,03,3.0,C11,Dorchester,8.0,Ward 15,1506.0,RC,1304 Dorchester Ave,2122.0,Address,224670.0,42.3061,-71.0585,Constituent Call,"(42.3061, -71.0585)"
506315,101001293598,02/13/2015 01:19:35 PM,03/15/2015 01:19:35 PM,,OVERDUE,Open,,No Utilities Residential - Water,Inspectional Services,Housing,No Utilities Residential - Water,ISD_Housing (INTERNAL),ISD,,,6 Bunker Hill Ct  Charlestown  MA  02129,3.0,1A,1.0,A15,Charlestown,2.0,Ward 2,205.0,R1,6 Bunker Hill Ct,2129.0,Address,23279.0,42.3806,-71.067,Self Service,"(42.3806, -71.067)"
507510,101001295307,02/14/2015 06:51:47 PM,03/16/2015 06:51:46 PM,03/12/2015 03:42:51 PM,ONTIME,Closed,Case Closed :,No Utilities Residential - Water,Inspectional Services,Housing,No Utilities Residential - Water,ISD_Housing (INTERNAL),ISD,,,11 Colonel Michael J. McDonough Way  South Boston  MA  02127,6.0,05,2.0,C6,South Boston / South Boston Waterfront,5.0,07,707.0,E,11 Colonel Michael J. McDonough Way,2127.0,Address,173816.0,42.3284,-71.0533,Constituent Call,"(42.3284, -71.0533)"
509355,101001297498,02/16/2015 09:59:28 AM,03/18/2015 09:59:25 AM,02/16/2015 10:53:02 AM,ONTIME,Closed,Case Closed Case Invalid No Address Associated with Case.,No Utilities Residential - Water,Inspectional Services,Housing,No Utilities Residential - Water,ISD_Housing (INTERNAL),ISD,,,,,,,,,,,,,,,,,42.3594,-71.0587,Employee Generated,"(0, 0)"
509679,101001297892,02/16/2015 11:40:38 AM,03/18/2015 11:40:38 AM,,OVERDUE,Open,,No Utilities Residential - Water,Inspectional Services,Housing,No Utilities Residential - Water,ISD_Housing (INTERNAL),ISD,,,137 Thornton St  Roxbury  MA  02119,9.0,10B,7.0,B2,Roxbury,13.0,Ward 11,1102.0,R3,137 Thornton St,2119.0,Address,319358.0,42.3227,-71.0922,Constituent Call,"(42.3227, -71.0922)"
509982,101001298274,02/16/2015 01:17:24 PM,03/18/2015 01:17:23 PM,,OVERDUE,Open,,No Utilities Residential - Water,Inspectional Services,Housing,No Utilities Residential - Water,ISD_Housing (INTERNAL),ISD,,,29 Mount Pleasant Ave  Roxbury  MA  02119,7.0,10B,7.0,B2,Roxbury,13.0,Ward 8,804.0,A,29 Mount Pleasant Ave,2119.0,Address,278720.0,42.3273,-71.0797,Constituent Call,"(42.3273, -71.0797)"
510033,101001298331,02/16/2015 01:34:38 PM,03/18/2015 01:34:37 PM,,OVERDUE,Open,,No Utilities Residential - Water,Inspectional Services,Housing,No Utilities Residential - Water,ISD_Housing (INTERNAL),ISD,,,100 Pleasant St  Dorchester  MA  02125,7.0,03,3.0,C11,Dorchester,8.0,Ward 15,1504.0,R4,100 Pleasant St,2125.0,Address,111130.0,42.3122,-71.0588,Constituent Call,"(42.3122, -71.0588)"
511166,101001299754,02/16/2015 10:05:36 PM,03/18/2015 10:05:36 PM,,OVERDUE,Open,,No Utilities Residential - Water,Inspectional Services,Housing,No Utilities Residential - Water,ISD_Housing (INTERNAL),ISD,,,67 Summer St  Hyde Park  MA  02136,12.0,08,5.0,E18,Hyde Park,10.0,Ward 18,1812.0,E,67 Summer St,2136.0,Address,315571.0,42.2595,-71.1247,Constituent Call,"(42.2595, -71.1247)"
511182,101001299775,02/16/2015 10:17:22 PM,03/18/2015 10:17:22 PM,02/18/2015 03:03:49 PM,ONTIME,Closed,Case Closed ADCLSD: Administratively Closed,No Utilities Residential - Water,Inspectional Services,Housing,No Utilities Residential - Water,ISD_Housing (INTERNAL),ISD,,,248 Kelton St  Allston  MA  02134,11.0,04,9.0,D14,Allston / Brighton,15.0,Ward 21,2108.0,A,248 Kelton St,2134.0,Address,260825.0,42.3465,-71.1356,Self Service,"(42.3465, -71.1356)"
511225,101001299831,02/16/2015 11:48:26 PM,03/18/2015 11:48:26 PM,03/17/2015 10:31:52 AM,ONTIME,Closed,Case Closed :,No Utilities Residential - Water,Inspectional Services,Housing,No Utilities Residential - Water,ISD_Housing (INTERNAL),ISD,,,1429 Tremont St  Mission Hill  MA  02120,9.0,10A,7.0,B2,Mission Hill,13.0,Ward 9,904.0,RC,1429 Tremont St,2120.0,Address,320688.0,42.3319,-71.0964,Self Service,"(42.3319, -71.0964)"
511460,101001300157,02/17/2015 08:34:33 AM,03/19/2015 08:34:33 AM,,OVERDUE,Open,,No Utilities Residential - Water,Inspectional Services,Housing,No Utilities Residential - Water,ISD_Housing (INTERNAL),ISD,,,4008 Washington St  Roslindale  MA  02131,12.0,02,5.0,E5,Roslindale,10.0,Ward 19,1911.0,CM,4008 Washington St,2131.0,Address,145056.0,42.2921,-71.1218,Constituent Call,"(42.2921, -71.1218)"
511606,101001300393,02/17/2015 09:25:01 AM,03/19/2015 09:25:01 AM,03/31/2015 10:04:11 AM,OVERDUE,Closed,Case Closed :,No Utilities Residential - Water,Inspectional Services,Housing,No Utilities Residential - Water,ISD_Housing (INTERNAL),ISD,,,63 Hartford St  Dorchester  MA  02125,7.0,03,7.0,B2,Roxbury,13.0,Ward 13,1304.0,R2,63 Hartford St,2125.0,Address,70245.0,42.3141,-71.0734,Constituent Call,"(42.3141, -71.0734)"
511692,101001300522,02/17/2015 09:53:52 AM,03/19/2015 09:53:52 AM,,OVERDUE,Open,,No Utilities Residential - Water,Inspectional Services,Housing,No Utilities Residential - Water,ISD_Housing (INTERNAL),ISD,,,150 Walnut Ave  Roxbury  MA  02119,9.0,10B,7.0,B2,Roxbury,13.0,Ward 12,1205.0,R4,150 Walnut Ave,2119.0,Address,327249.0,42.3202,-71.087,Constituent Call,"(42.3202, -71.087)"
511934,101001300858,02/17/2015 11:13:56 AM,03/19/2015 11:13:56 AM,,OVERDUE,Open,,No Utilities Residential - Water,Inspectional Services,Housing,No Utilities Residential - Water,ISD_Housing (INTERNAL),ISD,,,5 Salisbury Park  Dorchester  MA  02122,7.0,07,3.0,C11,Dorchester,7.0,Ward 16,1601.0,CD,5 Salisbury Park,2122.0,Address,122004.0,42.2994,-71.059,Constituent Call,"(42.2994, -71.059)"
512070,101001301045,02/17/2015 11:55:30 AM,03/19/2015 11:55:30 AM,02/17/2015 12:01:04 PM,ONTIME,Closed,Case Closed Duplicate of Existing Case Duplicate,No Utilities Residential - Water,Inspectional Services,Housing,No Utilities Residential - Water,ISD_Housing (INTERNAL),ISD,,,5 Salisbury Park  Dorchester  MA  02122,7.0,07,3.0,C11,Dorchester,7.0,Ward 16,1601.0,CM,5 Salisbury Park,2122.0,Address,122003.0,42.2994,-71.059,Constituent Call,"(42.2994, -71.059)"
512437,101001301569,02/17/2015 02:30:29 PM,03/19/2015 02:30:29 PM,02/17/2015 02:38:12 PM,ONTIME,Closed,Case Closed Case Invalid Opened wrong eform.  See case number 1301573.,No Utilities Residential - Water,Inspectional Services,Housing,No Utilities Residential - Water,ISD_Housing (INTERNAL),ISD,,,15 Rockdale St  Mattapan  MA  02126,8.0,08,4.0,E18,Greater Mattapan,9.0,Ward 18,1804.0,R2,15 Rockdale St,2126.0,Address,117561.0,42.2685,-71.0967,Constituent Call,"(42.2685, -71.0967)"
514521,101001304506,02/18/2015 02:25:29 PM,03/20/2015 02:25:29 PM,,OVERDUE,Open,,No Utilities Residential - Water,Inspectional Services,Housing,No Utilities Residential - Water,ISD_Housing (INTERNAL),ISD,,,29 Mount Pleasant Ave  Roxbury  MA  02119,7.0,10B,7.0,B2,Roxbury,13.0,Ward 8,804.0,A,29 Mount Pleasant Ave,2119.0,Address,278720.0,42.3273,-71.0797,Constituent Call,"(42.3273, -71.0797)"
515582,101001306195,02/19/2015 09:59:39 AM,03/21/2015 09:59:39 AM,,OVERDUE,Open,,No Utilities Residential - Water,Inspectional Services,Housing,No Utilities Residential - Water,ISD_Housing (INTERNAL),ISD,,,648 Weld St  West Roxbury  MA  02132,12.0,06,6.0,E5,West Roxbury,12.0,Ward 20,2020.0,R1,648 Weld St,2132.0,Address,147217.0,42.2914,-71.1603,Self Service,"(42.2914, -71.1603)"
515889,101001306621,02/19/2015 12:00:18 PM,03/21/2015 12:00:18 PM,,OVERDUE,Open,,No Utilities Residential - Water,Inspectional Services,Housing,No Utilities Residential - Water,ISD_Housing (INTERNAL),ISD,,,10 Gilmer St  Mattapan  MA  02126,8.0,07,4.0,B3,Greater Mattapan,9.0,Ward 14,1408.0,R2,10 Gilmer St,2126.0,Address,241091.0,42.2826,-71.0972,Constituent Call,"(42.2826, -71.0972)"
517405,101001308811,02/20/2015 01:42:22 PM,03/22/2015 01:42:21 PM,,OVERDUE,Open,,No Utilities Residential - Water,Inspectional Services,Housing,No Utilities Residential - Water,ISD_Housing (INTERNAL),ISD,,,32 Oakwood St  Dorchester  MA  02124,8.0,07,4.0,B3,Dorchester,9.0,Ward 17,1708.0,R3,32 Oakwood St,2124.0,Address,286254.0,42.2879,-71.0733,Constituent Call,"(42.2879, -71.0733)"
517437,101001308861,02/20/2015 02:14:48 PM,03/22/2015 02:14:48 PM,08/03/2015 09:18:40 AM,OVERDUE,Closed,Case Closed. Closed date : 2015-08-03 09:18:40.69 VIOLFND: Violation Found,No Utilities Residential - Water,Inspectional Services,Housing,No Utilities Residential - Water,ISD_Housing (INTERNAL),ISD,,,86 Willow Ct  Dorchester  MA  02125,6.0,03,2.0,C6,Dorchester,5.0,Ward 7,708.0,R3,86 Willow Ct,2125.0,Address,150200.0,42.3247,-71.0643,Constituent Call,"(42.3247, -71.0643)"
520203,101001313039,02/23/2015 06:34:36 PM,03/25/2015 06:34:36 PM,,OVERDUE,Open,,No Utilities Residential - Water,Inspectional Services,Housing,No Utilities Residential - Water,ISD_Housing (INTERNAL),ISD,,,3-5 Edwin St  Dorchester  MA  02124,8.0,07,3.0,C11,Dorchester,7.0,Ward 16,1606.0,A,3-5 Edwin St,2124.0,Address,51398.0,42.2887,-71.063,Constituent Call,"(42.2887, -71.063)"
522232,101001315985,02/25/2015 12:25:53 PM,03/27/2015 12:25:53 PM,,OVERDUE,Open,,No Utilities Residential - Water,Inspectional Services,Housing,No Utilities Residential - Water,ISD_Housing (INTERNAL),ISD,,,701 Walk Hill St  Mattapan  MA  02126,8.0,07,5.0,B3,Greater Mattapan,9.0,Ward 18,1803.0,R3,701 Walk Hill St,2126.0,Address,326407.0,42.2776,-71.0945,Constituent Call,"(42.2776, -71.0945)"
524006,101001318521,02/26/2015 10:30:15 PM,03/28/2015 10:30:15 PM,,OVERDUE,Open,,No Utilities Residential - Water,Inspectional Services,Housing,No Utilities Residential - Water,ISD_Housing (INTERNAL),ISD,,,69 Chelsea St  East Boston  MA  02128,1.0,09,1.0,A7,East Boston,1.0,Ward 1,104.0,R3,69 Chelsea St,2128.0,Address,206351.0,42.3715,-71.0365,Constituent Call,"(42.3715, -71.0365)"
524806,101001319706,02/27/2015 07:32:58 PM,03/29/2015 07:32:58 PM,02/27/2015 07:34:13 PM,ONTIME,Closed,Case Closed Case Invalid case opened in error,No Utilities Residential - Water,Inspectional Services,Housing,No Utilities Residential - Water,ISD_Housing (INTERNAL),ISD,,,235 Condor St  East Boston  MA  02128,1.0,09,1.0,A7,East Boston,1.0,Ward 1,109.0,R3,235 Condor St,2128.0,Address,42035.0,42.3823,-71.0318,Constituent Call,"(42.3823, -71.0318)"
525057,101001320123,02/28/2015 03:29:56 PM,03/30/2015 03:29:56 PM,02/28/2015 03:43:15 PM,ONTIME,Closed,Case Closed Case Invalid opened in error,No Utilities Residential - Water,Inspectional Services,Housing,No Utilities Residential - Water,ISD_Housing (INTERNAL),ISD,,,40 Montgomery St  Roxbury  MA  02118,4.0,1C,2.0,D4,South End,6.0,Ward 4,401.0,CM,40 Montgomery St,2118.0,Address,96683.0,42.3436,-71.0733,Constituent Call,"(42.3436, -71.0733)"
525180,101001320359,03/01/2015 08:13:07 AM,03/31/2015 08:13:07 AM,,OVERDUE,Open,,No Utilities Residential - Water,Inspectional Services,Housing,No Utilities Residential - Water,ISD_Housing (INTERNAL),ISD,,,14 Estella St  Mattapan  MA  02126,8.0,07,4.0,B3,Greater Mattapan,9.0,Ward 14,1411.0,CD,14 Estella St,2126.0,Address,54385.0,42.2868,-71.0943,Constituent Call,"(42.2868, -71.0943)"
525888,101001321401,03/02/2015 01:14:33 PM,04/01/2015 01:14:33 PM,03/19/2015 04:15:04 PM,ONTIME,Closed,Case Closed :,No Utilities Residential - Water,Inspectional Services,Housing,No Utilities Residential - Water,ISD_Housing (INTERNAL),ISD,,,36 Elm Hill Ave  Dorchester  MA  02121,9.0,10B,7.0,B2,Roxbury,13.0,Ward 12,1202.0,R3,36 Elm Hill Ave,2121.0,Address,53222.0,42.3119,-71.0853,Constituent Call,"(42.3119, -71.0853)"
526036,101001321598,03/02/2015 02:50:18 PM,04/01/2015 02:50:18 PM,03/12/2015 09:17:02 AM,ONTIME,Closed,Case Closed :,No Utilities Residential - Water,Inspectional Services,Housing,No Utilities Residential - Water,ISD_Housing (INTERNAL),ISD,,,42 Oakwood St  Mattapan  MA  02126,8.0,08,5.0,E18,Hyde Park,10.0,Ward 18,1806.0,R1,42 Oakwood St,2126.0,Address,104981.0,42.2683,-71.1093,Constituent Call,"(42.2683, -71.1093)"
526992,101001323071,03/03/2015 05:26:55 PM,04/02/2015 05:26:54 PM,03/14/2015 09:44:47 AM,ONTIME,Closed,Case Closed :,No Utilities Residential - Water,Inspectional Services,Housing,No Utilities Residential - Water,ISD_Housing (INTERNAL),ISD,,,247 Walnut Ave  Roxbury  MA  02119,9.0,10B,7.0,B2,Roxbury,13.0,Ward 11,1103.0,A,247 Walnut Ave,2119.0,Address,141916.0,42.3181,-71.0913,Constituent Call,"(42.3181, -71.0913)"
527684,101001324088,03/04/2015 03:32:36 PM,04/03/2015 03:32:36 PM,03/17/2015 12:06:47 PM,ONTIME,Closed,Case Closed ADCLSD: Administratively Closed,No Utilities Residential - Water,Inspectional Services,Housing,No Utilities Residential - Water,ISD_Housing (INTERNAL),ISD,,,191 Faywood Ave  East Boston  MA  02128,1.0,09,1.0,A7,East Boston,1.0,Ward 1,113.0,E,191 Faywood Ave,2128.0,Address,156518.0,42.3923,-71.0085,Constituent Call,"(42.3923, -71.0085)"
528931,101001325961,03/06/2015 11:28:00 AM,04/05/2015 11:28:00 AM,03/11/2015 11:59:11 AM,ONTIME,Closed,Case Closed ADCLSD: Administratively Closed,No Utilities Residential - Water,Inspectional Services,Housing,No Utilities Residential - Water,ISD_Housing (INTERNAL),ISD,,,1 Normandy St  Dorchester  MA  02121,7.0,03,4.0,B2,Roxbury,13.0,Ward 14,1401.0,R3,1 Normandy St,2121.0,Address,284000.0,42.312,-71.0779,Constituent Call,"(42.312, -71.0779)"
529927,101001327582,03/09/2015 10:07:04 AM,04/08/2015 10:07:03 AM,03/09/2015 01:45:29 PM,ONTIME,Closed,Case Closed ADCLSD: Administratively Closed,No Utilities Residential - Water,Inspectional Services,Housing,No Utilities Residential - Water,ISD_Housing (INTERNAL),ISD,,,102 Lawrence Ave  Dorchester  MA  02121,7.0,03,4.0,B2,Roxbury,13.0,Ward 14,1401.0,R1,102 Lawrence Ave,2121.0,Address,84510.0,42.3109,-71.0747,Constituent Call,"(42.3109, -71.0747)"
529940,101001327601,03/09/2015 10:16:04 AM,04/08/2015 10:16:03 AM,03/11/2015 10:41:34 AM,ONTIME,Closed,Case Closed :,No Utilities Residential - Water,Inspectional Services,Housing,No Utilities Residential - Water,ISD_Housing (INTERNAL),ISD,,,31 Moreland St  Roxbury  MA  02119,7.0,10B,7.0,B2,Roxbury,13.0,Ward 12,1201.0,R4,31 Moreland St,2119.0,Address,277396.0,42.3251,-71.0814,Constituent Call,"(42.3251, -71.0814)"
530347,101001328225,03/09/2015 05:08:21 PM,04/08/2015 05:08:21 PM,03/10/2015 08:48:05 AM,ONTIME,Closed,Case Closed :,No Utilities Residential - Water,Inspectional Services,Housing,No Utilities Residential - Water,ISD_Housing (INTERNAL),ISD,,,28 Pond St  Jamaica Plain  MA  02130,9.0,02,6.0,E13,Jamaica Plain,11.0,Ward 19,1905.0,R1,28 Pond St,2130.0,Address,111620.0,42.3149,-71.1155,Self Service,"(42.3149, -71.1155)"
531666,101001330276,03/11/2015 01:24:59 PM,04/10/2015 01:24:59 PM,03/18/2015 02:21:28 PM,ONTIME,Closed,Case Closed :,No Utilities Residential - Water,Inspectional Services,Housing,No Utilities Residential - Water,ISD_Housing (INTERNAL),ISD,,,58 Annunciation Rd  Mission Hill  MA  02120,9.0,10A,7.0,B2,Mission Hill,13.0,Ward 4,409.0,E,58 Annunciation Rd,2120.0,Address,173715.0,42.3346,-71.0927,Constituent Call,"(42.3346, -71.0927)"
531706,101001330337,03/11/2015 01:59:32 PM,04/10/2015 01:59:32 PM,03/12/2015 08:01:18 AM,ONTIME,Closed,Case Closed :,No Utilities Residential - Water,Inspectional Services,Housing,No Utilities Residential - Water,ISD_Housing (INTERNAL),ISD,,,221-221A Walnut Ave  Roxbury  MA  02119,9.0,10B,7.0,B2,Roxbury,13.0,Ward 11,1103.0,R3,221-221A Walnut Ave,2119.0,Address,141910.0,42.3193,-71.0905,Constituent Call,"(42.3193, -71.0905)"
532083,101001330913,03/12/2015 08:45:14 AM,04/11/2015 08:45:14 AM,,OVERDUE,Open,,No Utilities Residential - Water,Inspectional Services,Housing,No Utilities Residential - Water,ISD_Housing (INTERNAL),ISD,,,50 Annunciation Rd  Mission Hill  MA  02120,9.0,10A,7.0,B2,Mission Hill,13.0,Ward 4,409.0,E,50 Annunciation Rd,2120.0,Address,178434.0,42.3351,-71.0929,Constituent Call,"(42.3351, -71.0929)"
532520,101001331486,03/12/2015 01:31:41 PM,04/11/2015 01:31:41 PM,03/13/2015 08:01:24 AM,ONTIME,Closed,Case Closed :,No Utilities Residential - Water,Inspectional Services,Housing,No Utilities Residential - Water,ISD_Housing (INTERNAL),ISD,,,6 Rockland Ave  Roxbury  MA  02119,7.0,10B,7.0,B2,Roxbury,13.0,Ward 12,1203.0,R2,6 Rockland Ave,2119.0,Address,117670.0,42.3216,-71.0838,Constituent Call,"(42.3216, -71.0838)"
532671,101001331735,03/12/2015 05:11:23 PM,04/11/2015 05:11:23 PM,03/13/2015 07:53:11 AM,ONTIME,Closed,Case Closed :,No Utilities Residential - Water,Inspectional Services,Housing,No Utilities Residential - Water,ISD_Housing (INTERNAL),ISD,,,INTERSECTION of Moultrie St & Seaborn St  Dorchester  MA,8.0,07,4.0,C11,Dorchester,8.0,Ward 17,1706.0,,INTERSECTION Moultrie St & Seaborn St,,Intersection,7431.0,42.2917,-71.069,Self Service,"(42.2917, -71.069)"
535925,101001336283,03/18/2015 12:34:58 PM,04/17/2015 12:34:58 PM,03/18/2015 03:03:18 PM,ONTIME,Closed,Case Closed :,No Utilities Residential - Water,Inspectional Services,Housing,No Utilities Residential - Water,ISD_Housing (INTERNAL),ISD,,,1515 VFW Pkwy  West Roxbury  MA  02132,12.0,06,6.0,E5,West Roxbury,12.0,20,2016.0,R1,1515 VFW Pkwy,2132.0,Address,140298.0,42.2687,-71.1731,Constituent Call,"(42.2687, -71.1731)"
536205,101001336650,03/18/2015 05:08:16 PM,04/17/2015 05:08:16 PM,,OVERDUE,Open,,No Utilities Residential - Water,Inspectional Services,Housing,No Utilities Residential - Water,ISD_Housing (INTERNAL),ISD,,,55 S Huntington Ave  Jamaica Plain  MA  02130,9.0,10A,8.0,E13,Mission Hill,11.0,Ward 10,1008.0,A,55 S Huntington Ave,2130.0,Address,76822.0,42.3307,-71.1118,Self Service,"(42.3307, -71.1118)"
537007,101001337726,03/19/2015 05:48:59 PM,04/18/2015 05:48:59 PM,03/20/2015 08:30:27 AM,ONTIME,Closed,Case Closed ADCLSD: Administratively Closed,No Utilities Residential - Water,Inspectional Services,Housing,No Utilities Residential - Water,ISD_Housing (INTERNAL),ISD,,,6 Fidelis Way  Brighton  MA  02135,11.0,04,9.0,D14,Allston / Brighton,15.0,Ward 21,2110.0,E,6 Fidelis Way,2135.0,Address,235291.0,42.3451,-71.1431,Constituent Call,"(42.3451, -71.1431)"
538778,101001340196,03/23/2015 09:54:31 PM,04/22/2015 09:54:30 PM,,OVERDUE,Open,,No Utilities Residential - Water,Inspectional Services,Housing,No Utilities Residential - Water,ISD_Housing (INTERNAL),ISD,,,180 Shawmut Ave  Roxbury  MA  02118,4.0,1C,2.0,D4,South End,4.0,Ward 3,308.0,A,180 Shawmut Ave,2118.0,Address,309705.0,42.3448,-71.0664,Constituent Call,"(42.3448, -71.0664)"
539047,101001340559,03/24/2015 11:07:30 AM,04/23/2015 11:07:30 AM,,OVERDUE,Open,,No Utilities Residential - Water,Inspectional Services,Housing,No Utilities Residential - Water,ISD_Housing (INTERNAL),ISD,,,363 Massachusetts Ave  Boston  MA  02115,9.0,10A,7.0,D4,Boston,13.0,04,408.0,EA,363 Massachusetts Ave,2115.0,Address,271672.0,42.3417,-71.0838,Constituent Call,"(42.3417, -71.0838)"
539226,101001340805,03/24/2015 01:41:58 PM,04/23/2015 01:41:58 PM,04/14/2015 03:08:00 PM,ONTIME,Closed,Case Closed VIOLFND: Violation Found,No Utilities Residential - Water,Inspectional Services,Housing,No Utilities Residential - Water,ISD_Housing (INTERNAL),ISD,,,122 Ballou Ave  Dorchester  MA  02124,8.0,07,4.0,B3,Greater Mattapan,9.0,Ward 14,1413.0,R2,122 Ballou Ave,2124.0,Address,181988.0,42.2844,-71.0834,Constituent Call,"(42.2844, -71.0834)"
539247,101001340832,03/24/2015 01:54:36 PM,04/23/2015 01:54:36 PM,,OVERDUE,Open,,No Utilities Residential - Water,Inspectional Services,Housing,No Utilities Residential - Water,ISD_Housing (INTERNAL),ISD,,,425 Old Colony Ave  South Boston  MA  02127,6.0,05,2.0,C6,South Boston / South Boston Waterfront,5.0,Ward 7,707.0,E,425 Old Colony Ave,2127.0,Address,286575.0,42.3258,-71.0528,Constituent Call,"(42.3258, -71.0528)"
539466,101001341134,03/24/2015 06:51:12 PM,04/23/2015 06:51:12 PM,03/26/2015 07:17:51 AM,ONTIME,Closed,Case Closed ADCLSD: Administratively Closed,No Utilities Residential - Water,Inspectional Services,Housing,No Utilities Residential - Water,ISD_Housing (INTERNAL),ISD,,,38 Stellman Rd  Roslindale  MA  02131,12.0,02,5.0,E5,Roslindale,10.0,Ward 19,1913.0,R3,38 Stellman Rd,2131.0,Address,314371.0,42.2892,-71.1224,Constituent Call,"(42.2892, -71.1224)"
540410,101001342425,03/26/2015 09:57:33 AM,04/25/2015 09:57:32 AM,03/26/2015 01:20:39 PM,ONTIME,Closed,Case Closed :,No Utilities Residential - Water,Inspectional Services,Housing,No Utilities Residential - Water,ISD_Housing (INTERNAL),ISD,,,194 Cottage St  East Boston  MA  02128,1.0,09,1.0,A7,East Boston,1.0,01,102.0,R3,194 Cottage St,2128.0,Address,219634.0,42.3707,-71.0322,Self Service,"(42.3707, -71.0322)"
541127,101001343501,03/27/2015 12:11:45 PM,04/26/2015 12:11:45 PM,,OVERDUE,Open,,No Utilities Residential - Water,Inspectional Services,Housing,No Utilities Residential - Water,ISD_Housing (INTERNAL),ISD,,,21 Esmond St  Dorchester  MA  02121,7.0,03,4.0,B3,Greater Mattapan,8.0,Ward 14,1407.0,R3,21 Esmond St,2121.0,Address,54255.0,42.2987,-71.0856,Constituent Call,"(42.2987, -71.0856)"
543825,101001347204,04/01/2015 05:00:54 PM,05/01/2015 05:00:54 PM,,OVERDUE,Open,,No Utilities Residential - Water,Inspectional Services,Housing,No Utilities Residential - Water,ISD_Housing (INTERNAL),ISD,,,903 Saratoga St  East Boston  MA  02128,1.0,09,1.0,A7,East Boston,1.0,Ward 1,113.0,R3,903 Saratoga St,2128.0,Address,306420.0,42.3857,-71.0116,Constituent Call,"(42.3857, -71.0116)"
544755,101001348530,04/03/2015 09:04:25 AM,05/03/2015 09:04:25 AM,,OVERDUE,Open,,No Utilities Residential - Water,Inspectional Services,Housing,No Utilities Residential - Water,ISD_Housing (INTERNAL),ISD,,,26 Chiswick Rd  Brighton  MA  02135,11.0,04,9.0,D14,Allston / Brighton,15.0,Ward 21,2115.0,CD,26 Chiswick Rd,2135.0,Address,32428.0,42.3386,-71.1507,Constituent Call,"(42.3386, -71.1507)"
546201,101001350517,04/06/2015 07:12:00 PM,05/06/2015 07:12:00 PM,,OVERDUE,Open,,No Utilities Residential - Water,Inspectional Services,Housing,No Utilities Residential - Water,ISD_Housing (INTERNAL),ISD,,,425 Old Colony Ave  South Boston  MA  02127,6.0,05,2.0,C6,South Boston / South Boston Waterfront,5.0,Ward 7,707.0,E,425 Old Colony Ave,2127.0,Address,286575.0,42.3258,-71.0528,Constituent Call,"(42.3258, -71.0528)"
548599,101001353703,04/10/2015 02:43:12 PM,05/10/2015 02:43:12 PM,,OVERDUE,Open,,No Utilities Residential - Water,Inspectional Services,Housing,No Utilities Residential - Water,ISD_Housing (INTERNAL),ISD,,,623 Cummins Hwy  Mattapan  MA  02126,8.0,08,5.0,E18,Mattapan,10.0,18,1806.0,CD,623 Cummins Hwy,2126.0,Address,44923.0,42.2716,-71.107,Constituent Call,"(42.2716, -71.107)"
550593,101001356541,04/15/2015 12:32:11 AM,05/15/2015 12:32:11 AM,04/16/2015 07:42:36 AM,ONTIME,Closed,Case Closed Case Resolved Constituent called back saying after threatening to call ISD  her building management fixed the problem.,No Utilities Residential - Water,Inspectional Services,Housing,No Utilities Residential - Water,ISD_Housing (INTERNAL),ISD,,,24 Chiswick Rd  Brighton  MA  02135,11.0,04,9.0,D14,Allston / Brighton,15.0,Ward 21,2115.0,CD,24 Chiswick Rd,2135.0,Address,32412.0,42.3385,-71.1508,Self Service,"(42.3385, -71.1508)"
551065,101001357139,04/15/2015 01:52:08 PM,05/15/2015 01:52:08 PM,,OVERDUE,Open,,No Utilities Residential - Water,Inspectional Services,Housing,No Utilities Residential - Water,ISD_Housing (INTERNAL),ISD,,,24 Chiswick Rd  Brighton  MA  02135,11.0,04,9.0,D14,Allston / Brighton,15.0,Ward 21,2115.0,CD,24 Chiswick Rd,2135.0,Address,32411.0,42.3385,-71.1508,Constituent Call,"(42.3385, -71.1508)"
552700,101001359542,04/18/2015 02:06:39 PM,05/18/2015 02:06:38 PM,04/18/2015 02:10:52 PM,ONTIME,Closed,Case Closed Case Invalid Case created in error.,No Utilities Residential - Water,Inspectional Services,Housing,No Utilities Residential - Water,ISD_Housing (INTERNAL),ISD,,,86 Wordsworth St  East Boston  MA  02128,1.0,09,1.0,A7,East Boston,1.0,Ward 1,111.0,R1,86 Wordsworth St,2128.0,Address,152669.0,42.3847,-71.0159,Constituent Call,"(42.3847, -71.0159)"
553171,101001360187,04/20/2015 07:58:08 PM,05/20/2015 07:58:07 PM,,OVERDUE,Open,,No Utilities Residential - Water,Inspectional Services,Housing,No Utilities Residential - Water,ISD_Housing (INTERNAL),ISD,,,50 Quincy St  Roxbury  MA  02119,9.0,10B,7.0,B2,Roxbury,13.0,Ward 12,1206.0,R3,50 Quincy St,2119.0,Address,158904.0,42.3154,-71.08,Constituent Call,"(42.3154, -71.08)"
553387,101001360531,04/21/2015 10:33:28 AM,05/21/2015 10:33:27 AM,,OVERDUE,Open,,No Utilities Residential - Water,Inspectional Services,Housing,No Utilities Residential - Water,ISD_Housing (INTERNAL),ISD,,,11 Business St  Hyde Park  MA  02136,12.0,08,5.0,E18,Hyde Park,10.0,Ward 18,1818.0,R2,11 Business St,2136.0,Address,24227.0,42.2551,-71.126,Self Service,"(42.2551, -71.126)"
553794,101001361095,04/21/2015 07:51:52 PM,05/21/2015 07:51:52 PM,,OVERDUE,Open,,No Utilities Residential - Water,Inspectional Services,Housing,No Utilities Residential - Water,ISD_Housing (INTERNAL),ISD,,,282 Newbury St  Boston  MA  02116,4.0,1C,8.0,D4,Back Bay,14.0,Ward 5,508.0,CD,282 Newbury St,2116.0,Address,101497.0,42.349,-71.0838,Constituent Call,"(42.349, -71.0838)"
554834,101001362459,04/23/2015 12:50:01 PM,05/23/2015 12:50:00 PM,,OVERDUE,Open,,No Utilities Residential - Water,Inspectional Services,Housing,No Utilities Residential - Water,ISD_Housing (INTERNAL),ISD,,,12 Florence St  Roslindale  MA  02131,12.0,06,5.0,E5,Roslindale,10.0,Ward 19,1910.0,R3,12 Florence St,2131.0,Address,236077.0,42.2851,-71.1281,Constituent Call,"(42.2851, -71.1281)"
555323,101001363190,04/24/2015 12:23:01 PM,05/24/2015 12:23:01 PM,06/30/2015 08:31:34 AM,OVERDUE,Closed,Case Closed. Closed date : 2015-06-30 08:31:34.437 :,No Utilities Residential - Water,Inspectional Services,Housing,No Utilities Residential - Water,ISD_Housing (INTERNAL),ISD,,,40 Upton St  Roxbury  MA  02118,4.0,1C,2.0,D4,South End,6.0,Ward 9,901.0,E,40 Upton St,2118.0,Address,139630.0,42.3426,-71.0727,Constituent Call,"(42.3426, -71.0727)"
555668,101001363645,04/25/2015 07:40:07 AM,05/25/2015 07:40:07 AM,04/27/2015 02:44:59 PM,ONTIME,Closed,Case Closed Case Invalid Eform would not generate at the time. Please refer to case number 101001363658,No Utilities Residential - Water,Inspectional Services,Housing,No Utilities Residential - Water,ISD_Housing (INTERNAL),ISD,,,28 Clare Ave  Roslindale  MA  02131,12.0,08,5.0,E18,Roslindale,10.0,Ward 18,1808.0,R2,28 Clare Ave,2131.0,Address,32980.0,42.2772,-71.1181,Constituent Call,"(42.2772, -71.1181)"
555679,101001363658,04/25/2015 09:45:52 AM,05/25/2015 09:45:52 AM,,OVERDUE,Open,,No Utilities Residential - Water,Inspectional Services,Housing,No Utilities Residential - Water,ISD_Housing (INTERNAL),ISD,,,28 Clare Ave  Roslindale  MA  02131,12.0,08,5.0,E18,Roslindale,10.0,Ward 18,1808.0,R2,28 Clare Ave,2131.0,Address,207992.0,42.2772,-71.1181,Constituent Call,"(42.2772, -71.1181)"
555755,101001363790,04/25/2015 05:22:57 PM,05/25/2015 05:22:57 PM,04/28/2015 08:39:40 AM,ONTIME,Closed,Case Closed :,No Utilities Residential - Water,Inspectional Services,Housing,No Utilities Residential - Water,ISD_Housing (INTERNAL),ISD,,,146 Boston St  Dorchester  MA  02125,6.0,03,2.0,C6,Dorchester,5.0,Ward 7,708.0,R3,146 Boston St,2125.0,Address,191252.0,42.3246,-71.0593,Constituent Call,"(42.3246, -71.0593)"
556154,101001364432,04/27/2015 10:33:10 AM,05/27/2015 10:33:10 AM,,OVERDUE,Open,,No Utilities Residential - Water,Inspectional Services,Housing,No Utilities Residential - Water,ISD_Housing (INTERNAL),ISD,,,28 Clare Ave  Roslindale  MA  02131,12.0,08,5.0,E18,Roslindale,10.0,Ward 18,1808.0,R2,28 Clare Ave,2131.0,Address,32980.0,42.2772,-71.1181,Constituent Call,"(42.2772, -71.1181)"
556794,101001365272,04/28/2015 09:49:20 AM,05/28/2015 09:49:20 AM,,OVERDUE,Open,,No Utilities Residential - Water,Inspectional Services,Housing,No Utilities Residential - Water,ISD_Housing (INTERNAL),ISD,,,21 Ramsey St  Dorchester  MA  02125,7.0,03,7.0,B2,Dorchester,13.0,Ward 7,710.0,R4,21 Ramsey St,2125.0,Address,297470.0,42.3181,-71.0645,Constituent Call,"(42.3181, -71.0645)"
557089,101001365649,04/28/2015 02:30:46 PM,05/28/2015 02:30:46 PM,,OVERDUE,Open,,No Utilities Residential - Water,Inspectional Services,Housing,No Utilities Residential - Water,ISD_Housing (INTERNAL),ISD,,,282 Newbury St  Boston  MA  02116,4.0,1C,8.0,D4,Back Bay,14.0,Ward 5,508.0,CD,282 Newbury St,2116.0,Address,101505.0,42.349,-71.0838,Constituent Call,"(42.349, -71.0838)"
557531,101001366229,04/29/2015 09:28:47 AM,05/29/2015 09:28:47 AM,,OVERDUE,Open,,No Utilities Residential - Water,Inspectional Services,Housing,No Utilities Residential - Water,ISD_Housing (INTERNAL),ISD,,,282 Newbury St  Boston  MA  02116,4.0,1C,8.0,D4,Back Bay,14.0,Ward 5,508.0,CM,282 Newbury St,2116.0,Address,101496.0,42.349,-71.0838,Constituent Call,"(42.349, -71.0838)"
559306,101001368950,05/03/2015 03:23:00 PM,06/02/2015 03:23:00 PM,,OVERDUE,Open,,No Utilities Residential - Water,Inspectional Services,Housing,No Utilities Residential - Water,ISD_Housing (INTERNAL),ISD,,,33 Spring St  West Roxbury  MA  02132,12.0,06,6.0,E5,West Roxbury,12.0,20,2005.0,E,33 Spring St,2132.0,Address,313260.0,42.2788,-71.1619,Constituent Call,"(42.2788, -71.1619)"
559314,101001368964,05/03/2015 04:34:00 PM,06/02/2015 04:34:59 PM,,OVERDUE,Open,,No Utilities Residential - Water,Inspectional Services,Housing,No Utilities Residential - Water,ISD_Housing (INTERNAL),ISD,,,125 Mercer St  South Boston  MA  02127,6.0,05,2.0,C6,South Boston / South Boston Waterfront,5.0,07,706.0,E,125 Mercer St,2127.0,Address,341812.0,42.3594,-71.0587,Constituent Call,"(0, 0)"
559425,101001369142,05/04/2015 08:11:01 AM,06/03/2015 08:11:01 AM,,OVERDUE,Open,,No Utilities Residential - Water,Inspectional Services,Housing,No Utilities Residential - Water,ISD_Housing (INTERNAL),ISD,,,194 London St  East Boston  MA  02128,1.0,09,1.0,A7,East Boston,1.0,Ward 1,106.0,R1,194 London St,2128.0,Address,87031.0,42.3753,-71.037,Constituent Call,"(42.3753, -71.037)"
559593,101001369375,05/04/2015 10:41:00 AM,06/03/2015 10:41:43 AM,,OVERDUE,Open,,No Utilities Residential - Water,Inspectional Services,Housing,No Utilities Residential - Water,ISD_Housing (INTERNAL),ISD,,,5-7 Belnel Rd  Mattapan  MA  02126,8.0,08,5.0,E18,Hyde Park,9.0,Ward 18,1805.0,R2,5-7 Belnel Rd,2126.0,Address,14230.0,42.2629,-71.1046,Constituent Call,"(42.2629, -71.1046)"
560504,101001370668,05/05/2015 02:08:00 PM,06/04/2015 02:08:27 PM,07/21/2015 09:43:14 AM,OVERDUE,Closed,Case Closed. Closed date : 2015-07-21 09:43:14.223 VIOLFND: Violation Found,No Utilities Residential - Water,Inspectional Services,Housing,No Utilities Residential - Water,ISD_Housing (INTERNAL),ISD,,,322 Blue Hill Ave  Dorchester  MA  02121,7.0,03,4.0,B2,Roxbury,13.0,Ward 14,1401.0,RC,322 Blue Hill Ave,2121.0,Address,162164.0,42.3133,-71.0794,Constituent Call,"(42.3133, -71.0794)"
560528,101001370696,05/05/2015 02:16:00 PM,06/04/2015 02:16:25 PM,,OVERDUE,Open,,No Utilities Residential - Water,Inspectional Services,Housing,No Utilities Residential - Water,ISD_Housing (INTERNAL),ISD,,,7 Lawrence Ave  Dorchester  MA  02121,7.0,03,4.0,B2,Roxbury,13.0,Ward 14,1401.0,RC,7 Lawrence Ave,2121.0,Address,166985.0,42.3133,-71.0794,Constituent Call,"(42.3133, -71.0794)"
562167,101001373189,05/08/2015 09:17:00 AM,06/07/2015 09:17:18 AM,,OVERDUE,Open,,No Utilities Residential - Water,Inspectional Services,Housing,No Utilities Residential - Water,ISD_Housing (INTERNAL),ISD,,,130 Talbot Ave  Dorchester  MA  02124,8.0,03,4.0,B3,Greater Mattapan,8.0,Ward 14,1402.0,R4,130 Talbot Ave,2124.0,Address,317631.0,42.2931,-71.0813,Constituent Call,"(42.2931, -71.0813)"
562406,101001373550,05/08/2015 02:54:00 PM,06/07/2015 02:54:18 PM,,OVERDUE,Open,,No Utilities Residential - Water,Inspectional Services,Housing,No Utilities Residential - Water,ISD_Housing (INTERNAL),ISD,,,37 -39 Woodford St  Dorchester  MA  02125,7.0,03,7.0,B2,Roxbury,13.0,Ward 13,1302.0,RL,37 -39 Woodford St,2125.0,Address,172993.0,42.3185,-71.0712,Constituent Call,"(42.3185, -71.0712)"
563845,101001375753,05/12/2015 01:31:00 PM,06/11/2015 01:31:13 PM,,OVERDUE,Open,,No Utilities Residential - Water,Inspectional Services,Housing,No Utilities Residential - Water,ISD_Housing (INTERNAL),ISD,,,700 Border St  East Boston  MA  02128,1.0,09,1.0,A7,East Boston,1.0,Ward 1,108.0,RC,700 Border St,2128.0,Address,191023.0,42.3817,-71.0407,Constituent Call,"(42.3817, -71.0407)"
563867,101001375790,05/12/2015 01:57:00 PM,06/11/2015 01:57:34 PM,,OVERDUE,Open,,No Utilities Residential - Water,Inspectional Services,Housing,No Utilities Residential - Water,ISD_Housing (INTERNAL),ISD,,,418 Border St  East Boston  MA  02128,1.0,09,1.0,A7,East Boston,1.0,Ward 1,108.0,RC,418 Border St,2128.0,Address,190747.0,42.3809,-71.0409,Constituent Call,"(42.3809, -71.0409)"
563924,101001375863,05/12/2015 02:59:00 PM,06/11/2015 02:59:12 PM,,OVERDUE,Open,,No Utilities Residential - Water,Inspectional Services,Housing,No Utilities Residential - Water,ISD_Housing (INTERNAL),ISD,,,144-146 Norwell St  Dorchester  MA  02121,7.0,03,4.0,B3,Dorchester,8.0,Ward 14,1402.0,CD,144-146 Norwell St,2121.0,Address,104054.0,42.2974,-71.0783,Constituent Call,"(42.2974, -71.0783)"
563929,101001375870,05/12/2015 03:03:00 PM,06/11/2015 03:03:56 PM,,OVERDUE,Open,,No Utilities Residential - Water,Inspectional Services,Housing,No Utilities Residential - Water,ISD_Housing (INTERNAL),ISD,,,144-146 Norwell St  Dorchester  MA  02121,7.0,03,4.0,B3,Dorchester,8.0,Ward 14,1402.0,CD,144-146 Norwell St,2121.0,Address,104056.0,42.2974,-71.0783,Constituent Call,"(42.2974, -71.0783)"
563941,101001375891,05/12/2015 03:19:55 PM,06/11/2015 03:19:55 PM,,OVERDUE,Open,,No Utilities Residential - Water,Inspectional Services,Housing,No Utilities Residential - Water,ISD_Housing (INTERNAL),ISD,,,706 Border St  East Boston  MA  02128,1.0,09,1.0,A7,East Boston,1.0,Ward 1,108.0,RC,706 Border St,2128.0,Address,191038.0,42.3817,-71.041,Constituent Call,"(42.3817, -71.041)"
564027,101001376006,05/12/2015 05:37:00 PM,06/11/2015 05:37:06 PM,,OVERDUE,Open,,No Utilities Residential - Water,Inspectional Services,Housing,No Utilities Residential - Water,ISD_Housing (INTERNAL),ISD,,,502 Border St  East Boston  MA  02128,1.0,09,1.0,A7,East Boston,1.0,Ward 1,108.0,RC,502 Border St,2128.0,Address,190950.0,42.3812,-71.0408,Constituent Call,"(42.3812, -71.0408)"
564054,101001376046,05/12/2015 06:53:00 PM,06/11/2015 06:53:38 PM,,OVERDUE,Open,,No Utilities Residential - Water,Inspectional Services,Housing,No Utilities Residential - Water,ISD_Housing (INTERNAL),ISD,,,5-7 Everett Ave  Dorchester  MA  02125,7.0,03,7.0,C11,Dorchester,13.0,13,1305.0,R4,5-7 Everett Ave,2125.0,Address,54956.0,42.3158,-71.0631,Constituent Call,"(42.3158, -71.0631)"
564523,101001376722,05/13/2015 01:38:00 PM,06/12/2015 01:38:47 PM,,OVERDUE,Open,,No Utilities Residential - Water,Inspectional Services,Housing,No Utilities Residential - Water,ISD_Housing (INTERNAL),ISD,,,29 Clarence St  Roxbury  MA  02119,7.0,03,7.0,B2,Roxbury,13.0,Ward 8,805.0,R3,29 Clarence St,2119.0,Address,208073.0,42.3246,-71.0728,Constituent Call,"(42.3246, -71.0728)"
564555,101001376761,05/13/2015 02:07:00 PM,06/12/2015 02:07:56 PM,,OVERDUE,Open,,No Utilities Residential - Water,Inspectional Services,Housing,No Utilities Residential - Water,ISD_Housing (INTERNAL),ISD,,,7 Marlin Way  Dorchester  MA  02122,7.0,03,3.0,C11,Dorchester,8.0,Ward 15,1506.0,R1,7 Marlin Way,2122.0,Address,91625.0,42.3034,-71.0578,Constituent Call,"(42.3034, -71.0578)"
565989,101001378796,05/16/2015 09:25:00 AM,06/15/2015 09:25:02 AM,,OVERDUE,Open,,No Utilities Residential - Water,Inspectional Services,Housing,No Utilities Residential - Water,ISD_Housing (INTERNAL),ISD,,,350 Meridian St  East Boston  MA  02128,1.0,09,1.0,A7,East Boston,1.0,Ward 1,106.0,EA,350 Meridian St,2128.0,Address,274504.0,42.3785,-71.0394,Self Service,"(42.3785, -71.0394)"
566445,101001379456,05/18/2015 09:03:00 AM,06/17/2015 09:03:04 AM,06/17/2015 07:57:36 AM,ONTIME,Closed,Case Closed. Closed date : 2015-06-17 07:57:36.617 :,No Utilities Residential - Water,Inspectional Services,Housing,No Utilities Residential - Water,ISD_Housing (INTERNAL),ISD,,,5 Gleason St  Dorchester  MA  02121,7.0,03,4.0,B3,Greater Mattapan,8.0,Ward 14,1402.0,R2,5 Gleason St,2121.0,Address,241346.0,42.2966,-71.0812,Constituent Call,"(42.2966, -71.0812)"
569023,101001393339,05/22/2015 01:31:00 PM,06/21/2015 01:31:16 PM,,OVERDUE,Open,,No Utilities Residential - Water,Inspectional Services,Housing,No Utilities Residential - Water,ISD_Housing (INTERNAL),ISD,,,30 Browning Ave  Dorchester  MA  02124,8.0,03,4.0,B3,Greater Mattapan,8.0,Ward 14,1402.0,CM,30 Browning Ave,2124.0,Address,22794.0,42.2939,-71.082,Constituent Call,"(42.2939, -71.082)"
569588,101001394176,05/25/2015 11:28:00 AM,06/24/2015 11:28:54 AM,,OVERDUE,Open,,No Utilities Residential - Water,Inspectional Services,Housing,No Utilities Residential - Water,ISD_Housing (INTERNAL),ISD,,,30 E Cottage St  Roxbury  MA  02119,7.0,03,7.0,B2,Roxbury,13.0,Ward 8,805.0,R2,30 E Cottage St,2119.0,Address,219815.0,42.3217,-71.0698,Constituent Call,"(42.3217, -71.0698)"
569621,101001394233,05/25/2015 02:48:00 PM,06/24/2015 02:48:26 PM,,OVERDUE,Open,,No Utilities Residential - Water,Inspectional Services,Housing,No Utilities Residential - Water,ISD_Housing (INTERNAL),ISD,,,23 Lawrence Ave  Dorchester  MA  02121,7.0,03,4.0,B2,Roxbury,13.0,Ward 14,1401.0,R3,23 Lawrence Ave,2121.0,Address,84516.0,42.3131,-71.0792,Constituent Call,"(42.3131, -71.0792)"
569653,101001394277,05/25/2015 05:04:00 PM,06/24/2015 05:04:49 PM,,OVERDUE,Open,,No Utilities Residential - Water,Inspectional Services,Housing,No Utilities Residential - Water,ISD_Housing (INTERNAL),ISD,,,27 Lorraine St  Roslindale  MA  02131,12.0,06,5.0,E5,Roslindale,10.0,Ward 20,2008.0,R1,27 Lorraine St,2131.0,Address,87455.0,42.2841,-71.1452,Self Service,"(42.2841, -71.1452)"
570041,101001394869,05/26/2015 12:42:00 PM,06/25/2015 12:42:06 PM,,OVERDUE,Open,,No Utilities Residential - Water,Inspectional Services,Housing,No Utilities Residential - Water,ISD_Housing (INTERNAL),ISD,,,87 Dix St  Dorchester  MA  02122,7.0,07,3.0,C11,Dorchester,7.0,Ward 16,1604.0,CD,87 Dix St,2122.0,Address,47925.0,42.2958,-71.0576,Self Service,"(42.2958, -71.0576)"
570153,101001395019,05/26/2015 02:34:00 PM,06/25/2015 02:34:09 PM,,OVERDUE,Open,,No Utilities Residential - Water,Inspectional Services,Housing,No Utilities Residential - Water,ISD_Housing (INTERNAL),ISD,,,29 Clarence St  Roxbury  MA  02119,7.0,03,7.0,B2,Roxbury,13.0,Ward 8,805.0,R3,29 Clarence St,2119.0,Address,208073.0,42.3246,-71.0728,Constituent Call,"(42.3246, -71.0728)"
570796,101001395891,05/27/2015 12:00:00 PM,06/26/2015 12:00:17 PM,,OVERDUE,Open,,No Utilities Residential - Water,Inspectional Services,Housing,No Utilities Residential - Water,ISD_Housing (INTERNAL),ISD,,,79 Dale St  Roxbury  MA  02119,7.0,10B,7.0,B2,Roxbury,13.0,Ward 12,1203.0,R3,79 Dale St,2119.0,Address,45761.0,42.3218,-71.0865,Constituent Call,"(42.3218, -71.0865)"
570849,101001395950,05/27/2015 12:41:00 PM,06/26/2015 12:41:49 PM,,OVERDUE,Open,,No Utilities Residential - Water,Inspectional Services,Housing,No Utilities Residential - Water,ISD_Housing (INTERNAL),ISD,,,25 Raymond St  Allston  MA  02134,11.0,04,9.0,D14,Allston / Brighton,15.0,Ward 22,2202.0,R3,25 Raymond St,2134.0,Address,297600.0,42.3614,-71.1337,Constituent Call,"(42.3614, -71.1337)"
571164,101001396419,05/28/2015 12:09:00 AM,06/27/2015 12:09:38 AM,,OVERDUE,Open,,No Utilities Residential - Water,Inspectional Services,Housing,No Utilities Residential - Water,ISD_Housing (INTERNAL),ISD,,,21 Greenville St  Roxbury  MA  02119,7.0,10B,7.0,B2,Roxbury,13.0,Ward 12,1201.0,A,21 Greenville St,2119.0,Address,243769.0,42.327,-71.0808,Constituent Call,"(42.327, -71.0808)"
572242,101001397930,05/29/2015 10:14:00 AM,06/28/2015 10:14:46 AM,05/29/2015 11:20:13 AM,ONTIME,Closed,Case Closed. Closed date : 2015-05-29 11:20:13.54 :,No Utilities Residential - Water,Inspectional Services,Housing,No Utilities Residential - Water,ISD_Housing (INTERNAL),ISD,,,560 Shawmut Ave  Roxbury  MA  02118,7.0,10B,7.0,D4,Roxbury,13.0,Ward 9,903.0,EA,560 Shawmut Ave,2118.0,Address,310071.0,42.3366,-71.0789,Constituent Call,"(42.3366, -71.0789)"
573500,101001399759,06/01/2015 12:17:10 PM,07/01/2015 12:17:10 PM,06/01/2015 12:18:49 PM,ONTIME,Closed,Case Closed. Closed date : 2015-06-01 12:18:49.113 Case Invalid Constituent cancelled case.,No Utilities Residential - Water,Inspectional Services,Housing,No Utilities Residential - Water,ISD_Housing (INTERNAL),ISD,,,621 Cummins Hwy  Mattapan  MA  02126,8.0,08,5.0,E18,Mattapan,10.0,18,1806.0,CD,621 Cummins Hwy,2126.0,Address,44916.0,42.2717,-71.107,Constituent Call,"(42.2717, -71.107)"
573946,101001400394,06/02/2015 09:24:00 AM,07/02/2015 09:24:50 AM,,OVERDUE,Open,,No Utilities Residential - Water,Inspectional Services,Housing,No Utilities Residential - Water,ISD_Housing (INTERNAL),ISD,,,156 Dorchester St  South Boston  MA  02127,6.0,05,2.0,C6,South Boston / South Boston Waterfront,5.0,Ward 7,704.0,R2,156 Dorchester St,2127.0,Address,225737.0,42.3341,-71.0482,Self Service,"(42.3341, -71.0482)"
576934,101001404891,06/08/2015 02:15:00 PM,07/08/2015 02:15:33 PM,06/30/2015 07:47:47 AM,ONTIME,Closed,Case Closed. Closed date : 2015-06-30 07:47:47.57 :,No Utilities Residential - Water,Inspectional Services,Housing,No Utilities Residential - Water,ISD_Housing (INTERNAL),ISD,,,316 Huntington Ave  Boston  MA  02115,9.0,10A,7.0,D4,Fenway / Kenmore / Audubon Circle / Longwood,13.0,Ward 4,408.0,E,316 Huntington Ave,2115.0,Address,76357.0,42.3407,-71.0873,Constituent Call,"(42.3407, -71.0873)"
578919,101001407858,06/11/2015 03:58:00 PM,07/11/2015 03:58:59 PM,,OVERDUE,Open,,No Utilities Residential - Water,Inspectional Services,Housing,No Utilities Residential - Water,ISD_Housing (INTERNAL),ISD,,,621 Cummins Hwy  Mattapan  MA  02126,8.0,08,5.0,E18,Mattapan,10.0,18,1806.0,CD,621 Cummins Hwy,2126.0,Address,44915.0,42.2717,-71.107,Constituent Call,"(42.2717, -71.107)"
578958,101001407920,06/11/2015 05:33:00 PM,07/11/2015 05:33:26 PM,,OVERDUE,Open,,No Utilities Residential - Water,Inspectional Services,Housing,No Utilities Residential - Water,ISD_Housing (INTERNAL),ISD,,,28 Clare Ave  Roslindale  MA  02131,12.0,08,5.0,E18,Roslindale,10.0,Ward 18,1808.0,R2,28 Clare Ave,2131.0,Address,32980.0,42.2772,-71.1181,Constituent Call,"(42.2772, -71.1181)"
579227,101001408307,06/12/2015 10:17:00 AM,07/12/2015 10:17:45 AM,,OVERDUE,Open,,No Utilities Residential - Water,Inspectional Services,Housing,No Utilities Residential - Water,ISD_Housing (INTERNAL),ISD,,,256 W Newton St  Boston  MA  02115,4.0,1C,7.0,D4,Back Bay,14.0,Ward 4,405.0,CD,256 W Newton St,2115.0,Address,102580.0,42.3449,-71.0813,Constituent Call,"(42.3449, -71.0813)"
579724,101001409062,06/13/2015 04:14:00 PM,07/13/2015 04:14:20 PM,,OVERDUE,Open,,No Utilities Residential - Water,Inspectional Services,Housing,No Utilities Residential - Water,ISD_Housing (INTERNAL),ISD,,,392 Columbia Rd  Dorchester  MA  02125,7.0,03,3.0,B2,Dorchester,8.0,Ward 15,1501.0,A,392 Columbia Rd,2125.0,Address,210801.0,42.3116,-71.0703,Constituent Call,"(42.3116, -71.0703)"
581825,101001412244,06/18/2015 09:16:00 AM,07/18/2015 09:16:12 AM,,OVERDUE,Open,,No Utilities Residential - Water,Inspectional Services,Housing,No Utilities Residential - Water,ISD_Housing (INTERNAL),ISD,,,120 L St  South Boston  MA  02127,6.0,05,2.0,C6,South Boston / South Boston Waterfront,5.0,Ward 6,606.0,E,120 L St,2127.0,Address,82455.0,42.3335,-71.0349,Constituent Call,"(42.3335, -71.0349)"
581851,101001412299,06/18/2015 09:51:00 AM,07/18/2015 09:51:54 AM,06/18/2015 03:36:41 PM,ONTIME,Closed,Case Closed. Closed date : 2015-06-18 15:36:41.56 :,No Utilities Residential - Water,Inspectional Services,Housing,No Utilities Residential - Water,ISD_Housing (INTERNAL),ISD,,,94-96 Itasca St  Mattapan  MA  02126,8.0,07,5.0,B3,Greater Mattapan,9.0,Ward 18,1803.0,A,94-96 Itasca St,2126.0,Address,79163.0,42.2763,-71.0994,Constituent Call,"(42.2763, -71.0994)"
581900,101001412367,06/18/2015 10:41:00 AM,07/18/2015 10:41:49 AM,06/18/2015 03:16:49 PM,ONTIME,Closed,Case Closed. Closed date : 2015-06-18 15:16:49.57 :,No Utilities Residential - Water,Inspectional Services,Housing,No Utilities Residential - Water,ISD_Housing (INTERNAL),ISD,,,16 Waldemar Ave  East Boston  MA  02128,1.0,09,1.0,A7,East Boston,1.0,Ward 1,114.0,A,16 Waldemar Ave,2128.0,Address,325776.0,42.3903,-70.9993,Constituent Call,"(42.3903, -70.9993)"
581919,101001412397,06/18/2015 11:04:00 AM,07/18/2015 11:04:50 AM,06/18/2015 11:20:40 AM,ONTIME,Closed,Case Closed. Closed date : 2015-06-18 11:20:40.837 ADCLSD: Administratively Closed,No Utilities Residential - Water,Inspectional Services,Housing,No Utilities Residential - Water,ISD_Housing (INTERNAL),ISD,,,16 Waldemar Ave  East Boston  MA  02128,1.0,09,1.0,A7,East Boston,1.0,Ward 1,114.0,A,16 Waldemar Ave,2128.0,Address,325759.0,42.3903,-70.9993,Constituent Call,"(42.3903, -70.9993)"
584441,101001416036,06/23/2015 06:28:00 PM,07/23/2015 06:28:02 PM,,OVERDUE,Open,,No Utilities Residential - Water,Inspectional Services,Housing,No Utilities Residential - Water,ISD_Housing (INTERNAL),ISD,,,910 Hyde Park Ave  Hyde Park  MA  02136,12.0,08,5.0,E18,Hyde Park,10.0,Ward 18,1814.0,R1,910 Hyde Park Ave,2136.0,Address,172480.0,42.2688,-71.1205,Constituent Call,"(42.2688, -71.1205)"
586631,101001419316,06/29/2015 10:18:00 AM,07/29/2015 10:18:56 AM,,OVERDUE,Open,,No Utilities Residential - Water,Inspectional Services,Housing,No Utilities Residential - Water,ISD_Housing (INTERNAL),ISD,,,623 Cummins Hwy  Mattapan  MA  02126,8.0,08,5.0,E18,Mattapan,10.0,18,1806.0,CD,623 Cummins Hwy,2126.0,Address,44923.0,42.2716,-71.107,Constituent Call,"(42.2716, -71.107)"
587263,101001420222,06/30/2015 09:51:00 AM,07/30/2015 09:51:41 AM,,OVERDUE,Open,,No Utilities Residential - Water,Inspectional Services,Housing,No Utilities Residential - Water,ISD_Housing (INTERNAL),ISD,,,80 Greenwood St  Dorchester  MA  02121,7.0,03,4.0,B3,Greater Mattapan,8.0,Ward 14,1402.0,R3,80 Greenwood St,2121.0,Address,67004.0,42.2993,-71.0796,Constituent Call,"(42.2993, -71.0796)"
588922,101001422491,07/02/2015 10:51:00 PM,08/01/2015 10:51:10 PM,,OVERDUE,Open,,No Utilities Residential - Water,Inspectional Services,Housing,No Utilities Residential - Water,ISD_Housing (INTERNAL),ISD,,,32 Falcon St  East Boston  MA  02128,1.0,09,1.0,A7,East Boston,1.0,Ward 1,108.0,R2,32 Falcon St,2128.0,Address,56043.0,42.3821,-71.0384,Constituent Call,"(42.3821, -71.0384)"
589090,101001422748,07/03/2015 03:35:00 PM,08/02/2015 03:35:38 PM,,OVERDUE,Open,,No Utilities Residential - Water,Inspectional Services,Housing,No Utilities Residential - Water,ISD_Housing (INTERNAL),ISD,,,25-27 Maplewood St  West Roxbury  MA  02132,12.0,06,6.0,E5,West Roxbury,12.0,Ward 20,2010.0,R2,25-27 Maplewood St,2132.0,Address,89470.0,42.2712,-71.1484,Constituent Call,"(42.2712, -71.1484)"
589161,101001422854,07/04/2015 05:54:00 AM,08/03/2015 05:54:19 AM,,OVERDUE,Open,,No Utilities Residential - Water,Inspectional Services,Housing,No Utilities Residential - Water,ISD_Housing (INTERNAL),ISD,,,316 Huntington Ave  Boston  MA  02115,9.0,10A,7.0,D4,Fenway / Kenmore / Audubon Circle / Longwood,13.0,Ward 4,408.0,E,316 Huntington Ave,2115.0,Address,76357.0,42.3407,-71.0873,Constituent Call,"(42.3407, -71.0873)"
590232,101001424383,07/07/2015 10:24:00 AM,08/06/2015 10:24:23 AM,,OVERDUE,Open,,No Utilities Residential - Water,Inspectional Services,Housing,No Utilities Residential - Water,ISD_Housing (INTERNAL),ISD,,,794 Massachusetts Ave  Roxbury  MA  02118,4.0,1C,2.0,D4,Roxbury,6.0,08,802.0,,794 Massachusetts Ave,2118.0,Address,352717.0,42.3594,-71.0587,Constituent Call,"(0, 0)"
595275,101001431201,07/16/2015 03:44:00 PM,08/15/2015 03:44:25 PM,,OVERDUE,Open,,No Utilities Residential - Water,Inspectional Services,Housing,No Utilities Residential - Water,ISD_Housing (INTERNAL),ISD,,,99 Waldeck St  Dorchester  MA  02124,7.0,03,4.0,C11,Dorchester,8.0,Ward 17,1702.0,R4,99 Waldeck St,2124.0,Address,325744.0,42.2992,-71.0649,Constituent Call,"(42.2992, -71.0649)"
597614,101001434293,07/21/2015 02:38:00 PM,08/20/2015 02:38:27 PM,,OVERDUE,Open,,No Utilities Residential - Water,Inspectional Services,Housing,No Utilities Residential - Water,ISD_Housing (INTERNAL),ISD,,,93 Waldeck St  Dorchester  MA  02124,7.0,03,4.0,C11,Dorchester,8.0,Ward 17,1702.0,R3,93 Waldeck St,2124.0,Address,141453.0,42.299,-71.0652,Constituent Call,"(42.299, -71.0652)"
597785,101001434532,07/21/2015 07:56:00 PM,08/20/2015 07:56:04 PM,,OVERDUE,Open,,No Utilities Residential - Water,Inspectional Services,Housing,No Utilities Residential - Water,ISD_Housing (INTERNAL),ISD,,,363 Massachusetts Ave  Boston  MA  02115,9.0,10A,7.0,D4,Boston,13.0,04,408.0,EA,363 Massachusetts Ave,2115.0,Address,271672.0,42.3417,-71.0838,Constituent Call,"(42.3417, -71.0838)"
598284,101001435361,07/23/2015 02:20:00 PM,08/22/2015 02:20:03 PM,07/24/2015 10:20:35 AM,ONTIME,Closed,Case Closed. Closed date : 2015-07-24 10:20:35.99 :,No Utilities Residential - Water,Inspectional Services,Housing,No Utilities Residential - Water,ISD_Housing (INTERNAL),ISD,,,26 Balfour St  Dorchester  MA  02125,7.0,03,7.0,B2,Roxbury,13.0,Ward 13,1301.0,R3,26 Balfour St,2125.0,Address,7960.0,42.3147,-71.0764,Constituent Call,"(42.3147, -71.0764)"
599304,101001436732,07/25/2015 11:23:00 PM,08/24/2015 11:23:30 PM,07/27/2015 08:41:47 AM,ONTIME,Closed,Case Closed. Closed date : 2015-07-27 08:41:47.163 :,No Utilities Residential - Water,Inspectional Services,Housing,No Utilities Residential - Water,ISD_Housing (INTERNAL),ISD,,,27-29 Raldne Rd  Hyde Park  MA  02136,12.0,08,5.0,E18,Hyde Park,10.0,Ward 18,1819.0,R2,27-29 Raldne Rd,2136.0,Address,114458.0,42.2554,-71.1408,Constituent Call,"(42.2554, -71.1408)"
599955,101001437628,07/27/2015 01:53:00 PM,08/26/2015 01:53:17 PM,08/17/2015 11:42:03 AM,ONTIME,Closed,Case Closed. Closed date : 2015-08-17 11:42:03.523 NOVIO: No Violation Found/No Cause,No Utilities Residential - Water,Inspectional Services,Housing,No Utilities Residential - Water,ISD_Housing (INTERNAL),ISD,,,525 River St  Mattapan  MA  02126,8.0,08,4.0,B3,Greater Mattapan,9.0,Ward 18,1804.0,E,525 River St,2126.0,Address,116620.0,42.2677,-71.0951,Constituent Call,"(42.2677, -71.0951)"
600030,101001437724,07/27/2015 02:44:00 PM,08/26/2015 02:44:52 PM,,OVERDUE,Open,,No Utilities Residential - Water,Inspectional Services,Housing,No Utilities Residential - Water,ISD_Housing (INTERNAL),ISD,,,106 Prince St  Boston  MA  02113,3.0,1B,1.0,A1,Downtown / Financial District,3.0,Ward 3,304.0,A,106 Prince St,2113.0,Address,112806.0,42.3658,-71.0567,Constituent Call,"(42.3658, -71.0567)"
600741,101001438641,07/28/2015 02:06:43 PM,08/27/2015 02:06:43 PM,,OVERDUE,Open,,No Utilities Residential - Water,Inspectional Services,Housing,No Utilities Residential - Water,ISD_Housing (INTERNAL),ISD,,,4881 Washington St  West Roxbury  MA  02132,12.0,06,6.0,E5,West Roxbury,12.0,Ward 20,2005.0,A,4881 Washington St,2132.0,Address,331767.0,42.2703,-71.1478,Constituent Call,"(42.2703, -71.1478)"
602008,101001500340,07/30/2015 03:08:00 PM,08/29/2015 03:08:30 PM,,OVERDUE,Open,,No Utilities Residential - Water,Inspectional Services,Housing,No Utilities Residential - Water,ISD_Housing (INTERNAL),ISD,,,10 Hendry St  Dorchester  MA  02125,7.0,03,3.0,C11,Dorchester,8.0,Ward 15,1504.0,R3,10 Hendry St,2125.0,Address,251059.0,42.309,-71.0649,Constituent Call,"(42.309, -71.0649)"
604677,101001503961,08/05/2015 10:31:00 AM,09/04/2015 10:31:49 AM,,OVERDUE,Open,,No Utilities Residential - Water,Inspectional Services,Housing,No Utilities Residential - Water,ISD_Housing (INTERNAL),ISD,,,21 Father Francis J Gilday St  Roxbury  MA  02118,4.0,1C,2.0,D4,Roxbury,6.0,08,802.0,CM,21 Father Francis J Gilday St,2118.0,Address,56645.0,42.3374,-71.0734,Constituent Call,"(42.3374, -71.0734)"
605298,101001504780,08/06/2015 09:45:00 AM,09/05/2015 09:45:16 AM,08/17/2015 12:43:58 PM,ONTIME,Closed,Case Closed. Closed date : 2015-08-17 12:43:58.52 NOVIO: No Violation Found/No Cause,No Utilities Residential - Water,Inspectional Services,Housing,No Utilities Residential - Water,ISD_Housing (INTERNAL),ISD,,,419 Old Colony Ave  South Boston  MA  02127,6.0,05,2.0,C6,South Boston / South Boston Waterfront,5.0,Ward 7,707.0,E,419 Old Colony Ave,2127.0,Address,173976.0,42.326,-71.0529,Constituent Call,"(42.326, -71.0529)"
606633,101001516634,08/09/2015 01:45:00 PM,09/08/2015 01:45:14 PM,08/17/2015 12:45:31 PM,ONTIME,Closed,Case Closed. Closed date : 2015-08-17 12:45:31.73 :,No Utilities Residential - Water,Inspectional Services,Housing,No Utilities Residential - Water,ISD_Housing (INTERNAL),ISD,,,29 Arlington St  Hyde Park  MA  02136,12.0,08,5.0,E18,Hyde Park,10.0,Ward 18,1815.0,R2,29 Arlington St,2136.0,Address,4901.0,42.2598,-71.1159,Constituent Call,"(42.2598, -71.1159)"
606863,101001516974,08/10/2015 10:15:00 AM,09/09/2015 10:15:45 AM,,OVERDUE,Open,,No Utilities Residential - Water,Inspectional Services,Housing,No Utilities Residential - Water,ISD_Housing (INTERNAL),ISD,,,29 Arlington St  Hyde Park  MA  02136,12.0,08,5.0,E18,Hyde Park,10.0,Ward 18,1815.0,R2,29 Arlington St,2136.0,Address,179416.0,42.2598,-71.1159,Constituent Call,"(42.2598, -71.1159)"
610784,101001522009,08/15/2015 01:20:00 PM,09/14/2015 01:20:24 PM,,OVERDUE,Open,,No Utilities Residential - Water,Inspectional Services,Housing,No Utilities Residential - Water,ISD_Housing (INTERNAL),ISD,,,279 Centre St  Jamaica Plain  MA  02130,9.0,10A,6.0,E13,Jamaica Plain,11.0,Ward 10,1007.0,E,279 Centre St,2130.0,Address,173736.0,42.3231,-71.1012,Constituent Call,"(42.3231, -71.1012)"
612490,101001524246,08/18/2015 01:05:00 PM,09/17/2015 01:05:50 PM,,OVERDUE,Open,,No Utilities Residential - Water,Inspectional Services,Housing,No Utilities Residential - Water,ISD_Housing (INTERNAL),ISD,,,5 Edwin St  Dorchester  MA  02124,8.0,07,3.0,C11,Dorchester,7.0,Ward 16,1606.0,A,5 Edwin St,2124.0,Address,228452.0,42.2887,-71.0629,Self Service,"(42.2887, -71.0629)"
613481,101001525519,08/19/2015 03:48:00 PM,09/18/2015 03:48:56 PM,,OVERDUE,Open,,No Utilities Residential - Water,Inspectional Services,Housing,No Utilities Residential - Water,ISD_Housing (INTERNAL),ISD,,,429 W Fourth St  South Boston  MA  02127,6.0,05,2.0,C6,South Boston / South Boston Waterfront,5.0,Ward 7,704.0,R1,429 W Fourth St,2127.0,Address,60297.0,42.3356,-71.0481,Constituent Call,"(42.3356, -71.0481)"
614756,101001527117,08/21/2015 10:51:00 AM,09/20/2015 10:51:41 AM,,OVERDUE,Open,,No Utilities Residential - Water,Inspectional Services,Housing,No Utilities Residential - Water,ISD_Housing (INTERNAL),ISD,,,169 Quincy St  Dorchester  MA  02121,7.0,03,7.0,B2,Roxbury,13.0,Ward 13,1301.0,A,169 Quincy St,2121.0,Address,297069.0,42.3132,-71.0761,Constituent Call,"(42.3132, -71.0761)"
616430,101001529353,08/24/2015 10:51:00 PM,09/23/2015 10:51:46 PM,08/26/2015 10:46:51 AM,ONTIME,Closed,Case Closed. Closed date : 2015-08-26 10:46:51.99 :,No Utilities Residential - Water,Inspectional Services,Housing,No Utilities Residential - Water,ISD_Housing (INTERNAL),ISD,,,32-34 Cedar St  Mattapan  MA  02126,8.0,07,3.0,B3,Dorchester,7.0,Ward 17,1714.0,R2,32-34 Cedar St,2126.0,Address,26853.0,42.2726,-71.0755,Constituent Call,"(42.2726, -71.0755)"
619203,101001543020,08/28/2015 10:40:00 AM,09/27/2015 10:40:39 AM,08/28/2015 04:08:54 PM,ONTIME,Closed,Case Closed. Closed date : 2015-08-28 16:08:54.443 :,No Utilities Residential - Water,Inspectional Services,Housing,No Utilities Residential - Water,ISD_Housing (INTERNAL),ISD,,,9 River Street Ter  Hyde Park  MA  02136,12.0,08,5.0,E18,Hyde Park,10.0,18,1815.0,R4,9 River Street Ter,2136.0,Address,300149.0,42.2608,-71.1125,Constituent Call,"(42.2608, -71.1125)"
619327,101001543190,08/28/2015 01:08:00 PM,09/27/2015 01:08:52 PM,08/28/2015 01:14:32 PM,ONTIME,Closed,Case Closed. Closed date : 2015-08-28 13:14:32.233 Case Resolved Constituent called back to report that BWSC are doing work on a leaky fire hydrant in the area; water has been cut off for the time being.,No Utilities Residential - Water,Inspectional Services,Housing,No Utilities Residential - Water,ISD_Housing (INTERNAL),ISD,,,1 Mount Vernon St  Charlestown  MA  02129,3.0,1A,1.0,A15,Charlestown,2.0,Ward 2,203.0,R1,1 Mount Vernon St,2129.0,Address,98803.0,42.3762,-71.0587,Constituent Call,"(42.3762, -71.0587)"
620945,101001545517,08/31/2015 04:07:00 PM,09/30/2015 04:07:57 PM,,OVERDUE,Open,,No Utilities Residential - Water,Inspectional Services,Housing,No Utilities Residential - Water,ISD_Housing (INTERNAL),ISD,,,300 Allston St  Brighton  MA  02135,11.0,04,9.0,D14,Allston / Brighton,15.0,Ward 21,2110.0,CM,300 Allston St,2135.0,Address,2421.0,42.344,-71.1402,Constituent Call,"(42.344, -71.1402)"
622806,101001548119,09/02/2015 01:23:00 PM,10/02/2015 01:23:30 PM,,OVERDUE,Open,,No Utilities Residential - Water,Inspectional Services,Housing,No Utilities Residential - Water,ISD_Housing (INTERNAL),ISD,,,73 Logan Way  South Boston  MA  02127,6.0,05,2.0,C6,South Boston / South Boston Waterfront,5.0,Ward 7,707.0,E,73 Logan Way,2127.0,Address,265614.0,42.3284,-71.0552,Constituent Call,"(42.3284, -71.0552)"
623419,101001548985,09/03/2015 10:07:00 AM,10/03/2015 10:07:33 AM,,OVERDUE,Open,,No Utilities Residential - Water,Inspectional Services,Housing,No Utilities Residential - Water,ISD_Housing (INTERNAL),ISD,,,21 Quint Ave  Allston  MA  02134,11.0,04,9.0,D14,Allston / Brighton,15.0,Ward 21,2106.0,R4,21 Quint Ave,2134.0,Address,297236.0,42.3524,-71.1343,Constituent Call,"(42.3524, -71.1343)"
625212,101001571484,09/07/2015 12:00:00 PM,10/07/2015 12:00:43 PM,,OVERDUE,Open,,No Utilities Residential - Water,Inspectional Services,Housing,No Utilities Residential - Water,ISD_Housing (INTERNAL),ISD,,,161 Endicott St  Boston  MA  02113,3.0,1B,1.0,A1,Downtown / Financial District,3.0,Ward 3,304.0,RC,161 Endicott St,2113.0,Address,230515.0,42.3655,-71.0573,Self Service,"(42.3655, -71.0573)"
630572,101001579146,09/15/2015 01:23:00 PM,10/15/2015 01:23:48 PM,,OVERDUE,Open,,No Utilities Residential - Water,Inspectional Services,Housing,No Utilities Residential - Water,ISD_Housing (INTERNAL),ISD,,,95 Spencer St  Dorchester  MA  02124,8.0,07,4.0,B3,Dorchester,9.0,Ward 17,1703.0,R3,95 Spencer St,2124.0,Address,313108.0,42.2938,-71.0763,Constituent Call,"(42.2938, -71.0763)"
630666,101001579279,09/15/2015 02:46:00 PM,10/15/2015 02:46:43 PM,,OVERDUE,Open,,No Utilities Residential - Water,Inspectional Services,Housing,No Utilities Residential - Water,ISD_Housing (INTERNAL),ISD,,,239 Bowdoin St  Dorchester  MA  02122,7.0,03,4.0,C11,Dorchester,8.0,Ward 15,1502.0,RC,239 Bowdoin St,2122.0,Address,192103.0,42.3059,-71.0671,Constituent Call,"(42.3059, -71.0671)"
631343,101001580280,09/16/2015 12:15:00 PM,10/16/2015 12:15:14 PM,10/21/2015 11:49:56 AM,OVERDUE,Closed,Case Closed. Closed date : 2015-10-21 11:49:56.58 :,No Utilities Residential - Water,Inspectional Services,Housing,No Utilities Residential - Water,ISD_Housing (INTERNAL),ISD,,,22-24 Romsey St  Dorchester  MA  02125,7.0,03,3.0,C11,Dorchester,7.0,Ward 13,1308.0,R2,22-24 Romsey St,2125.0,Address,118161.0,42.3163,-71.0554,Constituent Call,"(42.3163, -71.0554)"
632107,101001581401,09/17/2015 12:30:00 PM,10/17/2015 12:30:44 PM,,OVERDUE,Open,,No Utilities Residential - Water,Inspectional Services,Housing,No Utilities Residential - Water,ISD_Housing (INTERNAL),ISD,,,27 Homestead St  Dorchester  MA  02121,9.0,10B,7.0,B2,Roxbury,13.0,Ward 12,1208.0,R3,27 Homestead St,2121.0,Address,253193.0,42.3131,-71.0933,Constituent Call,"(42.3131, -71.0933)"
632850,101001582495,09/18/2015 02:11:00 PM,10/18/2015 02:11:23 PM,,OVERDUE,Open,,No Utilities Residential - Water,Inspectional Services,Housing,No Utilities Residential - Water,ISD_Housing (INTERNAL),ISD,,,97 Polk St  Charlestown  MA  02129,3.0,1A,1.0,A15,Charlestown,2.0,Ward 2,204.0,E,97 Polk St,2129.0,Address,294437.0,42.3799,-71.0598,Constituent Call,"(42.3799, -71.0598)"
636817,101001598200,09/25/2015 01:59:00 PM,10/25/2015 01:59:47 PM,,OVERDUE,Open,,No Utilities Residential - Water,Inspectional Services,Housing,No Utilities Residential - Water,ISD_Housing (INTERNAL),ISD,,,88 Whitfield St  Dorchester  MA  02124,8.0,07,4.0,B3,Dorchester,9.0,Ward 17,1705.0,R3,88 Whitfield St,2124.0,Address,336388.0,42.2923,-71.075,Constituent Call,"(42.2923, -71.075)"
637942,101001599782,09/28/2015 02:06:00 PM,10/28/2015 02:06:52 PM,,OVERDUE,Open,,No Utilities Residential - Water,Inspectional Services,Housing,No Utilities Residential - Water,ISD_Housing (INTERNAL),ISD,,,20 Morse St  Dorchester  MA  02121,7.0,03,4.0,C11,Roxbury,8.0,Ward 14,1404.0,R3,20 Morse St,2121.0,Address,277685.0,42.3046,-71.0783,Constituent Call,"(42.3046, -71.0783)"
639295,101001601671,09/30/2015 12:25:00 PM,10/30/2015 12:25:47 PM,,OVERDUE,Open,,No Utilities Residential - Water,Inspectional Services,Housing,No Utilities Residential - Water,ISD_Housing (INTERNAL),ISD,,,138 Athens St  South Boston  MA  02127,6.0,05,2.0,C6,South Boston / South Boston Waterfront,5.0,Ward 6,601.0,R3,138 Athens St,2127.0,Address,180339.0,42.341,-71.0529,Constituent Call,"(42.341, -71.0529)"
640055,101001602799,10/01/2015 01:53:00 PM,10/31/2015 01:53:01 PM,,OVERDUE,Open,,No Utilities Residential - Water,Inspectional Services,Housing,No Utilities Residential - Water,ISD_Housing (INTERNAL),ISD,,,45 Wolcott St  Dorchester  MA  02121,7.0,03,4.0,B3,Greater Mattapan,8.0,Ward 14,1406.0,R3,45 Wolcott St,2121.0,Address,151173.0,42.3021,-71.0819,Constituent Call,"(42.3021, -71.0819)"
640459,101001603462,10/02/2015 10:50:00 AM,11/01/2015 10:50:34 AM,,OVERDUE,Open,,No Utilities Residential - Water,Inspectional Services,Housing,No Utilities Residential - Water,ISD_Housing (INTERNAL),ISD,,,40 Glenway St  Dorchester  MA  02121,7.0,03,4.0,B3,Greater Mattapan,13.0,Ward 14,1403.0,R2,40 Glenway St,2121.0,Address,172083.0,42.3012,-71.0839,Constituent Call,"(42.3012, -71.0839)"
640489,101001603510,10/02/2015 11:24:00 AM,11/01/2015 11:24:37 AM,,OVERDUE,Open,,No Utilities Residential - Water,Inspectional Services,Housing,No Utilities Residential - Water,ISD_Housing (INTERNAL),ISD,,,16 Fowler St  Dorchester  MA  02121,7.0,03,4.0,B3,Greater Mattapan,8.0,Ward 14,1406.0,R3,16 Fowler St,2121.0,Address,237623.0,42.3003,-71.0834,Constituent Call,"(42.3003, -71.0834)"
641324,101001604652,10/05/2015 08:04:00 AM,11/04/2015 08:04:02 AM,,OVERDUE,Open,,No Utilities Residential - Water,Inspectional Services,Housing,No Utilities Residential - Water,ISD_Housing (INTERNAL),ISD,,,160 Monsignor Dennis F O'Callaghan Way  South Boston  MA  02127,6.0,05,2.0,C6,South Boston / South Boston Waterfront,5.0,07,707.0,E,160 Monsignor Dennis F O'Callaghan Way,2127.0,Address,173864.0,42.3261,-71.0554,Constituent Call,"(42.3261, -71.0554)"
646523,101001612468,10/15/2015 08:22:00 AM,11/14/2015 08:22:01 AM,,OVERDUE,Open,,No Utilities Residential - Water,Inspectional Services,Housing,No Utilities Residential - Water,ISD_Housing (INTERNAL),ISD,,,38 Logan Way  South Boston  MA  02127,6.0,05,2.0,C6,South Boston / South Boston Waterfront,5.0,Ward 7,707.0,E,38 Logan Way,2127.0,Address,173784.0,42.3276,-71.0546,Constituent Call,"(42.3276, -71.0546)"
648459,101001615158,10/19/2015 11:17:00 AM,11/18/2015 11:17:12 AM,,OVERDUE,Open,,No Utilities Residential - Water,Inspectional Services,Housing,No Utilities Residential - Water,ISD_Housing (INTERNAL),ISD,,,22-24 Romsey St  Dorchester  MA  02125,7.0,03,3.0,C11,Dorchester,7.0,Ward 13,1308.0,R2,22-24 Romsey St,2125.0,Address,118161.0,42.3163,-71.0554,Constituent Call,"(42.3163, -71.0554)"
648505,101001615235,10/19/2015 12:04:00 PM,11/18/2015 12:04:45 PM,,OVERDUE,Open,,No Utilities Residential - Water,Inspectional Services,Housing,No Utilities Residential - Water,ISD_Housing (INTERNAL),ISD,,,790 Hyde Park Ave  Hyde Park  MA  02136,12.0,08,5.0,E18,Hyde Park,10.0,Ward 18,1808.0,CM,790 Hyde Park Ave,2136.0,Address,166474.0,42.273,-71.1198,Constituent Call,"(42.273, -71.1198)"
648573,101001615317,10/19/2015 01:21:00 PM,11/18/2015 01:21:45 PM,,OVERDUE,Open,,No Utilities Residential - Water,Inspectional Services,Housing,No Utilities Residential - Water,ISD_Housing (INTERNAL),ISD,,,36 Gordon St  Allston  MA  02134,11.0,04,9.0,D14,Allston / Brighton,15.0,Ward 21,2106.0,R2,36 Gordon St,2134.0,Address,65420.0,42.3521,-71.1399,Constituent Call,"(42.3521, -71.1399)"
648891,101001615778,10/20/2015 08:42:00 AM,11/19/2015 08:42:59 AM,11/10/2015 11:03:46 AM,ONTIME,Closed,Case Closed. Closed date : 2015-11-10 11:03:46.12 :,No Utilities Residential - Water,Inspectional Services,Housing,No Utilities Residential - Water,ISD_Housing (INTERNAL),ISD,,,29 Rockvale Cir  Jamaica Plain  MA  02130,9.0,02,6.0,E13,Jamaica Plain,11.0,Ward 11,1107.0,A,29 Rockvale Cir,2130.0,Address,300755.0,42.3071,-71.1053,Constituent Call,"(42.3071, -71.1053)"
650740,101001618458,10/22/2015 06:21:00 PM,11/21/2015 06:21:32 PM,,OVERDUE,Open,,No Utilities Residential - Water,Inspectional Services,Housing,No Utilities Residential - Water,ISD_Housing (INTERNAL),ISD,,,51 Norton St  Dorchester  MA  02125,7.0,03,4.0,C11,Dorchester,8.0,Ward 15,1502.0,R3,51 Norton St,2125.0,Address,103965.0,42.3058,-71.0685,Constituent Call,"(42.3058, -71.0685)"
651427,101001619480,10/23/2015 08:39:00 PM,11/22/2015 08:39:47 PM,,OVERDUE,Open,,No Utilities Residential - Water,Inspectional Services,Housing,No Utilities Residential - Water,ISD_Housing (INTERNAL),ISD,,,155 Williams St  Jamaica Plain  MA  02130,9.0,02,6.0,E13,Jamaica Plain,11.0,Ward 11,1108.0,A,155 Williams St,2130.0,Address,150081.0,42.3035,-71.1045,Constituent Call,"(42.3035, -71.1045)"
651466,101001619528,10/24/2015 06:34:00 AM,11/23/2015 06:34:06 AM,,OVERDUE,Open,,No Utilities Residential - Water,Inspectional Services,Housing,No Utilities Residential - Water,ISD_Housing (INTERNAL),ISD,,,9 Ruggles St  Roxbury  MA  02119,7.0,10B,7.0,B2,Roxbury,13.0,09,904.0,A,9 Ruggles St,2119.0,Address,302221.0,42.3315,-71.083,Constituent Call,"(42.3315, -71.083)"
652251,101001620681,10/26/2015 02:53:44 PM,11/25/2015 02:53:44 PM,10/26/2015 02:55:00 PM,ONTIME,Closed,Case Closed. Closed date : 2015-10-26 14:55:00.507 Case Invalid,No Utilities Residential - Water,Inspectional Services,Housing,No Utilities Residential - Water,ISD_Housing (INTERNAL),ISD,,,17 Linden St  Allston  MA  02134,11.0,04,9.0,D14,Allston / Brighton,15.0,Ward 21,2104.0,R3,17 Linden St,2134.0,Address,86416.0,42.3552,-71.131,Constituent Call,"(42.3552, -71.131)"
652661,101001621350,10/27/2015 11:43:00 AM,11/26/2015 11:43:57 AM,,OVERDUE,Open,,No Utilities Residential - Water,Inspectional Services,Housing,No Utilities Residential - Water,ISD_Housing (INTERNAL),ISD,,,110 Draper St  Dorchester  MA  02122,7.0,03,3.0,C11,Dorchester,8.0,Ward 15,1507.0,R3,110 Draper St,2122.0,Address,226189.0,42.3052,-71.0656,Constituent Call,"(42.3052, -71.0656)"
654183,101001623482,10/29/2015 01:10:00 PM,11/28/2015 01:10:36 PM,,OVERDUE,Open,,No Utilities Residential - Water,Inspectional Services,Housing,No Utilities Residential - Water,ISD_Housing (INTERNAL),ISD,,,22-24 Romsey St  Dorchester  MA  02125,7.0,03,3.0,C11,Dorchester,7.0,Ward 13,1308.0,R2,22-24 Romsey St,2125.0,Address,118161.0,42.3163,-71.0554,Constituent Call,"(42.3163, -71.0554)"
654206,101001623505,10/29/2015 01:38:33 PM,11/28/2015 01:38:32 PM,,OVERDUE,Open,,No Utilities Residential - Water,Inspectional Services,Housing,No Utilities Residential - Water,ISD_Housing (INTERNAL),ISD,,,195 Trenton St  East Boston  MA  02128,1.0,09,1.0,A7,East Boston,1.0,Ward 1,109.0,R3,195 Trenton St,2128.0,Address,323101.0,42.3805,-71.0316,Constituent Call,"(42.3805, -71.0316)"
655134,101001624850,10/31/2015 03:07:00 PM,11/30/2015 03:07:27 PM,,OVERDUE,Open,,No Utilities Residential - Water,Inspectional Services,Housing,No Utilities Residential - Water,ISD_Housing (INTERNAL),ISD,,,135 Marcella St  Roxbury  MA  02119,9.0,10B,7.0,B2,Roxbury,13.0,Ward 11,1101.0,R3,135 Marcella St,2119.0,Address,268216.0,42.3251,-71.0965,Constituent Call,"(42.3251, -71.0965)"
656055,101001626161,11/02/2015 06:45:33 PM,12/02/2015 06:45:33 PM,11/02/2015 06:46:14 PM,ONTIME,Closed,Case Closed. Closed date : 2015-11-02 18:46:14.79 Case Invalid,No Utilities Residential - Water,Inspectional Services,Housing,No Utilities Residential - Water,ISD_Housing (INTERNAL),ISD,,,778 E Broadway  South Boston  MA  02127,6.0,05,2.0,C6,South Boston / South Boston Waterfront,5.0,Ward 6,0607,R4,778 E Broadway,2127.0,Address,21186.0,42.3358,-71.0343,Constituent Call,"(42.3358, -71.0343)"
656309,101001626540,11/03/2015 09:42:00 AM,12/03/2015 09:42:13 AM,,OVERDUE,Open,,No Utilities Residential - Water,Inspectional Services,Housing,No Utilities Residential - Water,ISD_Housing (INTERNAL),ISD,,,623 Cummins Hwy  Mattapan  MA  02126,8.0,08,5.0,E18,Mattapan,10.0,18,1806,,623 Cummins Hwy,2126.0,Address,355579.0,42.3594,-71.0587,Constituent Call,"(0, 0)"
657345,101001628083,11/04/2015 04:46:28 PM,12/04/2015 04:46:28 PM,11/04/2015 04:57:17 PM,ONTIME,Closed,Case Closed. Closed date : 2015-11-04 16:57:17.99 Case Invalid form did not submit,No Utilities Residential - Water,Inspectional Services,Housing,No Utilities Residential - Water,ISD_Housing (INTERNAL),ISD,,,247 Columbia Rd  Dorchester  MA  02121,7.0,03,4.0,C11,Roxbury,13.0,Ward 14,1401,CM,247 Columbia Rd,2121.0,Address,35197.0,42.308,-71.075,Constituent Call,"(42.308, -71.075)"
657348,101001628086,11/04/2015 04:50:49 PM,12/04/2015 04:50:49 PM,11/04/2015 04:57:28 PM,ONTIME,Closed,Case Closed. Closed date : 2015-11-04 16:57:28.413 Case Invalid form did not submit,No Utilities Residential - Water,Inspectional Services,Housing,No Utilities Residential - Water,ISD_Housing (INTERNAL),ISD,,,247 Columbia Rd  Dorchester  MA  02121,7.0,03,4.0,C11,Roxbury,13.0,Ward 14,1401,CM,247 Columbia Rd,2121.0,Address,35197.0,42.308,-71.075,Constituent Call,"(42.308, -71.075)"
657350,101001628089,11/04/2015 04:55:00 PM,12/04/2015 04:55:35 PM,,OVERDUE,Open,,No Utilities Residential - Water,Inspectional Services,Housing,No Utilities Residential - Water,ISD_Housing (INTERNAL),ISD,,,247 Columbia Rd  Dorchester  MA  02121,7.0,03,4.0,C11,Roxbury,13.0,Ward 14,1401,CM,247 Columbia Rd,2121.0,Address,35197.0,42.308,-71.075,Constituent Call,"(42.308, -71.075)"
658340,101001629606,11/06/2015 11:23:00 AM,12/06/2015 11:23:15 AM,,OVERDUE,Open,,No Utilities Residential - Water,Inspectional Services,Housing,No Utilities Residential - Water,ISD_Housing (INTERNAL),ISD,,,120-116 Bradlee St  Hyde Park  MA  02136,12.0,08,5.0,E18,Hyde Park,10.0,Ward 18,1808,CM,120-116 Bradlee St,2136.0,Address,19022.0,42.2715,-71.1184,Constituent Call,"(42.2715, -71.1184)"
658420,101001629719,11/06/2015 01:00:00 PM,12/06/2015 01:00:17 PM,,OVERDUE,Open,,No Utilities Residential - Water,Inspectional Services,Housing,No Utilities Residential - Water,ISD_Housing (INTERNAL),ISD,,,120-116 Bradlee St  Hyde Park  MA  02136,12.0,08,5.0,E18,Hyde Park,10.0,Ward 18,1808,CM,120-116 Bradlee St,2136.0,Address,19022.0,42.2715,-71.1184,Constituent Call,"(42.2715, -71.1184)"
658672,101001630127,11/07/2015 06:58:00 AM,12/07/2015 06:58:32 AM,,OVERDUE,Open,,No Utilities Residential - Water,Inspectional Services,Housing,No Utilities Residential - Water,ISD_Housing (INTERNAL),ISD,,,40 Union St  Brighton  MA  02135,11.0,04,9.0,D14,Allston / Brighton,15.0,Ward 21,2111,R3,40 Union St,2135.0,Address,323835.0,42.3451,-71.1493,Constituent Call,"(42.3451, -71.1493)"
660043,101001632015,11/10/2015 10:26:00 AM,12/10/2015 10:26:36 AM,12/01/2015 11:40:20 AM,ONTIME,Closed,Case Closed. Closed date : 2015-12-01 11:40:20.717 :,No Utilities Residential - Water,Inspectional Services,Housing,No Utilities Residential - Water,ISD_Housing (INTERNAL),ISD,,,20 Washington St  Brighton  MA  02135,11.0,04,9.0,D14,Allston / Brighton,15.0,Ward 21,2112,E,20 Washington St,2135.0,Address,329280.0,42.3425,-71.1412,Constituent Call,"(42.3425, -71.1412)"
661965,101001634732,11/13/2015 11:37:00 PM,12/13/2015 11:37:16 PM,,OVERDUE,Open,,No Utilities Residential - Water,Inspectional Services,Housing,No Utilities Residential - Water,ISD_Housing (INTERNAL),ISD,,,22 Branchfield St  Dorchester  MA  02124,8.0,07,3.0,C11,Dorchester,7.0,Ward 17,1713,CM,22 Branchfield St,2124.0,Address,19568.0,42.2719,-71.0639,Constituent Call,"(42.2719, -71.0639)"
664313,101001638006,11/18/2015 02:52:00 PM,12/18/2015 02:52:39 PM,,OVERDUE,Open,,No Utilities Residential - Water,Inspectional Services,Housing,No Utilities Residential - Water,ISD_Housing (INTERNAL),ISD,,,261 Commonwealth Ave  Boston  MA  02116,4.0,1C,8.0,D4,Back Bay,14.0,Ward 5,0508,CM,261 Commonwealth Ave,2116.0,Address,39861.0,42.3508,-71.0839,Constituent Call,"(42.3508, -71.0839)"
665394,101001639573,11/20/2015 11:30:00 AM,12/20/2015 11:30:14 AM,12/03/2015 05:29:04 PM,ONTIME,Closed,Case Closed. Closed date : 2015-12-03 17:29:04.873 :,No Utilities Residential - Water,Inspectional Services,Housing,No Utilities Residential - Water,ISD_Housing (INTERNAL),ISD,,,54 Lithgow St  Dorchester  MA  02124,8.0,07,4.0,C11,Dorchester,8.0,Ward 17,1706,R3,54 Lithgow St,2124.0,Address,86764.0,42.2906,-71.0684,Constituent Call,"(42.2906, -71.0684)"
665483,101001639742,11/20/2015 01:42:00 PM,12/20/2015 01:42:52 PM,,OVERDUE,Open,,No Utilities Residential - Water,Inspectional Services,Housing,No Utilities Residential - Water,ISD_Housing (INTERNAL),ISD,,,2 Maple St  Dorchester  MA  02121,9.0,10B,7.0,B2,Roxbury,13.0,Ward 12,1207,R4,2 Maple St,2121.0,Address,89260.0,42.3099,-71.0847,Constituent Call,"(42.3099, -71.0847)"
666223,101001640800,11/23/2015 08:54:00 AM,12/23/2015 08:54:21 AM,,OVERDUE,Open,,No Utilities Residential - Water,Inspectional Services,Housing,No Utilities Residential - Water,ISD_Housing (INTERNAL),ISD,,,24 Alpine St  Roxbury  MA  02119,7.0,10B,7.0,B2,Roxbury,13.0,Ward 12,1201,R3,24 Alpine St,2119.0,Address,177271.0,42.3256,-71.0866,Constituent Call,"(42.3256, -71.0866)"
666333,101001640987,11/23/2015 10:39:00 AM,12/23/2015 10:39:11 AM,,OVERDUE,Open,,No Utilities Residential - Water,Inspectional Services,Housing,No Utilities Residential - Water,ISD_Housing (INTERNAL),ISD,,,97 Polk St  Charlestown  MA  02129,3.0,1A,1.0,A15,Charlestown,2.0,Ward 2,0204,E,97 Polk St,2129.0,Address,173560.0,42.3799,-71.0598,Constituent Call,"(42.3799, -71.0598)"
666631,101001641460,11/23/2015 05:46:00 PM,12/23/2015 05:46:55 PM,12/03/2015 10:16:19 AM,ONTIME,Closed,Case Closed. Closed date : 2015-12-03 10:16:19.153 :,No Utilities Residential - Water,Inspectional Services,Housing,No Utilities Residential - Water,ISD_Housing (INTERNAL),ISD,,,112 Howland St  Dorchester  MA  02121,9.0,10B,7.0,B2,Roxbury,13.0,Ward 12,1208,R3,112 Howland St,2121.0,Address,75738.0,42.3143,-71.0901,Constituent Call,"(42.3143, -71.0901)"
666831,101001641792,11/24/2015 09:50:00 AM,12/24/2015 09:50:50 AM,,OVERDUE,Open,,No Utilities Residential - Water,Inspectional Services,Housing,No Utilities Residential - Water,ISD_Housing (INTERNAL),ISD,,,27 Homestead St  Dorchester  MA  02121,9.0,10B,7.0,B2,Roxbury,13.0,Ward 12,1208,R3,27 Homestead St,2121.0,Address,253193.0,42.3131,-71.0933,Constituent Call,"(42.3131, -71.0933)"
668868,101001654659,11/30/2015 11:14:00 AM,12/30/2015 11:14:04 AM,,OVERDUE,Open,,No Utilities Residential - Water,Inspectional Services,Housing,No Utilities Residential - Water,ISD_Housing (INTERNAL),ISD,,,211 Park Dr  Boston  MA  02215,4.0,10A,8.0,D4,Fenway / Kenmore / Audubon Circle / Longwood,14.0,Ward 21,2101,A,211 Park Dr,2215.0,Address,106780.0,42.3417,-71.1006,Constituent Call,"(42.3417, -71.1006)"
669095,101001654998,11/30/2015 02:53:00 PM,12/30/2015 02:53:02 PM,,OVERDUE,Open,,No Utilities Residential - Water,Inspectional Services,Housing,No Utilities Residential - Water,ISD_Housing (INTERNAL),ISD,,,80 Fenway  Boston  MA  02115,4.0,10A,8.0,D4,Fenway / Kenmore / Audubon Circle / Longwood,14.0,Ward 4,0407,A,80 Fenway,2115.0,Address,57560.0,42.3425,-71.091,Constituent Call,"(42.3425, -71.091)"
669630,101001655782,12/01/2015 11:26:00 AM,12/31/2015 11:26:10 AM,12/04/2015 03:12:05 PM,ONTIME,Closed,Case Closed. Closed date : 2015-12-04 15:12:05.817 :,No Utilities Residential - Water,Inspectional Services,Housing,No Utilities Residential - Water,ISD_Housing (INTERNAL),ISD,,,76 Walnut Park  Roxbury  MA  02119,9.0,10B,7.0,E13,Roxbury,13.0,Ward 11,1103,A,76 Walnut Park,2119.0,Address,327714.0,42.3148,-71.0947,Constituent Call,"(42.3148, -71.0947)"
669635,101001655790,12/01/2015 11:30:00 AM,12/31/2015 11:30:49 AM,,OVERDUE,Open,,No Utilities Residential - Water,Inspectional Services,Housing,No Utilities Residential - Water,ISD_Housing (INTERNAL),ISD,,,247 Walnut Ave  Roxbury  MA  02119,9.0,10B,7.0,B2,Roxbury,13.0,Ward 11,1103,A,247 Walnut Ave,2119.0,Address,327368.0,42.3181,-71.0913,Constituent Call,"(42.3181, -71.0913)"
669636,101001655791,12/01/2015 11:30:00 AM,12/31/2015 11:30:59 AM,,OVERDUE,Open,,No Utilities Residential - Water,Inspectional Services,Housing,No Utilities Residential - Water,ISD_Housing (INTERNAL),ISD,,,15-17 Linden St  Dorchester  MA  02122,7.0,03,3.0,C11,Dorchester,8.0,Ward 15,1506,CL,15-17 Linden St,2122.0,Address,86491.0,42.3061,-71.0583,Constituent Call,"(42.3061, -71.0583)"
670833,101001657683,12/03/2015 02:14:00 PM,01/02/2016 02:14:13 PM,,OVERDUE,Open,,No Utilities Residential - Water,Inspectional Services,Housing,No Utilities Residential - Water,ISD_Housing (INTERNAL),ISD,,,144 Worcester St  Roxbury  MA  02118,4.0,1C,7.0,D4,South End,6.0,Ward 4,0404,EA,144 Worcester St,2118.0,Address,339136.0,42.341,-71.08,Constituent Call,"(42.341, -71.08)"
672455,101001659961,12/07/2015 02:57:00 PM,01/06/2016 02:57:26 PM,,OVERDUE,Open,,No Utilities Residential - Water,Inspectional Services,Housing,No Utilities Residential - Water,ISD_Housing (INTERNAL),ISD,,,74 Weld Hill St  Jamaica Plain  MA  02130,12.0,02,6.0,E13,Jamaica Plain,11.0,Ward 11,1108.0,R3,74 Weld Hill St,2130.0,Address,333884.0,42.2973,-71.1113,Constituent Call,"(42.2973, -71.1113)"
679063,101001679785,12/21/2015 03:33:00 PM,01/20/2016 03:33:48 PM,,ONTIME,Open,,No Utilities Residential - Water,Inspectional Services,Housing,No Utilities Residential - Water,ISD_Housing (INTERNAL),ISD,,,277 Centre St  Jamaica Plain  MA  02130,9.0,10A,6.0,E13,Jamaica Plain,11.0,Ward 10,1007.0,E,277 Centre St,2130.0,Address,203485.0,42.3234,-71.1012,Constituent Call,"(42.3234, -71.1012)"
680857,101001682506,12/28/2015 08:31:00 AM,01/27/2016 08:31:04 AM,,ONTIME,Open,,No Utilities Residential - Water,Inspectional Services,Housing,No Utilities Residential - Water,ISD_Housing (INTERNAL),ISD,,,294 Paris St  East Boston  MA  02128,1.0,09,1.0,A7,East Boston,1.0,Ward 1,105.0,CD,294 Paris St,2128.0,Address,106553.0,42.3768,-71.0327,Constituent Call,"(42.3768, -71.0327)"
681366,101001683308,12/29/2015 08:09:00 AM,01/28/2016 08:09:58 AM,,ONTIME,Open,,No Utilities Residential - Water,Inspectional Services,Housing,No Utilities Residential - Water,ISD_Housing (INTERNAL),ISD,,,80 Greenwood St  Dorchester  MA  02121,7.0,03,4.0,B3,Greater Mattapan,8.0,Ward 14,1402.0,R3,80 Greenwood St,2121.0,Address,244103.0,42.2993,-71.0796,Constituent Call,"(42.2993, -71.0796)"
681491,101001683555,12/29/2015 10:59:00 AM,01/28/2016 10:59:42 AM,,ONTIME,Open,,No Utilities Residential - Water,Inspectional Services,Housing,No Utilities Residential - Water,ISD_Housing (INTERNAL),ISD,,,132 Homes Ave  Dorchester  MA  02122,7.0,03,3.0,C11,Dorchester,8.0,Ward 15,1507.0,R3,132 Homes Ave,2122.0,Address,252931.0,42.3039,-71.0655,Constituent Call,"(42.3039, -71.0655)"
681538,101001683638,12/29/2015 11:56:00 AM,01/28/2016 11:56:14 AM,,ONTIME,Open,,No Utilities Residential - Water,Inspectional Services,Housing,No Utilities Residential - Water,ISD_Housing (INTERNAL),ISD,,,73 Saratoga St  East Boston  MA  02128,1.0,09,1.0,A7,East Boston,1.0,Ward 1,106.0,A,73 Saratoga St,2128.0,Address,392029.0,42.3594,-71.0587,Constituent Call,"(0, 0)"
682490,101001685430,12/31/2015 11:15:00 AM,01/30/2016 11:15:39 AM,,ONTIME,Open,,No Utilities Residential - Water,Inspectional Services,Housing,No Utilities Residential - Water,ISD_Housing (INTERNAL),ISD,,,80 Walnut Ave  Roxbury  MA  02119,7.0,10B,7.0,B2,Roxbury,13.0,Ward 12,1203.0,A,80 Walnut Ave,2119.0,Address,327577.0,42.3223,-71.0847,Constituent Call,"(42.3223, -71.0847)"
