,CASE_ENQUIRY_ID,OPEN_DT,TARGET_DT,CLOSED_DT,OnTime_Status,CASE_STATUS,CLOSURE_REASON,CASE_TITLE,SUBJECT,REASON,TYPE,QUEUE,Department,SubmittedPhoto,ClosedPhoto,Location,fire_district,pwd_district,city_council_district,police_district,neighborhood,neighborhood_services_district,ward,precinct,land_usage,LOCATION_STREET_NAME,LOCATION_ZIPCODE,Property_Type,Property_ID,LATITUDE,LONGITUDE,Source,Geocoded_Location
469451,101001240734,01/01/2015 12:20:09 AM,,01/02/2015 09:08:42 AM,ONTIME,Closed,Case Closed Case Noted,Other,Mayor's 24 Hour Hotline,Notification,Notification,INFO09_Current Events,INFO,,,33 Beacon St  Boston  MA  02108,3.0,1B,8.0,A1,Downtown / Financial District,14.0,Ward 5,503.0,E,33 Beacon St,2108.0,Address,11072.0,42.3574,-71.0648,Constituent Call,"(42.3574, -71.0648)"
469455,101001240742,01/01/2015 02:24:59 AM,,01/02/2015 09:09:00 AM,ONTIME,Closed,Case Closed Case Noted,Fire,Mayor's 24 Hour Hotline,Notification,Notification,INFO09_Current Events,INFO,,,10 Washburn St  Dorchester  MA  02125,6.0,03,2.0,C6,Dorchester,5.0,Ward 7,708.0,R2,10 Washburn St,2125.0,Address,143386.0,42.3254,-71.0574,Constituent Call,"(42.3254, -71.0574)"
469456,101001240743,01/01/2015 03:08:01 AM,,01/02/2015 09:09:15 AM,ONTIME,Closed,Case Closed Case Noted,Fire,Mayor's 24 Hour Hotline,Notification,Notification,INFO09_Current Events,INFO,,,841-843 Dorchester Ave  Dorchester  MA  02125,6.0,03,2.0,C6,Dorchester,5.0,Ward 7,709.0,R3,841-843 Dorchester Ave,2125.0,Address,48752.0,42.322,-71.057,Constituent Call,"(42.322, -71.057)"
469488,101001240791,01/01/2015 11:28:14 AM,,01/05/2015 09:58:46 AM,ONTIME,Closed,Case Closed Case Noted,Fire,Mayor's 24 Hour Hotline,Notification,Notification,INFO09_Current Events,INFO,,,222 Foster St  Brighton  MA  02135,11.0,04,9.0,D14,Allston / Brighton,15.0,Ward 22,2209.0,A,222 Foster St,2135.0,Address,237026.0,42.3428,-71.1579,Constituent Call,"(42.3428, -71.1579)"
469503,101001240811,01/01/2015 12:51:51 PM,,01/02/2015 09:09:50 AM,ONTIME,Closed,Case Closed Case Noted,BWSC: Water Main Break,Mayor's 24 Hour Hotline,Notification,Notification,INFO09_Current Events,INFO,,,95 Brook Farm Rd  West Roxbury  MA  02132,12.0,06,6.0,E5,West Roxbury,12.0,Ward 20,2017.0,E,95 Brook Farm Rd,2132.0,Address,21939.0,42.2915,-71.1683,Constituent Call,"(42.2915, -71.1683)"
469564,101001240890,01/01/2015 09:04:39 PM,,01/05/2015 09:59:15 AM,ONTIME,Closed,Case Closed Case Noted,Fire,Mayor's 24 Hour Hotline,Notification,Notification,INFO09_Current Events,INFO,,,523 Massachusetts Ave  Roxbury  MA  02118,7.0,10B,7.0,D4,Roxbury,13.0,Ward 9,903.0,A,523 Massachusetts Ave,2118.0,Address,92301.0,42.3387,-71.0801,Constituent Call,"(42.3387, -71.0801)"
469988,101001241531,01/02/2015 06:09:21 PM,,01/05/2015 11:07:58 AM,ONTIME,Closed,Case Closed Case Noted,Fire,Mayor's 24 Hour Hotline,Notification,Notification,INFO09_Current Events,INFO,,,58 Clarkson St  Dorchester  MA  02125,7.0,03,3.0,C11,Dorchester,8.0,Ward 15,1503.0,R3,58 Clarkson St,2125.0,Address,33522.0,42.3082,-71.0673,Constituent Call,"(42.3082, -71.0673)"
470000,101001241553,01/02/2015 08:31:58 PM,,01/05/2015 11:08:23 AM,ONTIME,Closed,Case Closed Case Noted,Fire,Mayor's 24 Hour Hotline,Notification,Notification,INFO09_Current Events,INFO,,,34 Bellevue St  Dorchester  MA  02125,7.0,03,3.0,C11,Dorchester,8.0,Ward 15,1504.0,R3,34 Bellevue St,2125.0,Address,13861.0,42.3103,-71.0676,Constituent Call,"(42.3103, -71.0676)"
470017,101001241576,01/03/2015 12:50:43 AM,,01/06/2015 01:25:23 PM,ONTIME,Closed,Case Closed Case Noted,Fire,Mayor's 24 Hour Hotline,Notification,Notification,INFO09_Current Events,INFO,,,580 Cummins Hwy  Mattapan  MA  02126,8.0,07,5.0,B3,Greater Mattapan,9.0,Ward 18,1821.0,A,580 Cummins Hwy,2126.0,Address,44901.0,42.2733,-71.1079,Constituent Call,"(42.2733, -71.1079)"
470018,101001241577,01/03/2015 01:20:34 AM,,01/06/2015 01:25:57 PM,ONTIME,Closed,Case Closed Case Noted,Fire: Other,Mayor's 24 Hour Hotline,Notification,Notification,INFO09_Current Events,INFO,,,1313 Washington St  Roxbury  MA  02118,4.0,1C,2.0,D4,South End,4.0,03,307.0,,1313 Washington St,2118.0,Address,344539.0,42.3594,-71.0587,Constituent Call,"(0, 0)"
470319,101001241988,01/04/2015 07:54:57 PM,,01/06/2015 01:26:22 PM,ONTIME,Closed,Case Closed Case Noted,Fire,Mayor's 24 Hour Hotline,Notification,Notification,INFO09_Current Events,INFO,,,15 Metcalf Ct  Jamaica Plain  MA  02130,9.0,02,6.0,E13,Jamaica Plain,11.0,11,1110.0,,15 Metcalf Ct,2130.0,Address,347885.0,42.3594,-71.0587,Constituent Call,"(0, 0)"
470337,101001242016,01/05/2015 12:02:47 AM,,01/09/2015 10:24:06 AM,ONTIME,Closed,Case Closed Case Noted,Fire,Mayor's 24 Hour Hotline,Notification,Notification,INFO09_Current Events,INFO,,,215 Talbot Ave  Dorchester  MA  02124,8.0,07,4.0,B3,Greater Mattapan,9.0,Ward 17,1705.0,C,215 Talbot Ave,2124.0,Address,133678.0,42.2917,-71.0776,Constituent Call,"(42.2917, -71.0776)"
471277,101001243364,01/06/2015 07:55:32 PM,,01/06/2015 07:57:04 PM,ONTIME,Closed,Case Closed Case Invalid,Notification,Mayor's 24 Hour Hotline,Notification,Notification,INFO09_Current Events,INFO,,,500 River St  Mattapan  MA  02126,8.0,07,4.0,B3,Mattapan,9.0,18,1804.0,,500 River St,2126.0,Address,352684.0,42.3594,-71.0587,Constituent Call,"(0, 0)"
471652,101001243906,01/08/2015 07:14:26 AM,,01/09/2015 10:24:31 AM,ONTIME,Closed,Case Closed Case Noted,BWSC: Water Main Break,Mayor's 24 Hour Hotline,Notification,Notification,INFO09_Current Events,INFO,,,120 Brookline Ave  Boston  MA  02215,4.0,10A,8.0,D4,Fenway / Kenmore / Audubon Circle / Longwood,14.0,Ward 5,502.0,C,120 Brookline Ave,2215.0,Address,22081.0,42.3456,-71.0999,Constituent Call,"(42.3456, -71.0999)"
472001,101001244393,01/08/2015 03:04:59 PM,,01/15/2015 05:50:03 PM,ONTIME,Closed,Case Closed Case Noted,Fire,Mayor's 24 Hour Hotline,Notification,Notification,INFO09_Current Events,INFO,,,135-143 Causeway St  Boston  MA  02114,3.0,1B,8.0,A1,Boston,3.0,03,,E,135-143 Causeway St,2114.0,Address,162914.0,42.365,-71.0602,Constituent Call,"(42.365, -71.0602)"
472128,101001244572,01/08/2015 10:53:58 PM,,01/15/2015 05:50:21 PM,ONTIME,Closed,Case Closed Case Noted,Police: Full Notifications,Mayor's 24 Hour Hotline,Notification,Notification,INFO09_Current Events,INFO,,,104 Harrishof St  Dorchester  MA  02121,9.0,10B,7.0,B2,Roxbury,13.0,Ward 12,1202.0,R3,104 Harrishof St,2121.0,Address,69704.0,42.3167,-71.0887,Constituent Call,"(42.3167, -71.0887)"
472569,101001245214,01/09/2015 09:45:58 PM,,01/15/2015 05:50:36 PM,ONTIME,Closed,Case Closed Case Noted,BWSC: Sanitary Sewer Overflow (SSO),Mayor's 24 Hour Hotline,Notification,Notification,INFO09_Current Events,INFO,,,98 Medford St  Charlestown  MA  02129,3.0,1A,1.0,A15,Charlestown,2.0,02,202.0,,98 Medford St,2129.0,Address,350584.0,42.3594,-71.0587,Constituent Call,"(0, 0)"
472578,101001245226,01/10/2015 01:47:20 AM,,01/15/2015 05:50:52 PM,ONTIME,Closed,Case Closed Case Noted,BWSC: Water Main Break,Mayor's 24 Hour Hotline,Notification,Notification,INFO09_Current Events,INFO,,,INTERSECTION of Federal St & Franklin St  Boston  MA,3.0,1C,1.0,A1,Downtown / Financial District,3.0,Ward 3,306.0,,INTERSECTION Federal St & Franklin St,,Intersection,4847.0,42.3555,-71.0565,Constituent Call,"(42.3555, -71.0565)"
472608,101001245273,01/10/2015 10:45:04 AM,,01/15/2015 05:51:08 PM,ONTIME,Closed,Case Closed Case Noted,Other,Mayor's 24 Hour Hotline,Notification,Notification,INFO09_Current Events,INFO,,,INTERSECTION of Elm Hill Ave & Hutchings St  Dorchester  MA,9.0,10B,7.0,B2,Roxbury,13.0,Ward 12,1207.0,,INTERSECTION Elm Hill Ave & Hutchings St,,Intersection,4530.0,42.3091,-71.0878,Constituent Call,"(42.3091, -71.0878)"
472620,101001245290,01/10/2015 12:01:55 PM,,01/15/2015 05:53:05 PM,ONTIME,Closed,Case Closed Case Noted,Fire: Other,Mayor's 24 Hour Hotline,Notification,Notification,INFO09_Current Events,INFO,,,29 Clarence St  Roxbury  MA  02119,7.0,03,7.0,B2,Roxbury,13.0,Ward 8,805.0,R3,29 Clarence St,2119.0,Address,33114.0,42.3246,-71.0728,Constituent Call,"(42.3246, -71.0728)"
472679,101001245387,01/10/2015 09:19:13 PM,,01/15/2015 05:53:27 PM,ONTIME,Closed,Case Closed Case Noted,BWSC: Sanitary Sewer Overflow (SSO),Mayor's 24 Hour Hotline,Notification,Notification,INFO09_Current Events,INFO,,,17 Wellington St  Roxbury  MA  02118,4.0,1C,7.0,D4,South End,6.0,Ward 4,404.0,R1,17 Wellington St,2118.0,Address,147416.0,42.3418,-71.0818,Constituent Call,"(42.3418, -71.0818)"
472698,101001245419,01/11/2015 08:07:22 AM,,01/15/2015 05:53:43 PM,ONTIME,Closed,Case Closed Case Noted,BWSC: Water Main Break,Mayor's 24 Hour Hotline,Notification,Notification,INFO09_Current Events,INFO,,,10 Wordsworth St  East Boston  MA  02128,1.0,09,1.0,A7,East Boston,1.0,Ward 1,111.0,R1,10 Wordsworth St,2128.0,Address,152593.0,42.3855,-71.0193,Constituent Call,"(42.3855, -71.0193)"
472703,101001245429,01/11/2015 09:29:47 AM,,01/15/2015 05:54:01 PM,ONTIME,Closed,Case Closed Case Noted,Police: Other,Mayor's 24 Hour Hotline,Notification,Notification,INFO09_Current Events,INFO,,,40 New Sudbury St  Boston  MA  02114,3.0,1B,1.0,A1,Boston,3.0,03,306.0,E,40 New Sudbury St,2114.0,Address,101187.0,42.3618,-71.0603,Constituent Call,"(42.3618, -71.0603)"
472817,101001245594,01/11/2015 09:49:29 PM,,01/12/2015 12:36:38 PM,ONTIME,Closed,Case Closed Case Invalid No eform,Notification,Mayor's 24 Hour Hotline,Notification,Notification,INFO09_Current Events,INFO,,,INTERSECTION of City Sq & Rutherford Ave  Charlestown  MA,3.0,1A,1.0,A15,Charlestown,2.0,Ward 2,201.0,,INTERSECTION City Sq & Rutherford Ave,,Intersection,3042.0,42.3714,-71.0627,Constituent Call,"(42.3714, -71.0627)"
472819,101001245596,01/11/2015 09:51:41 PM,,01/15/2015 05:54:14 PM,ONTIME,Closed,Case Closed Case Noted,Fire,Mayor's 24 Hour Hotline,Notification,Notification,INFO09_Current Events,INFO,,,65 Frankfort St  East Boston  MA  02128,1.0,09,1.0,A7,East Boston,1.0,Ward 1,102.0,R4,65 Frankfort St,2128.0,Address,60565.0,42.3705,-71.0341,Constituent Call,"(42.3705, -71.0341)"
473222,101001246230,01/12/2015 05:51:39 PM,,01/15/2015 05:54:30 PM,ONTIME,Closed,Case Closed Case Noted,BWSC: Water Main Shutoff,Mayor's 24 Hour Hotline,Notification,Notification,INFO09_Current Events,INFO,,,INTERSECTION of Church St & Schirmer Rd  West Roxbury  MA,9.0,06,6.0,E5,West Roxbury,12.0,Ward 20,2019.0,,INTERSECTION Church St & Schirmer Rd,,Intersection,3026.0,42.2925,-71.149,Constituent Call,"(42.2925, -71.149)"
473502,101001246640,01/13/2015 12:54:08 PM,,01/15/2015 05:54:45 PM,ONTIME,Closed,Case Closed Case Noted,BWSC: Water Main Break,Mayor's 24 Hour Hotline,Notification,Notification,INFO09_Current Events,INFO,,,30 Saunders St  Allston  MA  02134,11.0,04,9.0,D14,Allston / Brighton,15.0,Ward 21,2106.0,R1,30 Saunders St,2134.0,Address,122974.0,42.3529,-71.1422,Constituent Call,"(42.3529, -71.1422)"
473710,101001246931,01/14/2015 07:04:02 AM,,01/15/2015 05:55:12 PM,ONTIME,Closed,Case Closed Case Noted,Police: Other,Mayor's 24 Hour Hotline,Notification,Notification,INFO09_Current Events,INFO,,,5 Oak St  Boston  MA  02111,4.0,1C,2.0,A1,Boston,4.0,03,308.0,EA,5 Oak St,2111.0,Address,340081.0,42.3483,-71.0647,Constituent Call,"(42.3483, -71.0647)"
473834,101001247109,01/14/2015 10:27:04 AM,,01/15/2015 05:55:33 PM,ONTIME,Closed,Case Closed Case Noted,Other,Mayor's 24 Hour Hotline,Notification,Notification,INFO09_Current Events,INFO,,,240 W Sixth St  South Boston  MA  02127,6.0,05,2.0,C6,South Boston,5.0,07,704.0,E,240 W Sixth St,2127.0,Address,128043.0,42.3349,-71.0496,Constituent Call,"(42.3349, -71.0496)"
474124,101001247544,01/14/2015 08:39:17 PM,,01/15/2015 05:55:45 PM,ONTIME,Closed,Case Closed Case Noted,BWSC: Water Main Break,Mayor's 24 Hour Hotline,Notification,Notification,INFO09_Current Events,INFO,,,25-33 Corey St  Charlestown  MA  02129,3.0,1A,1.0,A15,Charlestown,2.0,02,202.0,E,25-33 Corey St,2129.0,Address,341455.0,42.3594,-71.0587,Constituent Call,"(0, 0)"
474282,101001247781,01/15/2015 10:45:27 AM,,01/15/2015 10:48:52 AM,ONTIME,Closed,Case Closed Case Invalid case opened in error,Notification,Mayor's 24 Hour Hotline,Notification,Notification,INFO09_Current Events,INFO,,,370 Commonwealth Ave  Boston  MA  02215,4.0,10A,8.0,D4,Back Bay,14.0,Ward 5,510.0,C,370 Commonwealth Ave,2215.0,Address,40432.0,42.3486,-71.0887,Constituent Call,"(42.3486, -71.0887)"
474476,101001248052,01/15/2015 03:41:13 PM,,01/20/2015 12:18:31 PM,ONTIME,Closed,Case Closed Case Noted,BWSC: Sanitary Sewer Overflow (SSO),Mayor's 24 Hour Hotline,Notification,Notification,INFO09_Current Events,INFO,,,403 W Fourth St  South Boston  MA  02127,6.0,05,2.0,C6,South Boston / South Boston Waterfront,5.0,Ward 6,603.0,CM,403 W Fourth St,2127.0,Address,60275.0,42.3361,-71.0488,Constituent Call,"(42.3361, -71.0488)"
474578,101001248196,01/16/2015 01:22:44 AM,,01/20/2015 12:19:04 PM,ONTIME,Closed,Case Closed Case Noted,Fire,Mayor's 24 Hour Hotline,Notification,Notification,INFO09_Current Events,INFO,,,171 Messinger St  Mattapan  MA  02126,8.0,07,5.0,B3,Greater Mattapan,9.0,Ward 18,1803.0,R1,171 Messinger St,2126.0,Address,94719.0,42.2753,-71.1025,Constituent Call,"(42.2753, -71.1025)"
474705,101001248411,01/16/2015 10:51:56 AM,,01/20/2015 12:19:27 PM,ONTIME,Closed,Case Closed Case Noted,Power Outage,Mayor's 24 Hour Hotline,Notification,Notification,INFO09_Current Events,INFO,,,INTERSECTION of French St & Violet St  Mattapan  MA,8.0,07,4.0,B3,Greater Mattapan,9.0,Ward 18,1802.0,,INTERSECTION French St & Violet St,,Intersection,5130.0,42.2742,-71.0899,Constituent Call,"(42.2742, -71.0899)"
475049,101001248915,01/16/2015 11:20:35 PM,,01/20/2015 12:19:50 PM,ONTIME,Closed,Case Closed Case Noted,Power Outage,Mayor's 24 Hour Hotline,Notification,Notification,INFO09_Current Events,INFO,,,INTERSECTION of French St & Violet St  Mattapan  MA,8.0,07,4.0,B3,Greater Mattapan,9.0,Ward 18,1802.0,,INTERSECTION French St & Violet St,,Intersection,5130.0,42.2742,-71.0899,Constituent Call,"(42.2742, -71.0899)"
475055,101001248924,01/17/2015 02:46:56 AM,,01/20/2015 12:23:01 PM,ONTIME,Closed,Case Closed Case Noted,Fire,Mayor's 24 Hour Hotline,Notification,Notification,INFO09_Current Events,INFO,,,10 Summer St  Boston  MA  02110,3.0,1C,1.0,A1,Boston,3.0,03,306.0,,10 Summer St,2110.0,Address,352683.0,42.3594,-71.0587,Constituent Call,"(0, 0)"
475058,101001248928,01/17/2015 06:17:54 AM,,01/20/2015 12:23:31 PM,ONTIME,Closed,Case Closed Case Noted,Fire,Mayor's 24 Hour Hotline,Notification,Notification,INFO09_Current Events,INFO,,,356 Marlborough St  Boston  MA  02115,4.0,1C,8.0,D4,Back Bay,14.0,Ward 5,509.0,CM,356 Marlborough St,2115.0,Address,91056.0,42.3506,-71.0861,Constituent Call,"(42.3506, -71.0861)"
475274,101001249228,01/18/2015 09:09:03 PM,,01/20/2015 12:23:45 PM,ONTIME,Closed,Case Closed Case Noted,BWSC: Water Main Break,Mayor's 24 Hour Hotline,Notification,Notification,INFO09_Current Events,INFO,,,22 Dry Dock Ave  Boston  MA  02210,6.0,05,2.0,C6,South Boston / South Boston Waterfront,5.0,06,601.0,E,22 Dry Dock Ave,2210.0,Address,341298.0,42.3449,-71.0326,Constituent Call,"(42.3449, -71.0326)"
475276,101001249232,01/18/2015 09:38:28 PM,,01/20/2015 12:24:00 PM,ONTIME,Closed,Case Closed Case Noted,Power Outage,Mayor's 24 Hour Hotline,Notification,Notification,INFO09_Current Events,INFO,,,INTERSECTION of Farragut Rd & William J Day Blvd  South Boston  MA,6.0,05,2.0,C6,South Boston / South Boston Waterfront,5.0,Ward 6,609.0,,INTERSECTION Farragut Rd & William J Day Blvd,,Intersection,4818.0,42.333,-71.0249,Constituent Call,"(42.333, -71.0249)"
475456,101001249461,01/19/2015 06:58:45 PM,,01/27/2015 10:30:07 AM,ONTIME,Closed,Case Closed Case Noted,Fire: Hazmat,Mayor's 24 Hour Hotline,Notification,Notification,INFO09_Current Events,INFO,,,8 Saint Mary's St  Boston  MA  02215,,10A,8.0,D4,Boston,14.0,21,2102.0,,8 Saint Mary's St,2215.0,Address,351646.0,42.3594,-71.0587,Constituent Call,"(0, 0)"
476112,101001250236,01/20/2015 11:26:57 AM,,01/22/2015 01:32:20 PM,ONTIME,Closed,Case Closed Case Noted,Police: Full Notifications,Mayor's 24 Hour Hotline,Notification,Notification,INFO09_Current Events,INFO,,,75 Francis St  Boston  MA  02115,4.0,10A,8.0,B2,Boston,14.0,04,410.0,E,75 Francis St,2115.0,Address,158148.0,42.3361,-71.1075,Constituent Call,"(42.3361, -71.1075)"
476209,101001250410,01/20/2015 01:32:03 PM,,01/22/2015 01:32:36 PM,ONTIME,Closed,Case Closed Case Noted,BWSC: Water Main Break,Mayor's 24 Hour Hotline,Notification,Notification,INFO09_Current Events,INFO,,,58 Birchwood St  West Roxbury  MA  02132,12.0,06,6.0,E5,West Roxbury,12.0,Ward 20,2015.0,R1,58 Birchwood St,2132.0,Address,15690.0,42.258,-71.157,Constituent Call,"(42.258, -71.157)"
476389,101001250667,01/20/2015 07:22:29 PM,,01/22/2015 01:37:58 PM,ONTIME,Closed,Case Closed Case Noted,BWSC: Water Main Shutoff,Mayor's 24 Hour Hotline,Notification,Notification,INFO09_Current Events,INFO,,,34 Algonquin St  Dorchester  MA  02124,8.0,03,4.0,B3,Dorchester,9.0,Ward 17,1701.0,E,34 Algonquin St,2124.0,Address,2073.0,42.2974,-71.0748,Constituent Call,"(42.2974, -71.0748)"
476640,101001251060,01/21/2015 11:29:23 AM,,01/22/2015 01:38:19 PM,ONTIME,Closed,Case Closed Case Noted,BWSC: Sanitary Sewer Overflow (SSO),Mayor's 24 Hour Hotline,Notification,Notification,INFO09_Current Events,INFO,,,37 Cook St  Charlestown  MA  02129,3.0,1A,1.0,A15,Charlestown,2.0,Ward 2,205.0,R1,37 Cook St,2129.0,Address,42333.0,42.381,-71.0635,Constituent Call,"(42.381, -71.0635)"
476836,101001251376,01/21/2015 03:38:40 PM,,01/22/2015 01:38:32 PM,ONTIME,Closed,Case Closed Case Noted,BWSC: Sanitary Sewer Overflow (SSO),Mayor's 24 Hour Hotline,Notification,Notification,INFO09_Current Events,INFO,,,10 Perthshire Rd  Brighton  MA  02135,11.0,04,9.0,D14,Allston / Brighton,15.0,Ward 22,2207.0,E,10 Perthshire Rd,2135.0,Address,157236.0,42.3532,-71.1661,Constituent Call,"(42.3532, -71.1661)"
476848,101001251400,01/21/2015 04:02:39 PM,,01/22/2015 01:40:12 PM,ONTIME,Closed,Case Closed Case Invalid,Notification,Mayor's 24 Hour Hotline,Notification,Notification,INFO09_Current Events,INFO,,,10 Perthshire Rd  Brighton  MA  02135,11.0,04,9.0,D14,Allston / Brighton,15.0,Ward 22,2207.0,E,10 Perthshire Rd,2135.0,Address,157236.0,42.3532,-71.1661,Constituent Call,"(42.3532, -71.1661)"
476903,101001251491,01/21/2015 08:55:01 PM,,01/27/2015 10:30:19 AM,ONTIME,Closed,Case Closed Case Noted,Fire,Mayor's 24 Hour Hotline,Notification,Notification,INFO09_Current Events,INFO,,,455 Park Dr  Boston  MA  02215,4.0,10A,8.0,D4,Fenway / Kenmore / Audubon Circle / Longwood,14.0,Ward 21,2101.0,A,455 Park Dr,2215.0,Address,106875.0,42.3458,-71.1043,Constituent Call,"(42.3458, -71.1043)"
476905,101001251494,01/21/2015 08:57:04 PM,,01/22/2015 01:40:38 PM,ONTIME,Closed,Case Closed Case Noted,Police: Pedestrian/Bicyclist struck by MV,Mayor's 24 Hour Hotline,Notification,Notification,INFO09_Current Events,INFO,,,50 Lamartine St  Roxbury  MA  02119,9.0,10B,6.0,E13,Roxbury,11.0,11,1104.0,E,50 Lamartine St,2119.0,Address,83607.0,42.3225,-71.1002,Constituent Call,"(42.3225, -71.1002)"
476928,101001251526,01/22/2015 02:50:14 AM,,01/27/2015 10:30:32 AM,ONTIME,Closed,Case Closed Case Noted,Police: Full Notifications,Mayor's 24 Hour Hotline,Notification,Notification,INFO09_Current Events,INFO,,,19 Fenwood Rd  Boston  MA  02115,4.0,10A,8.0,B2,Mission Hill,14.0,Ward 10,1003.0,A,19 Fenwood Rd,2115.0,Address,57568.0,42.3344,-71.1062,Constituent Call,"(42.3344, -71.1062)"
477030,101001251698,01/22/2015 09:44:49 AM,,01/27/2015 10:30:49 AM,ONTIME,Closed,Case Closed Case Noted,BWSC: Water Main Shutoff,Mayor's 24 Hour Hotline,Notification,Notification,INFO09_Current Events,INFO,,,535 Albany St  Roxbury  MA  02118,4.0,1C,2.0,D4,South End,6.0,Ward 8,801.0,I,535 Albany St,2118.0,Address,155811.0,42.3384,-71.0669,Constituent Call,"(42.3384, -71.0669)"
477345,101001252184,01/22/2015 06:53:26 PM,,01/27/2015 10:31:01 AM,ONTIME,Closed,Case Closed Case Noted,Fire,Mayor's 24 Hour Hotline,Notification,Notification,INFO09_Current Events,INFO,,,675 Commonwealth Ave  Boston  MA  02215,4.0,10A,8.0,D4,Boston,14.0,21,2102.0,,675 Commonwealth Ave,2215.0,Address,355385.0,42.3594,-71.0587,Constituent Call,"(0, 0)"
477379,101001252233,01/23/2015 01:34:28 AM,,01/27/2015 10:31:31 AM,ONTIME,Closed,Case Closed Case Noted,Fire,Mayor's 24 Hour Hotline,Notification,Notification,INFO09_Current Events,INFO,,,10 Houston St  West Roxbury  MA  02132,12.0,06,6.0,E5,West Roxbury,12.0,Ward 20,2012.0,R1,10 Houston St,2132.0,Address,75473.0,42.2877,-71.1604,Constituent Call,"(42.2877, -71.1604)"
477398,101001252259,01/23/2015 07:49:04 AM,,01/27/2015 10:31:46 AM,ONTIME,Closed,Case Closed Case Noted,Police: Pedestrian/Bicyclist struck by MV,Mayor's 24 Hour Hotline,Notification,Notification,INFO09_Current Events,INFO,,,96 Dartmouth St  Boston  MA  02116,4.0,1C,2.0,D4,South End,6.0,Ward 4,402.0,E,96 Dartmouth St,2116.0,Address,222480.0,42.3459,-71.0755,Constituent Call,"(42.3459, -71.0755)"
477681,101001252760,01/23/2015 02:36:06 PM,,01/27/2015 10:32:09 AM,ONTIME,Closed,Case Closed Case Noted,BWSC: Sanitary Sewer Overflow (SSO),Mayor's 24 Hour Hotline,Notification,Notification,INFO09_Current Events,INFO,,,30 Worcester Sq  Roxbury  MA  02118,4.0,1C,2.0,D4,South End,6.0,Ward 8,802.0,CM,30 Worcester Sq,2118.0,Address,152274.0,42.3365,-71.0741,Constituent Call,"(42.3365, -71.0741)"
477795,101001252932,01/23/2015 11:55:32 PM,,01/27/2015 10:32:34 AM,ONTIME,Closed,Case Closed Case Noted,Police: Person(s) Shot/Stabbed,Mayor's 24 Hour Hotline,Notification,Notification,INFO09_Current Events,INFO,,,954 Parker St  Jamaica Plain  MA  02130,9.0,10A,6.0,E13,Jamaica Plain,11.0,10,1007.0,,954 Parker St,2130.0,Address,168545.0,42.3243,-71.1004,Constituent Call,"(42.3243, -71.1004)"
478077,101001253290,01/24/2015 04:52:58 PM,,01/27/2015 10:33:06 AM,ONTIME,Closed,Case Closed Case Noted,Fire: Hazmat,Mayor's 24 Hour Hotline,Notification,Notification,INFO09_Current Events,INFO,,,590 Commonwealth Ave  Boston  MA  02215,4.0,10A,8.0,D4,Boston,14.0,05,510.0,E,590 Commonwealth Ave,2215.0,Address,158172.0,42.3488,-71.0994,Constituent Call,"(42.3488, -71.0994)"
478310,101001253767,01/25/2015 11:52:15 PM,,01/27/2015 10:33:19 AM,ONTIME,Closed,Case Closed Case Noted,Fire,Mayor's 24 Hour Hotline,Notification,Notification,INFO09_Current Events,INFO,,,33 Prospect St  Hyde Park  MA  02136,12.0,08,5.0,E18,Hyde Park,10.0,Ward 18,1816.0,R1,33 Prospect St,2136.0,Address,113486.0,42.2482,-71.1114,Constituent Call,"(42.2482, -71.1114)"
478632,101001254574,01/26/2015 08:22:46 PM,,02/04/2015 04:27:10 PM,ONTIME,Closed,Case Closed Case Noted,Power Outage,Mayor's 24 Hour Hotline,Notification,Notification,INFO09_Current Events,INFO,,,15-17 Ackley Pl  Jamaica Plain  MA  02130,9.0,02,6.0,E13,Jamaica Plain,11.0,11,1106.0,,15-17 Ackley Pl,2130.0,Address,172165.0,42.3114,-71.1037,Constituent Call,"(42.3114, -71.1037)"
478646,101001254592,01/26/2015 09:16:35 PM,,02/04/2015 04:31:36 PM,ONTIME,Closed,Case Closed Case Noted,Police: Person(s) Shot/Stabbed,Mayor's 24 Hour Hotline,Notification,Notification,INFO09_Current Events,INFO,,,8 Shetland St  Roxbury  MA  02119,7.0,03,7.0,B2,Roxbury,13.0,Ward 8,806.0,R3,8 Shetland St,2119.0,Address,127021.0,42.3249,-71.0685,Constituent Call,"(42.3249, -71.0685)"
478671,101001254628,01/27/2015 01:06:52 AM,,02/04/2015 04:32:00 PM,ONTIME,Closed,Case Closed Case Noted,Weather Advisory,Mayor's 24 Hour Hotline,Notification,Notification,INFO09_Current Events,INFO,,,INTERSECTION of Freeport St & William T Morrissey Blvd  Dorchester  MA,8.0,07,3.0,C11,Dorchester,7.0,Ward 16,1607.0,,INTERSECTION Freeport St & William T Morrissey Blvd,,Intersection,5127.0,42.2926,-71.048,Constituent Call,"(42.2926, -71.048)"
478680,101001254639,01/27/2015 05:10:25 AM,,02/04/2015 04:32:28 PM,ONTIME,Closed,Case Closed Case Noted,BWSC: Water Main Break,Mayor's 24 Hour Hotline,Notification,Notification,INFO09_Current Events,INFO,,,28 Constitution Rd  Charlestown  MA  02129,3.0,1A,1.0,A15,Charlestown,2.0,02,201.0,CM,28 Constitution Rd,2129.0,Address,163848.0,42.374,-71.0495,Constituent Call,"(42.374, -71.0495)"
478682,101001254641,01/27/2015 05:44:28 AM,,02/04/2015 07:00:21 PM,ONTIME,Closed,Case Closed Case Noted,Other,Mayor's 24 Hour Hotline,Notification,Notification,INFO09_Current Events,INFO,,,INTERSECTION of Neponset Ave & William T Morrissey Blvd  Dorchester  MA,8.0,07,3.0,C11,Dorchester,7.0,Ward 16,1610.0,,INTERSECTION Neponset Ave & William T Morrissey Blvd,,Intersection,7521.0,42.2857,-71.0425,Constituent Call,"(42.2857, -71.0425)"
479934,101001256075,01/27/2015 07:21:06 PM,,02/10/2015 04:25:21 PM,ONTIME,Closed,Case Closed Case Noted,Fire,Mayor's 24 Hour Hotline,Notification,Notification,INFO09_Current Events,INFO,,,49 Putnam St  East Boston  MA  02128,1.0,09,1.0,A7,East Boston,1.0,Ward 1,108.0,A,49 Putnam St,2128.0,Address,168961.0,42.3811,-71.0337,Constituent Call,"(42.3811, -71.0337)"
480125,101001256281,01/27/2015 08:38:04 PM,,02/10/2015 04:25:45 PM,ONTIME,Closed,Case Closed Case Noted,Fire,Mayor's 24 Hour Hotline,Notification,Notification,INFO09_Current Events,INFO,,,55 Colonial Ave  Dorchester  MA  02124,8.0,07,4.0,B3,Dorchester,9.0,Ward 17,1705.0,R4,55 Colonial Ave,2124.0,Address,34884.0,42.2905,-71.0774,Constituent Call,"(42.2905, -71.0774)"
480647,101001256869,01/28/2015 08:04:53 AM,,02/02/2015 08:16:23 AM,ONTIME,Closed,Case Closed Case Invalid No eform,Notification,Mayor's 24 Hour Hotline,Notification,Notification,INFO09_Current Events,INFO,,,174 Commonwealth Ave  Boston  MA  02116,4.0,1C,8.0,D4,Back Bay,14.0,Ward 5,507.0,CM,174 Commonwealth Ave,2116.0,Address,38560.0,42.3512,-71.0792,Constituent Call,"(42.3512, -71.0792)"
481883,101001258337,01/28/2015 01:14:41 PM,,01/28/2015 01:18:32 PM,ONTIME,Closed,Case Closed Case Invalid Created in error.,Notification,Mayor's 24 Hour Hotline,Notification,Notification,INFO09_Current Events,INFO,,,2 Faulkner Cir  Dorchester  MA  02122,7.0,07,3.0,C11,Dorchester,7.0,Ward 16,1601.0,R3,2 Faulkner Cir,2122.0,Address,56722.0,42.2997,-71.0619,Constituent Call,"(42.2997, -71.0619)"
482636,101001259253,01/28/2015 04:51:45 PM,,02/10/2015 04:26:10 PM,ONTIME,Closed,Case Closed Case Noted,Fire,Mayor's 24 Hour Hotline,Notification,Notification,INFO09_Current Events,INFO,,,13 Auburn St  Charlestown  MA  02129,3.0,1A,1.0,A15,Charlestown,2.0,Ward 2,206.0,CM,13 Auburn St,2129.0,Address,6453.0,42.3808,-71.0694,Constituent Call,"(42.3808, -71.0694)"
483397,101001260221,01/29/2015 06:17:29 AM,,02/10/2015 04:26:44 PM,ONTIME,Closed,Case Closed Case Noted,Fire,Mayor's 24 Hour Hotline,Notification,Notification,INFO09_Current Events,INFO,,,31 Greenwich St  Dorchester  MA  02122,7.0,03,3.0,C11,Dorchester,8.0,Ward 15,1506.0,R1,31 Greenwich St,2122.0,Address,66854.0,42.3036,-71.0579,Constituent Call,"(42.3036, -71.0579)"
483403,101001260227,01/29/2015 06:25:08 AM,,02/10/2015 07:33:19 PM,ONTIME,Closed,Case Closed Case Noted,Police: Full Notifications,Mayor's 24 Hour Hotline,Notification,Notification,INFO09_Current Events,INFO,,,4 Glenway St  Dorchester  MA  02121,7.0,03,4.0,B3,Greater Mattapan,13.0,Ward 14,1403.0,A,4 Glenway St,2121.0,Address,64744.0,42.3018,-71.085,Constituent Call,"(42.3018, -71.085)"
484503,101001261789,01/29/2015 12:36:48 PM,,02/11/2015 08:49:59 PM,ONTIME,Closed,Case Closed Case Noted,Notification,Mayor's 24 Hour Hotline,Notification,Notification,INFO09_Current Events,INFO,,,INTERSECTION of Lenox St & Douglass Park  Roxbury  MA,9.0,10B,7.0,D4,Roxbury,13.0,Ward 9,904.0,,INTERSECTION Lenox St & Douglass Park,,Intersection,6820.0,42.3379,-71.083,Constituent Call,"(42.3379, -71.083)"
484579,101001261894,01/29/2015 01:11:00 PM,,02/14/2015 09:38:38 PM,ONTIME,Closed,Case Closed Case Noted,BWSC: Sanitary Sewer Overflow (SSO),Mayor's 24 Hour Hotline,Notification,Notification,INFO09_Current Events,INFO,,,148 Webster St  East Boston  MA  02128,1.0,09,1.0,A7,East Boston,1.0,Ward 1,101.0,R3,148 Webster St,2128.0,Address,146775.0,42.3662,-71.0355,Constituent Call,"(42.3662, -71.0355)"
485439,101001263171,01/29/2015 07:46:04 PM,,02/14/2015 09:38:51 PM,ONTIME,Closed,Case Closed Case Noted,Fire,Mayor's 24 Hour Hotline,Notification,Notification,INFO09_Current Events,INFO,,,170 Morton St  Jamaica Plain  MA  02130,9.0,02,7.0,B2,Jamaica Plain,13.0,12,1207.0,E,170 Morton St,2130.0,Address,341854.0,42.2995,-71.1018,Constituent Call,"(42.2995, -71.1018)"
485847,101001263881,01/30/2015 09:05:25 AM,,02/14/2015 09:39:24 PM,ONTIME,Closed,Case Closed Case Noted,Other,Mayor's 24 Hour Hotline,Notification,Notification,INFO09_Current Events,INFO,,,205 Roxbury St  Roxbury  MA  02119,7.0,10B,7.0,B2,Roxbury,13.0,09,905.0,E,205 Roxbury St,2119.0,Address,119155.0,42.3304,-71.091,Constituent Call,"(42.3304, -71.091)"
486130,101001264373,01/30/2015 11:15:19 AM,,02/14/2015 09:55:58 PM,ONTIME,Closed,Case Closed Case Noted,Fire: Other,Mayor's 24 Hour Hotline,Notification,Notification,INFO09_Current Events,INFO,,,135 Causeway St  Boston  MA  02114,3.0,1B,1.0,A1,Boston,3.0,03,306.0,,135 Causeway St,2114.0,Address,354507.0,42.3594,-71.0587,Constituent Call,"(0, 0)"
486647,101001265213,01/30/2015 05:12:52 PM,,02/16/2015 12:17:02 PM,ONTIME,Closed,Case Closed Case Noted,Fire,Mayor's 24 Hour Hotline,Notification,Notification,INFO09_Current Events,INFO,,,INTERSECTION of Washington St & Summer St  Boston  MA,3.0,1C,2.0,A1,Downtown / Financial District,4.0,Ward 3,308.0,,INTERSECTION Washington St & Summer St,,Intersection,6075.0,42.3555,-71.0605,Constituent Call,"(42.3555, -71.0605)"
486735,101001265363,01/30/2015 06:32:42 PM,,02/16/2015 12:17:24 PM,ONTIME,Closed,Case Closed Case Noted,Fire,Mayor's 24 Hour Hotline,Notification,Notification,INFO09_Current Events,INFO,,,32 Deckard St  Dorchester  MA  02121,9.0,10B,7.0,B2,Roxbury,13.0,Ward 12,1202.0,A,32 Deckard St,2121.0,Address,46856.0,42.3156,-71.085,Constituent Call,"(42.3156, -71.085)"
486758,101001265399,01/30/2015 06:59:14 PM,,02/16/2015 12:17:53 PM,ONTIME,Closed,Case Closed Case Noted,Fire,Mayor's 24 Hour Hotline,Notification,Notification,INFO09_Current Events,INFO,,,32 Deckard St  Dorchester  MA  02121,9.0,10B,7.0,B2,Roxbury,13.0,Ward 12,1202.0,A,32 Deckard St,2121.0,Address,46856.0,42.3156,-71.085,Constituent Call,"(42.3156, -71.085)"
486866,101001265565,01/31/2015 04:01:36 AM,,02/16/2015 07:35:12 PM,ONTIME,Closed,Case Closed Case Noted,Other,Mayor's 24 Hour Hotline,Notification,Notification,INFO09_Current Events,INFO,,,INTERSECTION of Columbia Rd & Thaddeus Kosciuszo Cir  Dorchester  MA,6.0,05,3.0,C6,Dorchester,7.0,Ward 13,1303.0,,INTERSECTION Columbia Rd & Thaddeus Kosciuszo Cir,,Intersection,3247.0,42.3214,-71.0515,Constituent Call,"(42.3214, -71.0515)"
486869,101001265568,01/31/2015 04:32:19 AM,,02/16/2015 08:58:39 PM,ONTIME,Closed,Case Closed Case Noted,BWSC: Water Main Shutoff,Mayor's 24 Hour Hotline,Notification,Notification,INFO09_Current Events,INFO,,,INTERSECTION of D St & Summer St  Boston  MA,6.0,05,2.0,C6,South Boston / South Boston Waterfront,5.0,Ward 6,601.0,,INTERSECTION D St & Summer St,,Intersection,3818.0,42.3462,-71.0422,Constituent Call,"(42.3462, -71.0422)"
487371,101001266305,02/01/2015 12:20:42 AM,,02/16/2015 08:59:00 PM,ONTIME,Closed,Case Closed Case Noted,Fire,Mayor's 24 Hour Hotline,Notification,Notification,INFO09_Current Events,INFO,,,347-351 Congress St  Boston  MA  02210,6.0,05,2.0,C6,South Boston / South Boston Waterfront,5.0,Ward 6,601.0,C,347-351 Congress St,2210.0,Address,42105.0,42.3503,-71.0489,Constituent Call,"(42.3503, -71.0489)"
487670,101001266776,02/01/2015 11:46:07 PM,,02/18/2015 12:08:36 PM,ONTIME,Closed,Case Closed Case Noted,Fire,Mayor's 24 Hour Hotline,Notification,Notification,INFO09_Current Events,INFO,,,100 N Beacon St  Allston  MA  02134,11.0,04,9.0,D14,Allston / Brighton,15.0,Ward 21,2106.0,C,100 N Beacon St,2134.0,Address,158046.0,42.3544,-71.1432,Constituent Call,"(42.3544, -71.1432)"
487691,101001266807,02/02/2015 06:11:58 AM,,02/18/2015 12:08:56 PM,ONTIME,Closed,Case Closed Case Noted,Fire,Mayor's 24 Hour Hotline,Notification,Notification,INFO09_Current Events,INFO,,,72-72 Brighton Ave  Allston  MA  02134,11.0,04,9.0,D14,Allston / Brighton,14.0,Ward 21,2103.0,C,72-72 Brighton Ave,2134.0,Address,156061.0,42.3524,-71.1287,Constituent Call,"(42.3524, -71.1287)"
489006,101001268474,02/02/2015 07:31:45 PM,,02/18/2015 12:09:20 PM,ONTIME,Closed,Case Closed Case Noted,Other,Mayor's 24 Hour Hotline,Notification,Notification,INFO09_Current Events,INFO,,,10-20 Amory Ave  Roxbury  MA  02119,9.0,10B,6.0,E13,Jamaica Plain,11.0,Ward 11,1104.0,EA,10-20 Amory Ave,2119.0,Address,3242.0,42.3204,-71.1002,Constituent Call,"(42.3204, -71.1002)"
489117,101001268604,02/02/2015 08:31:05 PM,,02/18/2015 04:36:26 PM,ONTIME,Closed,Case Closed Case Noted,Power Outage,Mayor's 24 Hour Hotline,Notification,Notification,INFO09_Current Events,INFO,,,7 Franconia St  Dorchester  MA  02122,8.0,07,3.0,C11,Dorchester,7.0,Ward 16,1609.0,R2,7 Franconia St,2122.0,Address,60486.0,42.2852,-71.0544,Constituent Call,"(42.2852, -71.0544)"
489375,101001268896,02/03/2015 04:04:49 AM,,02/16/2015 11:19:12 AM,ONTIME,Closed,Case Closed Case Invalid No Case Details,Notification,Mayor's 24 Hour Hotline,Notification,Notification,INFO09_Current Events,INFO,,,16 Ely Rd  Dorchester  MA  02124,8.0,07,3.0,C11,Dorchester,7.0,Ward 16,1611.0,R1,16 Ely Rd,2124.0,Address,53479.0,42.283,-71.0581,Constituent Call,"(42.283, -71.0581)"
489391,101001268912,02/03/2015 05:42:31 AM,,02/18/2015 04:36:48 PM,ONTIME,Closed,Case Closed Case Noted,Fire,Mayor's 24 Hour Hotline,Notification,Notification,INFO09_Current Events,INFO,,,16 Ely Rd  Dorchester  MA  02124,8.0,07,3.0,C11,Dorchester,7.0,Ward 16,1611.0,R1,16 Ely Rd,2124.0,Address,53479.0,42.283,-71.0581,Constituent Call,"(42.283, -71.0581)"
491123,101001271372,02/03/2015 04:23:19 PM,,02/18/2015 04:37:03 PM,ONTIME,Closed,Case Closed Case Noted,Police: Other,Mayor's 24 Hour Hotline,Notification,Notification,INFO09_Current Events,INFO,,,INTERSECTION of North St & Dock Sq  Boston  MA,3.0,1B,1.0,A1,Downtown / Financial District,3.0,Ward 3,306.0,,INTERSECTION North St & Dock Sq,,Intersection,7616.0,42.3604,-71.0566,Constituent Call,"(42.3604, -71.0566)"
491145,101001271400,02/03/2015 04:28:33 PM,,02/18/2015 04:37:24 PM,ONTIME,Closed,Case Closed Case Noted,Other,Mayor's 24 Hour Hotline,Notification,Notification,INFO09_Current Events,INFO,,,INTERSECTION of North St & Dock Sq  Boston  MA,3.0,1B,1.0,A1,Downtown / Financial District,3.0,Ward 3,306.0,,INTERSECTION North St & Dock Sq,,Intersection,7616.0,42.3604,-71.0566,Constituent Call,"(42.3604, -71.0566)"
492061,101001272629,02/04/2015 02:12:55 AM,,02/18/2015 04:37:53 PM,ONTIME,Closed,Case Closed Case Noted,Police: Full Notifications,Mayor's 24 Hour Hotline,Notification,Notification,INFO09_Current Events,INFO,,,600-618 Columbia Rd  Dorchester  MA  02125,7.0,03,7.0,B2,Dorchester,13.0,Ward 7,710.0,RC,600-618 Columbia Rd,2125.0,Address,340679.0,42.3175,-71.0649,Constituent Call,"(42.3175, -71.0649)"
492640,101001273484,02/04/2015 09:15:12 AM,,02/18/2015 09:34:55 PM,ONTIME,Closed,Case Closed Case Noted,Fire,Mayor's 24 Hour Hotline,Notification,Notification,INFO09_Current Events,INFO,,,25 Worcester Sq  Roxbury  MA  02118,4.0,1C,2.0,D4,South End,6.0,Ward 8,802.0,CM,25 Worcester Sq,2118.0,Address,152241.0,42.3363,-71.0747,Constituent Call,"(42.3363, -71.0747)"
493707,101001275054,02/04/2015 02:09:44 PM,,02/18/2015 09:35:11 PM,ONTIME,Closed,Case Closed Case Noted,Electrical Safety: Person/Pet Shocked,Mayor's 24 Hour Hotline,Notification,Notification,INFO09_Current Events,INFO,,,2927 Washington St  Roxbury  MA  02119,9.0,10B,7.0,B2,Roxbury,13.0,11,1102.0,,2927 Washington St,2119.0,Address,353047.0,42.3594,-71.0587,Constituent Call,"(0, 0)"
493710,101001275058,02/04/2015 02:10:45 PM,,02/05/2015 03:58:04 PM,ONTIME,Closed,Case Closed Case Resolved there was no stray voltage detected on any of our equipment at this address or anywhere on this system of anyn exposed equipment. walked entire system to check for stray voltage including adjacent fences  bus stop poles  bus stops  manholes  hydrants  pullboxes  traffic signals. also checked slcb #1693 and all equipment there in also slcb #1027. md/jd,Electrical Safety: Person/Pet Shocked////printed,Mayor's 24 Hour Hotline,Notification,Notification,INFO09_Current Events,INFO,,,2927 Washington St  Roxbury  MA  02119,9.0,10B,7.0,B2,Roxbury,13.0,11,1102.0,,2927 Washington St,2119.0,Address,353047.0,42.3594,-71.0587,Constituent Call,"(0, 0)"
493794,101001275192,02/04/2015 02:45:16 PM,,02/20/2015 08:39:13 AM,ONTIME,Closed,Case Closed Case Noted,Electrical Safety: Person/Pet Shocked,Mayor's 24 Hour Hotline,Notification,Notification,INFO09_Current Events,INFO,,,17 Mossdale Rd  Jamaica Plain  MA  02130,9.0,02,6.0,E13,Jamaica Plain,11.0,Ward 19,1902.0,R1,17 Mossdale Rd,2130.0,Address,98004.0,42.308,-71.127,Constituent Call,"(42.308, -71.127)"
494062,101001275586,02/04/2015 04:14:06 PM,,02/18/2015 09:35:38 PM,ONTIME,Closed,Case Closed Case Noted,Police: Other,Mayor's 24 Hour Hotline,Notification,Notification,INFO09_Current Events,INFO,,,9 Mount Everett St  Dorchester  MA  02125,7.0,03,3.0,C11,Dorchester,8.0,Ward 15,1501.0,R1,9 Mount Everett St,2125.0,Address,98176.0,42.3108,-71.07,Constituent Call,"(42.3108, -71.07)"
494385,101001276108,02/04/2015 06:27:00 PM,,02/18/2015 09:35:57 PM,ONTIME,Closed,Case Closed Case Noted,Fire: Other,Mayor's 24 Hour Hotline,Notification,Notification,INFO09_Current Events,INFO,,,504-510 Dudley St  Roxbury  MA  02119,7.0,03,7.0,B2,Roxbury,13.0,Ward 8,806.0,E,504-510 Dudley St,2119.0,Address,49771.0,42.3228,-71.0727,Constituent Call,"(42.3228, -71.0727)"
494640,101001276518,02/04/2015 10:14:52 PM,,02/18/2015 09:36:29 PM,ONTIME,Closed,Case Closed Case Noted,Fire,Mayor's 24 Hour Hotline,Notification,Notification,INFO09_Current Events,INFO,,,INTERSECTION of Mount Pleasant Ave & Mount Pleasant Ter  Roxbury  MA,7.0,10B,7.0,B2,Roxbury,13.0,Ward 8,803.0,,INTERSECTION Mount Pleasant Ave & Mount Pleasant Ter,,Intersection,7436.0,42.3269,-71.0795,Constituent Call,"(42.3269, -71.0795)"
494694,101001276633,02/05/2015 01:51:43 AM,,02/18/2015 09:37:33 PM,ONTIME,Closed,Case Closed Case Noted,Fire,Mayor's 24 Hour Hotline,Notification,Notification,INFO09_Current Events,INFO,,,532 Weld St  West Roxbury  MA  02132,9.0,06,6.0,E5,West Roxbury,12.0,Ward 20,2019.0,R2,532 Weld St,2132.0,Address,147179.0,42.2929,-71.1538,Constituent Call,"(42.2929, -71.1538)"
494695,101001276635,02/05/2015 03:19:54 AM,,02/18/2015 09:38:04 PM,ONTIME,Closed,Case Closed Case Noted,Fire,Mayor's 24 Hour Hotline,Notification,Notification,INFO09_Current Events,INFO,,,532 Weld St  West Roxbury  MA  02132,9.0,06,6.0,E5,West Roxbury,12.0,Ward 20,2019.0,R2,532 Weld St,2132.0,Address,147179.0,42.2929,-71.1538,Constituent Call,"(42.2929, -71.1538)"
494702,101001276644,02/05/2015 04:56:57 AM,,02/05/2015 08:27:52 AM,ONTIME,Closed,Case Closed Case Noted,Parks Dept. Notifications,Mayor's 24 Hour Hotline,Notification,Notification,INFO09_Current Events,INFO,,,INTERSECTION of Centre St & Saint Theresa Ave  West Roxbury  MA,12.0,06,6.0,E5,West Roxbury,12.0,Ward 20,2005.0,,INTERSECTION Centre St & Saint Theresa Ave,,Intersection,2625.0,42.279,-71.1593,Constituent Call,"(42.279, -71.1593)"
494703,101001276645,02/05/2015 05:00:44 AM,,02/18/2015 09:38:20 PM,ONTIME,Closed,Case Closed Case Noted,Police: Other,Mayor's 24 Hour Hotline,Notification,Notification,INFO09_Current Events,INFO,,,INTERSECTION of Centre St & Saint Theresa Ave  West Roxbury  MA,12.0,06,6.0,E5,West Roxbury,12.0,Ward 20,2005.0,,INTERSECTION Centre St & Saint Theresa Ave,,Intersection,2625.0,42.279,-71.1593,Constituent Call,"(42.279, -71.1593)"
495061,101001277215,02/05/2015 09:10:49 AM,,02/05/2015 09:41:40 AM,ONTIME,Closed,Case Closed Duplicate of Existing Case Duplicate,Notification,Mayor's 24 Hour Hotline,Notification,Notification,INFO09_Current Events,INFO,,,37 Condor St  East Boston  MA  02128,1.0,09,1.0,A7,East Boston,1.0,Ward 1,108.0,R3,37 Condor St,2128.0,Address,42044.0,42.3824,-71.0387,Constituent Call,"(42.3824, -71.0387)"
495062,101001277216,02/05/2015 09:10:59 AM,,02/18/2015 09:39:02 PM,ONTIME,Closed,Case Closed Case Noted,Power Outage,Mayor's 24 Hour Hotline,Notification,Notification,INFO09_Current Events,INFO,,,37 Condor St  East Boston  MA  02128,1.0,09,1.0,A7,East Boston,1.0,Ward 1,108.0,R3,37 Condor St,2128.0,Address,42044.0,42.3824,-71.0387,Constituent Call,"(42.3824, -71.0387)"
495195,101001277406,02/05/2015 09:57:56 AM,,02/23/2015 02:02:45 PM,ONTIME,Closed,Case Closed Case Noted,Power Outage,Mayor's 24 Hour Hotline,Notification,Notification,INFO09_Current Events,INFO,,,30 Shirley St  Roxbury  MA  02119,7.0,03,7.0,B2,Roxbury,13.0,Ward 8,805.0,R3,30 Shirley St,2119.0,Address,127198.0,42.3237,-71.0723,Constituent Call,"(42.3237, -71.0723)"
495387,101001277684,02/05/2015 11:15:02 AM,,02/25/2015 02:22:42 PM,ONTIME,Closed,Case Closed Case Noted,Power Outage,Mayor's 24 Hour Hotline,Notification,Notification,INFO09_Current Events,INFO,,,5 Greenley Pl  Jamaica Plain  MA  02130,9.0,02,6.0,E13,Jamaica Plain,11.0,Ward 11,1106.0,R3,5 Greenley Pl,2130.0,Address,66613.0,42.3102,-71.1049,Constituent Call,"(42.3102, -71.1049)"
497514,101001281009,02/06/2015 06:56:49 PM,,03/02/2015 09:24:03 AM,ONTIME,Closed,Case Closed Case Noted,Power Outage,Mayor's 24 Hour Hotline,Notification,Notification,INFO09_Current Events,INFO,,,INTERSECTION of Glen Rd & Washington St  Jamaica Plain  MA,9.0,02,6.0,E13,Jamaica Plain,11.0,Ward 11,1106.0,,INTERSECTION Glen Rd & Washington St,,Intersection,5307.0,42.3094,-71.1046,Constituent Call,"(42.3094, -71.1046)"
497627,101001281234,02/07/2015 01:02:49 AM,,03/02/2015 09:24:26 AM,ONTIME,Closed,Case Closed Case Noted,Fire,Mayor's 24 Hour Hotline,Notification,Notification,INFO09_Current Events,INFO,,,111 Williams Ave  Hyde Park  MA  02136,12.0,08,5.0,E18,Hyde Park,10.0,Ward 18,1817.0,R1,111 Williams Ave,2136.0,Address,149958.0,42.2471,-71.1158,Constituent Call,"(42.2471, -71.1158)"
497628,101001281236,02/07/2015 01:17:59 AM,,03/02/2015 09:24:49 AM,ONTIME,Closed,Case Closed Case Noted,Power Outage,Mayor's 24 Hour Hotline,Notification,Notification,INFO09_Current Events,INFO,,,INTERSECTION of Columbia Rd & Quincy St  Dorchester  MA,7.0,03,3.0,C11,Dorchester,8.0,Ward 15,1501.0,,INTERSECTION Columbia Rd & Quincy St,,Intersection,3227.0,42.3113,-71.07,Constituent Call,"(42.3113, -71.07)"
498173,101001282123,02/08/2015 12:49:15 AM,,03/02/2015 09:25:05 AM,ONTIME,Closed,Case Closed Case Noted,Fire: Other,Mayor's 24 Hour Hotline,Notification,Notification,INFO09_Current Events,INFO,,,6-8 Edwin St  Dorchester  MA  02124,8.0,07,3.0,C11,Dorchester,7.0,Ward 16,1606.0,CM,6-8 Edwin St,2124.0,Address,51419.0,42.289,-71.063,Constituent Call,"(42.289, -71.063)"
498411,101001282429,02/08/2015 01:39:14 PM,,03/02/2015 09:25:21 AM,ONTIME,Closed,Case Closed Case Noted,Power Outage,Mayor's 24 Hour Hotline,Notification,Notification,INFO09_Current Events,INFO,,,56 Humphreys St  Dorchester  MA  02125,7.0,03,7.0,B2,Dorchester,13.0,Ward 7,710.0,R2,56 Humphreys St,2125.0,Address,76089.0,42.3187,-71.0674,Constituent Call,"(42.3187, -71.0674)"
498486,101001282542,02/08/2015 03:36:06 PM,,03/02/2015 09:25:39 AM,ONTIME,Closed,Case Closed Case Noted,BWSC: Water Main Shutoff,Mayor's 24 Hour Hotline,Notification,Notification,INFO09_Current Events,INFO,,,883 E Broadway  South Boston  MA  02127,6.0,05,2.0,C6,South Boston / South Boston Waterfront,5.0,Ward 6,609.0,CM,883 E Broadway,2127.0,Address,21295.0,42.3355,-71.0287,Constituent Call,"(42.3355, -71.0287)"
499936,101001284346,02/09/2015 08:54:43 PM,,03/02/2015 09:25:53 AM,ONTIME,Closed,Case Closed Case Noted,Power Outage,Mayor's 24 Hour Hotline,Notification,Notification,INFO09_Current Events,INFO,,,67 Ceylon St  Dorchester  MA  02121,7.0,03,4.0,B2,Roxbury,13.0,Ward 14,1401.0,R2,67 Ceylon St,2121.0,Address,28548.0,42.3109,-71.0729,Constituent Call,"(42.3109, -71.0729)"
499943,101001284360,02/09/2015 09:03:58 PM,,03/02/2015 06:24:50 PM,ONTIME,Closed,Case Closed Case Noted,Power Outage,Mayor's 24 Hour Hotline,Notification,Notification,INFO09_Current Events,INFO,,,15 Devon St  Dorchester  MA  02121,9.0,10B,7.0,B2,Roxbury,13.0,Ward 12,1202.0,RL,15 Devon St,2121.0,Address,47556.0,42.3109,-71.0823,Constituent Call,"(42.3109, -71.0823)"
501116,101001285859,02/10/2015 02:42:59 PM,,03/02/2015 06:25:29 PM,ONTIME,Closed,Case Closed Case Resolved,Fire: Technical Rescue,Mayor's 24 Hour Hotline,Notification,Notification,INFO09_Current Events,INFO,,,496 E Eighth St  South Boston  MA  02127,6.0,05,2.0,C6,South Boston / South Boston Waterfront,5.0,Ward 7,703.0,R3,496 E Eighth St,2127.0,Address,52210.0,42.3315,-71.0417,Constituent Call,"(42.3315, -71.0417)"
501728,101001286709,02/10/2015 07:04:59 PM,,03/02/2015 09:27:19 AM,ONTIME,Closed,Case Closed Case Noted,Power Outage,Mayor's 24 Hour Hotline,Notification,Notification,INFO09_Current Events,INFO,,,INTERSECTION of Brighton Ave & Linden St  Allston  MA,11.0,04,9.0,D14,Allston / Brighton,15.0,Ward 21,2105.0,,INTERSECTION Brighton Ave & Linden St,,Intersection,1947.0,42.3527,-71.1302,Constituent Call,"(42.3527, -71.1302)"
502454,101001287812,02/11/2015 09:43:10 AM,,03/02/2015 09:27:39 AM,ONTIME,Closed,Case Closed Case Noted,Fire: Odor of Gas,Mayor's 24 Hour Hotline,Notification,Notification,INFO09_Current Events,INFO,,,107 Third Ave  Charlestown  MA  02129,3.0,1A,1.0,A15,Charlestown,2.0,Ward 2,202.0,E,107 Third Ave,2129.0,Address,170338.0,42.3761,-71.0545,Constituent Call,"(42.3761, -71.0545)"
502656,101001288126,02/11/2015 11:00:48 AM,,03/02/2015 09:27:58 AM,ONTIME,Closed,Case Closed Case Noted,Police: Person(s) Shot/Stabbed,Mayor's 24 Hour Hotline,Notification,Notification,INFO09_Current Events,INFO,,,INTERSECTION of Centre St & Orchard St  Jamaica Plain  MA,9.0,02,6.0,E13,Jamaica Plain,11.0,Ward 19,1908.0,,INTERSECTION Centre St & Orchard St,,Intersection,2663.0,42.309,-71.1201,Constituent Call,"(42.309, -71.1201)"
503111,101001288775,02/11/2015 02:40:51 PM,,03/02/2015 09:28:16 AM,ONTIME,Closed,Case Closed Case Noted,Fire: Odor of Gas,Mayor's 24 Hour Hotline,Notification,Notification,INFO09_Current Events,INFO,,,274 Main St  Charlestown  MA  02129,3.0,1A,1.0,A15,Charlestown,2.0,Ward 2,206.0,A,274 Main St,2129.0,Address,167270.0,42.3774,-71.0672,Constituent Call,"(42.3774, -71.0672)"
503816,101001289848,02/11/2015 10:07:32 PM,,03/02/2015 09:28:52 AM,ONTIME,Closed,Case Closed Case Noted,Fire,Mayor's 24 Hour Hotline,Notification,Notification,INFO09_Current Events,INFO,,,50 Westminster St  Hyde Park  MA  02136,12.0,08,5.0,E18,Hyde Park,10.0,Ward 18,1814.0,R1,50 Westminster St,2136.0,Address,148583.0,42.2642,-71.12,Constituent Call,"(42.2642, -71.12)"
504906,101001291533,02/12/2015 02:43:04 PM,,03/02/2015 09:29:42 AM,ONTIME,Closed,Case Closed Case Noted,Other,Mayor's 24 Hour Hotline,Notification,Notification,INFO09_Current Events,INFO,,,6 Tappan St  Roslindale  MA  02131,9.0,06,5.0,E5,Roslindale,10.0,Ward 20,2004.0,R1,6 Tappan St,2131.0,Address,133827.0,42.289,-71.1331,Constituent Call,"(42.289, -71.1331)"
506676,101001294147,02/13/2015 05:32:19 PM,,02/14/2015 08:40:24 PM,ONTIME,Closed,Case Closed Case Invalid,Notification,Mayor's 24 Hour Hotline,Notification,Notification,INFO09_Current Events,INFO,,,771 Albany St  Roxbury  MA  02118,4.0,1C,2.0,D4,South End,6.0,Ward 8,802.0,,771 Albany St,2118.0,Address,161422.0,42.3339,-71.0733,Constituent Call,"(42.3339, -71.0733)"
506677,101001294148,02/13/2015 05:33:36 PM,,03/02/2015 09:31:39 AM,ONTIME,Closed,Case Closed Case Noted,Fire,Mayor's 24 Hour Hotline,Notification,Notification,INFO09_Current Events,INFO,,,771 Albany St  Roxbury  MA  02118,4.0,1C,2.0,D4,South End,6.0,Ward 8,802.0,,771 Albany St,2118.0,Address,161422.0,42.3339,-71.0733,Constituent Call,"(42.3339, -71.0733)"
507146,101001294820,02/14/2015 11:40:11 AM,,02/14/2015 08:39:53 PM,ONTIME,Closed,Case Closed Case Invalid,Notification,Mayor's 24 Hour Hotline,Notification,Notification,INFO09_Current Events,INFO,,,INTERSECTION of Heath St & Parker St  Jamaica Plain  MA,9.0,10A,6.0,E13,Jamaica Plain,11.0,Ward 10,1007.0,,INTERSECTION Heath St & Parker St,,Intersection,5847.0,42.326,-71.1003,Constituent Call,"(42.326, -71.1003)"
507150,101001294825,02/14/2015 11:41:26 AM,,02/14/2015 06:47:18 PM,ONTIME,Closed,Case Closed Case Invalid,Notification,Mayor's 24 Hour Hotline,Notification,Notification,INFO09_Current Events,INFO,,,INTERSECTION of Heath St & Parker St  Jamaica Plain  MA,9.0,10A,6.0,E13,Jamaica Plain,11.0,Ward 10,1007.0,,INTERSECTION Heath St & Parker St,,Intersection,5847.0,42.326,-71.1003,Constituent Call,"(42.326, -71.1003)"
507444,101001295207,02/14/2015 04:26:05 PM,,03/02/2015 09:32:01 AM,ONTIME,Closed,Case Closed Case Noted,Fire: Other,Mayor's 24 Hour Hotline,Notification,Notification,INFO09_Current Events,INFO,,,INTERSECTION of Park St & Tremont St  Boston  MA,3.0,1C,8.0,A1,Downtown / Financial District,14.0,Ward 5,503.0,,INTERSECTION Park St & Tremont St,,Intersection,7782.0,42.3565,-71.062,Constituent Call,"(42.3565, -71.062)"
507487,101001295272,02/14/2015 06:02:03 PM,,03/02/2015 09:40:50 AM,ONTIME,Closed,Case Closed Case Noted,Fire,Mayor's 24 Hour Hotline,Notification,Notification,INFO09_Current Events,INFO,,,10 Post Office Sq  Boston  MA  02109,3.0,1C,1.0,A1,Boston,3.0,03,306.0,C,10 Post Office Sq,2109.0,Address,112362.0,42.3575,-71.056,Constituent Call,"(42.3575, -71.056)"
507521,101001295323,02/14/2015 07:28:09 PM,,03/02/2015 09:41:04 AM,ONTIME,Closed,Case Closed Case Noted,BHA Notification,Mayor's 24 Hour Hotline,Notification,Notification,INFO09_Current Events,INFO,,,130 Ballou Ave  Dorchester  MA  02124,8.0,07,4.0,B3,Greater Mattapan,9.0,Ward 14,1413.0,R4,130 Ballou Ave,2124.0,Address,8008.0,42.2841,-71.0836,Constituent Call,"(42.2841, -71.0836)"
507530,101001295341,02/14/2015 08:34:06 PM,,03/02/2015 09:41:20 AM,ONTIME,Closed,Case Closed Case Noted,MVA: General,Mayor's 24 Hour Hotline,Notification,Notification,INFO09_Current Events,INFO,,,202 Garfield Ave  Hyde Park  MA  02136,12.0,08,5.0,E18,Hyde Park,10.0,Ward 18,1817.0,E,202 Garfield Ave,2136.0,Address,239978.0,42.2435,-71.1197,Constituent Call,"(42.2435, -71.1197)"
507612,101001295472,02/15/2015 08:23:33 AM,,03/02/2015 09:41:37 AM,ONTIME,Closed,Case Closed Case Noted,Other,Mayor's 24 Hour Hotline,Notification,Notification,INFO09_Current Events,INFO,,,852-856A Blue Hill Ave  Dorchester  MA  02124,7.0,03,4.0,B3,Greater Mattapan,9.0,Ward 14,1409.0,CL,852-856A Blue Hill Ave,2124.0,Address,16575.0,42.2956,-71.0872,Constituent Call,"(42.2956, -71.0872)"
508714,101001296751,02/15/2015 07:18:15 PM,,03/02/2015 09:42:09 AM,ONTIME,Closed,Case Closed Case Noted,BWSC: Water Main Break,Mayor's 24 Hour Hotline,Notification,Notification,INFO09_Current Events,INFO,,,INTERSECTION of Harrison Ave & Melnea Cass Blvd  Roxbury  MA,7.0,10B,7.0,B2,Roxbury,13.0,Ward 8,804.0,,INTERSECTION Harrison Ave & Melnea Cass Blvd,,Intersection,5673.0,42.3321,-71.0794,Constituent Call,"(42.3321, -71.0794)"
509333,101001297471,02/16/2015 09:48:29 AM,,03/02/2015 09:42:27 AM,ONTIME,Closed,Case Closed Case Noted,Fire,Mayor's 24 Hour Hotline,Notification,Notification,INFO09_Current Events,INFO,,,15 1/2 Boston Fish Pier   Boston  MA  02210,6.0,05,2.0,C6,South Boston / South Boston Waterfront,5.0,06,601.0,,15 1/2 Boston Fish Pier,2210.0,Address,351483.0,42.3594,-71.0587,Constituent Call,"(0, 0)"
510110,101001298425,02/16/2015 01:58:49 PM,,03/02/2015 09:42:43 AM,ONTIME,Closed,Case Closed Case Noted,Fire,Mayor's 24 Hour Hotline,Notification,Notification,INFO09_Current Events,INFO,,,545 Centre St  Jamaica Plain  MA  02130,9.0,02,6.0,E13,Jamaica Plain,11.0,19,1905.0,,545 Centre St,2130.0,Address,350842.0,42.3594,-71.0587,Constituent Call,"(0, 0)"
510376,101001298741,02/16/2015 03:20:23 PM,,03/02/2015 09:42:58 AM,ONTIME,Closed,Case Closed Case Noted,Fire: Other,Mayor's 24 Hour Hotline,Notification,Notification,INFO09_Current Events,INFO,,,30-36 Beechland Cir  Roslindale  MA  02131,12.0,06,5.0,E5,Roslindale,10.0,18,1811.0,E,30-36 Beechland Cir,2131.0,Address,341643.0,42.3594,-71.0587,Constituent Call,"(0, 0)"
510609,101001299042,02/16/2015 04:35:09 PM,,03/02/2015 09:43:20 AM,ONTIME,Closed,Case Closed Case Noted,Power Outage,Mayor's 24 Hour Hotline,Notification,Notification,INFO09_Current Events,INFO,,,83-105 Boston St  Dorchester  MA  02125,6.0,03,2.0,C6,Dorchester,5.0,Ward 7,708.0,C,83-105 Boston St,2125.0,Address,162360.0,42.3268,-71.0589,Constituent Call,"(42.3268, -71.0589)"
511269,101001299887,02/17/2015 06:34:40 AM,,03/02/2015 09:43:44 AM,ONTIME,Closed,Case Closed Case Noted,Fire: Other,Mayor's 24 Hour Hotline,Notification,Notification,INFO09_Current Events,INFO,,,205 Athens St  South Boston  MA  02127,6.0,05,2.0,C6,South Boston / South Boston Waterfront,5.0,Ward 6,601.0,R3,205 Athens St,2127.0,Address,5758.0,42.3398,-71.0515,Constituent Call,"(42.3398, -71.0515)"
512438,101001301571,02/17/2015 02:30:30 PM,,03/02/2015 09:47:01 AM,ONTIME,Closed,Case Closed Case Noted,Gas/Steam Leak,Mayor's 24 Hour Hotline,Notification,Notification,INFO09_Current Events,INFO,,,65 Sprague St  Hyde Park  MA  02136,12.0,08,5.0,E18,Hyde Park,10.0,Ward 18,1820.0,I,65 Sprague St,2136.0,Address,129444.0,42.2357,-71.1399,Constituent Call,"(42.2357, -71.1399)"
513087,101001302447,02/17/2015 06:23:38 PM,,03/12/2015 05:53:11 PM,ONTIME,Closed,Case Closed Case Invalid,,Mayor's 24 Hour Hotline,Notification,Notification,INFO09_Current Events,INFO,,,400 Commonwealth Ave  Boston  MA  02215,4.0,10A,8.0,D4,Back Bay,14.0,Ward 5,510.0,CC,400 Commonwealth Ave,2215.0,Address,40667.0,42.3486,-71.0907,Constituent Call,"(42.3486, -71.0907)"
513409,101001302903,02/17/2015 10:21:43 PM,,03/02/2015 09:47:25 AM,ONTIME,Closed,Case Closed Case Noted,Power Outage,Mayor's 24 Hour Hotline,Notification,Notification,INFO09_Current Events,INFO,,,155 Eustis St  Roxbury  MA  02119,7.0,10B,7.0,B2,Roxbury,13.0,Ward 8,803.0,R3,155 Eustis St,2119.0,Address,54566.0,42.3285,-71.0776,Constituent Call,"(42.3285, -71.0776)"
513888,101001303622,02/18/2015 09:51:51 AM,,03/02/2015 09:47:42 AM,ONTIME,Closed,Case Closed Case Noted,Other,Mayor's 24 Hour Hotline,Notification,Notification,INFO09_Current Events,INFO,,,INTERSECTION of Columbia Rd & William T Morrissey Blvd  South Boston  MA,6.0,05,2.0,C6,South Boston / South Boston Waterfront,5.0,Ward 7,707.0,,INTERSECTION Columbia Rd & William T Morrissey Blvd,,Intersection,3251.0,42.322,-71.0502,Constituent Call,"(42.322, -71.0502)"
514237,101001304097,02/18/2015 11:57:25 AM,,03/02/2015 09:48:50 AM,ONTIME,Closed,Case Closed Case Noted,BHA Notification,Mayor's 24 Hour Hotline,Notification,Notification,INFO09_Current Events,INFO,,,450-510 Parker St  Boston  MA  02115,9.0,10A,7.0,D4,Fenway / Kenmore / Audubon Circle / Longwood,13.0,Ward 4,409.0,E,450-510 Parker St,2115.0,Address,107801.0,42.3384,-71.0924,Constituent Call,"(42.3384, -71.0924)"
514729,101001304816,02/18/2015 04:01:10 PM,,02/20/2015 11:23:09 AM,ONTIME,Closed,Case Closed Case Invalid No Case Details,Notification,Mayor's 24 Hour Hotline,Notification,Notification,INFO09_Current Events,INFO,,,76 Whitcomb Ave  Jamaica Plain  MA  02130,9.0,02,6.0,E13,Jamaica Plain,11.0,Ward 19,1902.0,R1,76 Whitcomb Ave,2130.0,Address,149194.0,42.3031,-71.1296,Constituent Call,"(42.3031, -71.1296)"
515116,101001305429,02/18/2015 08:29:55 PM,,03/02/2015 10:00:44 AM,ONTIME,Closed,Case Closed Case Noted,Fire: Other,Mayor's 24 Hour Hotline,Notification,Notification,INFO09_Current Events,INFO,,,50 Corinth St  Roslindale  MA  02131,12.0,06,5.0,E5,Roslindale,10.0,20,2002.0,,50 Corinth St,2131.0,Address,351032.0,42.3594,-71.0587,Constituent Call,"(0, 0)"
515183,101001305549,02/18/2015 10:40:53 PM,,03/02/2015 10:10:34 AM,ONTIME,Closed,Case Closed Case Noted,Fire,Mayor's 24 Hour Hotline,Notification,Notification,INFO09_Current Events,INFO,,,630 Atlantic Ave  Boston  MA  02111,4.0,1C,2.0,A1,Downtown / Financial District,4.0,03,308.0,C,630 Atlantic Ave,2111.0,Address,157660.0,42.352,-71.055,Constituent Call,"(42.352, -71.055)"
515212,101001305600,02/19/2015 02:54:38 AM,,03/02/2015 06:25:53 PM,ONTIME,Closed,Case Closed Case Resolved,Other,Mayor's 24 Hour Hotline,Notification,Notification,INFO09_Current Events,INFO,,,610 Cummins Hwy  Mattapan  MA  02126,8.0,07,5.0,B3,Greater Mattapan,9.0,Ward 18,1821.0,EA,610 Cummins Hwy,2126.0,Address,44910.0,42.2727,-71.107,Constituent Call,"(42.2727, -71.107)"
516213,101001307107,02/19/2015 03:21:41 PM,,03/02/2015 10:11:10 AM,ONTIME,Closed,Case Closed Case Noted,Fire,Mayor's 24 Hour Hotline,Notification,Notification,INFO09_Current Events,INFO,,,23 Abbot St  Dorchester  MA  02124,7.0,03,4.0,B3,Greater Mattapan,9.0,Ward 14,1409.0,R3,23 Abbot St,2124.0,Address,79.0,42.2966,-71.086,Constituent Call,"(42.2966, -71.086)"
516663,101001307732,02/19/2015 09:22:33 PM,,03/02/2015 10:11:24 AM,ONTIME,Closed,Case Closed Case Noted,Fire,Mayor's 24 Hour Hotline,Notification,Notification,INFO09_Current Events,INFO,,,40 Dalton St  Boston  MA  02115,4.0,1C,8.0,D4,Back Bay,14.0,Ward 4,406.0,C,40 Dalton St,2115.0,Address,45831.0,42.3464,-71.0853,Constituent Call,"(42.3464, -71.0853)"
516734,101001307847,02/20/2015 12:14:33 AM,,03/02/2015 10:11:39 AM,ONTIME,Closed,Case Closed Case Noted,Fire,Mayor's 24 Hour Hotline,Notification,Notification,INFO09_Current Events,INFO,,,30 Mamelon Cir  Mattapan  MA  02126,8.0,07,4.0,B3,Greater Mattapan,9.0,Ward 18,1804.0,R2,30 Mamelon Cir,2126.0,Address,88855.0,42.2708,-71.0885,Constituent Call,"(42.2708, -71.0885)"
517413,101001308822,02/20/2015 01:50:12 PM,,03/02/2015 10:11:55 AM,ONTIME,Closed,Case Closed Case Noted,Fire,Mayor's 24 Hour Hotline,Notification,Notification,INFO09_Current Events,INFO,,,INTERSECTION of E India Row & Central Wharf  Boston  MA,3.0,1C,1.0,A1,Downtown / Financial District,3.0,Ward 3,306.0,,INTERSECTION E India Row & Central Wharf,,Intersection,6496.0,42.3589,-71.0506,Constituent Call,"(42.3589, -71.0506)"
517932,101001309537,02/20/2015 09:20:51 PM,,03/02/2015 06:26:24 PM,ONTIME,Closed,Case Closed Case Noted,BWSC: Water Main Shutoff,Mayor's 24 Hour Hotline,Notification,Notification,INFO09_Current Events,INFO,,,455 Dorchester Ave  South Boston  MA  02127,6.0,05,2.0,C6,South Boston / South Boston Waterfront,5.0,Ward 7,705.0,I,455 Dorchester Ave,2127.0,Address,48600.0,42.3331,-71.0574,Constituent Call,"(42.3331, -71.0574)"
518132,101001309840,02/21/2015 10:34:36 AM,,03/02/2015 10:13:41 AM,ONTIME,Closed,Case Closed Case Noted,Power Outage,Mayor's 24 Hour Hotline,Notification,Notification,INFO09_Current Events,INFO,,,9 Kemble Pl  South Boston  MA  02127,6.0,05,2.0,C6,South Boston / South Boston Waterfront,5.0,Ward 6,607.0,R1,9 Kemble Pl,2127.0,Address,81027.0,42.3378,-71.0278,Constituent Call,"(42.3378, -71.0278)"
518396,101001310232,02/21/2015 02:57:00 PM,,03/02/2015 06:26:47 PM,ONTIME,Closed,Case Closed Case Noted,Fire: Odor of Gas,Mayor's 24 Hour Hotline,Notification,Notification,INFO09_Current Events,INFO,,,675-701 Commonwealth Ave  Boston  MA  02215,4.0,10A,8.0,D4,Boston,14.0,21,2102.0,,675-701 Commonwealth Ave,2215.0,Address,341188.0,42.3502,-71.1054,Constituent Call,"(42.3502, -71.1054)"
518569,101001310517,02/21/2015 08:43:31 PM,,03/04/2015 10:13:54 AM,ONTIME,Closed,Case Closed Case Noted,Power Outage,Mayor's 24 Hour Hotline,Notification,Notification,INFO09_Current Events,INFO,,,32 Union Ave  Jamaica Plain  MA  02130,9.0,02,6.0,E13,Jamaica Plain,11.0,Ward 11,1107.0,R1,32 Union Ave,2130.0,Address,139040.0,42.3089,-71.1064,Constituent Call,"(42.3089, -71.1064)"
518621,101001310591,02/21/2015 11:21:44 PM,,03/09/2015 12:28:51 PM,ONTIME,Closed,Case Closed Case Noted,Fire: Technical Rescue,Mayor's 24 Hour Hotline,Notification,Notification,INFO09_Current Events,INFO,,,INTERSECTION of Congress St & State St  Boston  MA,3.0,1C,1.0,A1,Downtown / Financial District,3.0,Ward 3,306.0,,INTERSECTION Congress St & State St,,Intersection,3431.0,42.3589,-71.0568,Constituent Call,"(42.3589, -71.0568)"
518634,101001310610,02/22/2015 01:29:46 AM,,03/09/2015 12:29:17 PM,ONTIME,Closed,Case Closed Case Noted,Building Collapse,Mayor's 24 Hour Hotline,Notification,Notification,INFO09_Current Events,INFO,,,2999 Washington St  Roxbury  MA  02119,9.0,10B,6.0,B2,Roxbury,11.0,Ward 11,1104.0,R4,2999 Washington St,2119.0,Address,144603.0,42.3176,-71.0968,Constituent Call,"(42.3176, -71.0968)"
518635,101001310611,02/22/2015 02:00:06 AM,,03/09/2015 12:29:33 PM,ONTIME,Closed,Case Closed Case Noted,Fire: Other,Mayor's 24 Hour Hotline,Notification,Notification,INFO09_Current Events,INFO,,,111 Atlantic Ave  Boston  MA  02109,3.0,1B,1.0,A1,Boston,3.0,03,301.0,,111 Atlantic Ave,2109.0,Address,353198.0,42.3594,-71.0587,Constituent Call,"(0, 0)"
518744,101001310788,02/22/2015 10:21:29 AM,,03/09/2015 12:29:50 PM,ONTIME,Closed,Case Closed Case Noted,Fire: Other,Mayor's 24 Hour Hotline,Notification,Notification,INFO09_Current Events,INFO,,,2995 Washington St  Roxbury  MA  02119,9.0,10B,6.0,B2,Roxbury,11.0,Ward 11,1104.0,CM,2995 Washington St,2119.0,Address,144599.0,42.3177,-71.0967,Constituent Call,"(42.3177, -71.0967)"
518830,101001310930,02/22/2015 12:51:54 PM,,03/09/2015 12:30:05 PM,ONTIME,Closed,Case Closed Case Noted,Power Outage,Mayor's 24 Hour Hotline,Notification,Notification,INFO09_Current Events,INFO,,,31 Faulkner St  Dorchester  MA  02122,7.0,07,3.0,C11,Dorchester,7.0,Ward 16,1601.0,CD,31 Faulkner St,2122.0,Address,56715.0,42.2995,-71.0619,Constituent Call,"(42.2995, -71.0619)"
519816,101001312444,02/23/2015 01:40:23 PM,,03/09/2015 12:30:21 PM,ONTIME,Closed,Case Closed Case Noted,BWSC: Water Main Shutoff,Mayor's 24 Hour Hotline,Notification,Notification,INFO09_Current Events,INFO,,,23 Quincy St  Dorchester  MA  02121,9.0,10B,7.0,B2,Roxbury,13.0,Ward 12,1206.0,R1,23 Quincy St,2121.0,Address,114041.0,42.3158,-71.0818,Constituent Call,"(42.3158, -71.0818)"
520040,101001312808,02/23/2015 04:10:56 PM,,03/09/2015 12:30:39 PM,ONTIME,Closed,Case Closed Case Noted,Fire,Mayor's 24 Hour Hotline,Notification,Notification,INFO09_Current Events,INFO,,,442 Saratoga St  East Boston  MA  02128,1.0,09,1.0,A7,East Boston,1.0,Ward 1,110.0,R3,442 Saratoga St,2128.0,Address,122665.0,42.3797,-71.0285,Constituent Call,"(42.3797, -71.0285)"
520475,101001313446,02/24/2015 08:24:24 AM,,03/09/2015 12:30:59 PM,ONTIME,Closed,Case Closed Case Noted,Fire: Other,Mayor's 24 Hour Hotline,Notification,Notification,INFO09_Current Events,INFO,,,564 Massachusetts Ave  Roxbury  MA  02118,4.0,1C,7.0,D4,South End,6.0,Ward 9,902.0,A,564 Massachusetts Ave,2118.0,Address,92413.0,42.338,-71.0783,Constituent Call,"(42.338, -71.0783)"
520517,101001313510,02/24/2015 08:48:31 AM,,03/09/2015 12:31:15 PM,ONTIME,Closed,Case Closed Case Noted,Fire: Other,Mayor's 24 Hour Hotline,Notification,Notification,INFO09_Current Events,INFO,,,564 Massachusetts Ave  Roxbury  MA  02118,4.0,1C,7.0,D4,South End,6.0,Ward 9,902.0,A,564 Massachusetts Ave,2118.0,Address,92413.0,42.338,-71.0783,Constituent Call,"(42.338, -71.0783)"
521327,101001314663,02/24/2015 02:53:35 PM,,02/24/2015 03:10:17 PM,ONTIME,Closed,Case Closed Case Invalid case opened in error,Notification,Mayor's 24 Hour Hotline,Notification,Notification,INFO09_Current Events,INFO,,,11-87 Tremont St  Brighton  MA  02135,11.0,04,9.0,D14,Allston / Brighton,15.0,Ward 22,2204.0,A,11-87 Tremont St,2135.0,Address,138092.0,42.3513,-71.1721,Constituent Call,"(42.3513, -71.1721)"
521351,101001314703,02/24/2015 03:13:00 PM,,03/09/2015 12:31:34 PM,ONTIME,Closed,Case Closed Case Noted,Gas/Steam Leak,Mayor's 24 Hour Hotline,Notification,Notification,INFO09_Current Events,INFO,,,INTERSECTION of Prospect St & Tremont St  Charlestown  MA,3.0,1A,1.0,A15,Charlestown,2.0,Ward 2,203.0,,INTERSECTION Prospect St & Tremont St,,Intersection,7982.0,42.3764,-71.0586,Constituent Call,"(42.3764, -71.0586)"
521728,101001315231,02/25/2015 01:21:47 AM,,03/09/2015 12:31:55 PM,ONTIME,Closed,Case Closed Case Noted,Other,Mayor's 24 Hour Hotline,Notification,Notification,INFO09_Current Events,INFO,,,29-33 Wellington St  Roxbury  MA  02118,4.0,1C,7.0,D4,South End,6.0,Ward 4,404.0,A,29-33 Wellington St,2118.0,Address,147433.0,42.342,-71.0822,Constituent Call,"(42.342, -71.0822)"
522576,101001316449,02/25/2015 03:59:18 PM,,03/09/2015 12:32:15 PM,ONTIME,Closed,Case Closed Case Noted,Fire,Mayor's 24 Hour Hotline,Notification,Notification,INFO09_Current Events,INFO,,,40 Florence St  Roslindale  MA  02131,12.0,06,5.0,E5,Roslindale,10.0,Ward 19,1910.0,R3,40 Florence St,2131.0,Address,58866.0,42.2851,-71.127,Constituent Call,"(42.2851, -71.127)"
522767,101001316721,02/25/2015 07:20:16 PM,,03/09/2015 12:32:34 PM,ONTIME,Closed,Case Closed Case Noted,BWSC: Water Main Shutoff,Mayor's 24 Hour Hotline,Notification,Notification,INFO09_Current Events,INFO,,,INTERSECTION of Cottage St & Porter St  East Boston  MA,1.0,09,1.0,A7,East Boston,1.0,Ward 1,105.0,,INTERSECTION Cottage St & Porter St,,Intersection,3582.0,42.3707,-71.032,Constituent Call,"(42.3707, -71.032)"
523149,101001317277,02/26/2015 09:51:18 AM,,03/09/2015 12:32:56 PM,ONTIME,Closed,Case Closed Case Noted,Fire: Other,Mayor's 24 Hour Hotline,Notification,Notification,INFO09_Current Events,INFO,,,199 Summer St  Boston  MA  02111,4.0,1C,2.0,A1,Downtown / Financial District,4.0,03,308.0,,199 Summer St,2111.0,Address,343265.0,42.3594,-71.0587,Constituent Call,"(0, 0)"
523398,101001317630,02/26/2015 11:39:49 AM,,03/09/2015 12:33:17 PM,ONTIME,Closed,Case Closed Case Noted,BWSC: Sanitary Sewer Overflow (SSO),Mayor's 24 Hour Hotline,Notification,Notification,INFO09_Current Events,INFO,,,63 Hartford St  Dorchester  MA  02125,7.0,03,7.0,B2,Roxbury,13.0,Ward 13,1304.0,R2,63 Hartford St,2125.0,Address,70245.0,42.3141,-71.0734,Constituent Call,"(42.3141, -71.0734)"
524029,101001318560,02/27/2015 05:54:44 AM,,03/09/2015 12:33:36 PM,ONTIME,Closed,Case Closed Case Noted,Police: Full Notifications,Mayor's 24 Hour Hotline,Notification,Notification,INFO09_Current Events,INFO,,,2 Howe Ter  Dorchester  MA  02125,7.0,03,3.0,C11,Dorchester,8.0,Ward 15,1504.0,CM,2 Howe Ter,2125.0,Address,75614.0,42.3109,-71.0641,Constituent Call,"(42.3109, -71.0641)"
524515,101001319242,02/27/2015 01:39:31 PM,,03/09/2015 12:34:01 PM,ONTIME,Closed,Case Closed Case Noted,Power Outage,Mayor's 24 Hour Hotline,Notification,Notification,INFO09_Current Events,INFO,,,25 Highland St  Roxbury  MA  02119,7.0,10B,7.0,B2,Roxbury,13.0,Ward 9,905.0,R1,25 Highland St,2119.0,Address,73743.0,42.3291,-71.0919,Constituent Call,"(42.3291, -71.0919)"
524848,101001319771,02/27/2015 10:49:57 PM,,03/09/2015 12:34:20 PM,ONTIME,Closed,Case Closed Case Noted,Fire: Other,Mayor's 24 Hour Hotline,Notification,Notification,INFO09_Current Events,INFO,,,54-58 Myrtle St  Boston  MA  02114,3.0,1B,8.0,A1,Beacon Hill,14.0,Ward 5,503.0,CM,54-58 Myrtle St,2114.0,Address,99756.0,42.3592,-71.0664,Constituent Call,"(42.3592, -71.0664)"
524965,101001319943,02/28/2015 11:18:52 AM,,03/09/2015 12:34:45 PM,ONTIME,Closed,Case Closed Case Noted,Fire,Mayor's 24 Hour Hotline,Notification,Notification,INFO09_Current Events,INFO,,,208-218 Columbia Rd  Dorchester  MA  02121,7.0,03,4.0,B2,Roxbury,13.0,Ward 14,1401.0,C,208-218 Columbia Rd,2121.0,Address,35181.0,42.3073,-71.0766,Constituent Call,"(42.3073, -71.0766)"
525113,101001320241,02/28/2015 07:15:08 PM,,03/09/2015 12:35:05 PM,ONTIME,Closed,Case Closed Case Noted,Fire,Mayor's 24 Hour Hotline,Notification,Notification,INFO09_Current Events,INFO,,,233 Chelsea St  East Boston  MA  02128,1.0,09,1.0,A7,East Boston,1.0,Ward 1,105.0,R3,233 Chelsea St,2128.0,Address,205961.0,42.3754,-71.0321,Constituent Call,"(42.3754, -71.0321)"
525146,101001320293,02/28/2015 09:57:44 PM,,03/02/2015 12:28:11 PM,ONTIME,Closed,Case Closed Case Invalid No eform,Notification,Mayor's 24 Hour Hotline,Notification,Notification,INFO09_Current Events,INFO,,,1-1C Charles St  Dorchester  MA  02122,7.0,03,3.0,C11,Dorchester,8.0,Ward 15,1508.0,C,1-1C Charles St,2122.0,Address,29286.0,42.3009,-71.0603,Constituent Call,"(42.3009, -71.0603)"
525147,101001320296,02/28/2015 10:02:58 PM,,03/09/2015 12:41:08 PM,ONTIME,Closed,Case Closed Case Noted,BWSC: Sanitary Sewer Overflow (SSO),Mayor's 24 Hour Hotline,Notification,Notification,INFO09_Current Events,INFO,,,1 Charles St S  Boston  MA  02116,4.0,1C,2.0,A1,Downtown / Financial District,6.0,Ward 5,501.0,CM,1 Charles St S,2116.0,Address,29331.0,42.3515,-71.0674,Constituent Call,"(42.3515, -71.0674)"
525148,101001320301,02/28/2015 10:29:17 PM,,03/09/2015 12:41:27 PM,ONTIME,Closed,Case Closed Case Noted,Fire: Other,Mayor's 24 Hour Hotline,Notification,Notification,INFO09_Current Events,INFO,,,444 Harrison Ave  Roxbury  MA  02118,4.0,1C,2.0,D4,South End,4.0,Ward 3,307.0,I,444 Harrison Ave,2118.0,Address,155849.0,42.3428,-71.065,Constituent Call,"(42.3428, -71.065)"
525166,101001320334,03/01/2015 05:18:49 AM,,03/09/2015 05:06:44 PM,ONTIME,Closed,Case Closed Case Noted,Fire,Mayor's 24 Hour Hotline,Notification,Notification,INFO09_Current Events,INFO,,,9 Porter St  Jamaica Plain  MA  02130,9.0,02,6.0,E13,Jamaica Plain,11.0,Ward 11,1106.0,R1,9 Porter St,2130.0,Address,112283.0,42.3156,-71.1035,Constituent Call,"(42.3156, -71.1035)"
525167,101001320335,03/01/2015 05:38:43 AM,,03/02/2015 09:40:03 AM,ONTIME,Closed,Case Closed Case Noted,Fire,Mayor's 24 Hour Hotline,Notification,Notification,INFO09_Current Events,INFO,,,9 Porter St  Jamaica Plain  MA  02130,9.0,02,6.0,E13,Jamaica Plain,11.0,Ward 11,1106.0,R1,9 Porter St,2130.0,Address,112283.0,42.3156,-71.1035,Constituent Call,"(42.3156, -71.1035)"
526232,101001321873,03/02/2015 05:50:01 PM,,03/09/2015 05:07:04 PM,ONTIME,Closed,Case Closed Case Noted,Fire,Mayor's 24 Hour Hotline,Notification,Notification,INFO09_Current Events,INFO,,,1391 Commonwealth Ave  Allston  MA  02134,11.0,04,9.0,D14,Allston / Brighton,15.0,Ward 21,2106.0,EA,1391 Commonwealth Ave,2134.0,Address,37446.0,42.3489,-71.1378,Constituent Call,"(42.3489, -71.1378)"
526401,101001322130,03/03/2015 08:45:12 AM,,03/09/2015 05:07:41 PM,ONTIME,Closed,Case Closed Case Noted,BPS: School Incident,Mayor's 24 Hour Hotline,Notification,Notification,INFO09_Current Events,INFO,,,77 Lawrence Ave  Dorchester  MA  02121,7.0,03,4.0,B2,Roxbury,13.0,14,1401.0,E,77 Lawrence Ave,2121.0,Address,84553.0,42.3113,-71.0762,Constituent Call,"(42.3113, -71.0762)"
526841,101001322837,03/03/2015 02:26:51 PM,,03/09/2015 05:07:55 PM,ONTIME,Closed,Case Closed Case Noted,Fire,Mayor's 24 Hour Hotline,Notification,Notification,INFO09_Current Events,INFO,,,7 Haley St  Roxbury  MA  02119,9.0,10B,7.0,B2,Roxbury,13.0,Ward 11,1103.0,R2,7 Haley St,2119.0,Address,68053.0,42.3178,-71.0926,Constituent Call,"(42.3178, -71.0926)"
526851,101001322853,03/03/2015 02:33:47 PM,,03/09/2015 05:08:48 PM,ONTIME,Closed,Case Closed Case Noted,Police: Other,Mayor's 24 Hour Hotline,Notification,Notification,INFO09_Current Events,INFO,,,7 Eagle St  West Roxbury  MA  02132,12.0,06,6.0,E5,West Roxbury,12.0,Ward 20,2005.0,R1,7 Eagle St,2132.0,Address,50674.0,42.2719,-71.1511,Constituent Call,"(42.2719, -71.1511)"
527176,101001323341,03/04/2015 07:54:47 AM,,03/09/2015 05:10:01 PM,ONTIME,Closed,Case Closed Case Noted,Fire: Technical Rescue,Mayor's 24 Hour Hotline,Notification,Notification,INFO09_Current Events,INFO,,,200 Mount Vernon St  Dorchester  MA  02125,6.0,03,3.0,C6,Dorchester,7.0,13,1303.0,C,200 Mount Vernon St,2125.0,Address,156017.0,42.3213,-71.0457,Constituent Call,"(42.3213, -71.0457)"
527441,101001323726,03/04/2015 10:50:32 AM,,03/12/2015 11:59:39 AM,ONTIME,Closed,Case Closed Case Noted,Building Collapse,Mayor's 24 Hour Hotline,Notification,Notification,INFO09_Current Events,INFO,,,75-101 Sprague St  Hyde Park  MA  02136,12.0,08,5.0,E18,Hyde Park,10.0,18,1820.0,,75-101 Sprague St,2136.0,Address,347208.0,42.3594,-71.0587,Constituent Call,"(0, 0)"
528017,101001324612,03/05/2015 09:08:34 AM,,03/05/2015 09:09:42 AM,ONTIME,Closed,Case Closed Case Invalid Opened in error,Notification,Mayor's 24 Hour Hotline,Notification,Notification,INFO09_Current Events,INFO,,,206 Commonwealth Ave  Boston  MA  02116,4.0,1C,8.0,D4,Back Bay,14.0,Ward 5,508.0,A,206 Commonwealth Ave,2116.0,Address,39623.0,42.3507,-71.0809,Constituent Call,"(42.3507, -71.0809)"
528454,101001325250,03/05/2015 03:16:58 PM,,03/09/2015 05:10:24 PM,ONTIME,Closed,Case Closed Case Noted,BWSC: Sanitary Sewer Overflow (SSO),Mayor's 24 Hour Hotline,Notification,Notification,INFO09_Current Events,INFO,,,184-220 Border St  East Boston  MA  02128,1.0,09,1.0,A7,East Boston,1.0,Ward 1,106.0,C,184-220 Border St,2128.0,Address,17003.0,42.3747,-71.0407,Constituent Call,"(42.3747, -71.0407)"
528651,101001325539,03/05/2015 10:22:13 PM,,03/09/2015 09:33:34 AM,ONTIME,Closed,Case Closed Case Invalid No eform,Notification,Mayor's 24 Hour Hotline,Notification,Notification,INFO09_Current Events,INFO,,,715 Walk Hill St  Mattapan  MA  02126,8.0,07,5.0,B3,Greater Mattapan,9.0,Ward 18,1803.0,R4,715 Walk Hill St,2126.0,Address,141742.0,42.2773,-71.0941,Constituent Call,"(42.2773, -71.0941)"
528652,101001325540,03/05/2015 10:22:37 PM,,03/09/2015 09:32:02 AM,ONTIME,Closed,Case Closed Case Invalid No eform,Notification,Mayor's 24 Hour Hotline,Notification,Notification,INFO09_Current Events,INFO,,,715 Walk Hill St  Mattapan  MA  02126,8.0,07,5.0,B3,Greater Mattapan,9.0,Ward 18,1803.0,R4,715 Walk Hill St,2126.0,Address,141742.0,42.2773,-71.0941,Constituent Call,"(42.2773, -71.0941)"
528653,101001325541,03/05/2015 10:24:11 PM,,03/09/2015 05:10:46 PM,ONTIME,Closed,Case Closed Case Noted,Power Outage,Mayor's 24 Hour Hotline,Notification,Notification,INFO09_Current Events,INFO,,,715 Walk Hill St  Mattapan  MA  02126,8.0,07,5.0,B3,Greater Mattapan,9.0,Ward 18,1803.0,R4,715 Walk Hill St,2126.0,Address,141742.0,42.2773,-71.0941,Constituent Call,"(42.2773, -71.0941)"
528657,101001325546,03/05/2015 10:42:44 PM,,03/09/2015 05:11:03 PM,ONTIME,Closed,Case Closed Case Noted,Fire,Mayor's 24 Hour Hotline,Notification,Notification,INFO09_Current Events,INFO,,,9 Grant St  Dorchester  MA  02125,7.0,03,3.0,C11,Dorchester,7.0,Ward 13,1307.0,R2,9 Grant St,2125.0,Address,65953.0,42.3185,-71.0555,Constituent Call,"(42.3185, -71.0555)"
528766,101001325731,03/06/2015 09:07:55 AM,,03/12/2015 11:59:56 AM,ONTIME,Closed,Case Closed Case Noted,BHA Notification,Mayor's 24 Hour Hotline,Notification,Notification,INFO09_Current Events,INFO,,,1701 Washington St  Roxbury  MA  02118,4.0,1C,7.0,D4,South End,6.0,Ward 9,902.0,E,1701 Washington St,2118.0,Address,144360.0,42.3374,-71.0762,Constituent Call,"(42.3374, -71.0762)"
529260,101001326472,03/06/2015 07:17:59 PM,,03/12/2015 12:00:10 PM,ONTIME,Closed,Case Closed Case Noted,Fire,Mayor's 24 Hour Hotline,Notification,Notification,INFO09_Current Events,INFO,,,249 Washington St  Dorchester  MA  02121,7.0,03,4.0,C11,Dorchester,8.0,Ward 14,1402.0,R3,249 Washington St,2121.0,Address,146002.0,42.3013,-71.0769,Constituent Call,"(42.3013, -71.0769)"
529435,101001326743,03/07/2015 02:11:48 PM,,03/07/2015 02:34:12 PM,ONTIME,Closed,Case Closed Duplicate of Existing Case re-submitted notification,Notification,Mayor's 24 Hour Hotline,Notification,Notification,INFO09_Current Events,INFO,,,13 Allston St  Charlestown  MA  02129,3.0,1A,1.0,A15,Charlestown,2.0,Ward 2,205.0,R1,13 Allston St,2129.0,Address,2660.0,42.38,-71.0637,Constituent Call,"(42.38, -71.0637)"
529441,101001326751,03/07/2015 02:28:52 PM,,03/12/2015 12:00:22 PM,ONTIME,Closed,Case Closed Case Noted,Building Collapse,Mayor's 24 Hour Hotline,Notification,Notification,INFO09_Current Events,INFO,,,13 Allston St  Charlestown  MA  02129,3.0,1A,1.0,A15,Charlestown,2.0,Ward 2,205.0,R1,13 Allston St,2129.0,Address,2660.0,42.38,-71.0637,Constituent Call,"(42.38, -71.0637)"
529674,101001327156,03/08/2015 05:05:36 PM,,03/12/2015 12:00:35 PM,ONTIME,Closed,Case Closed Case Noted,Fire,Mayor's 24 Hour Hotline,Notification,Notification,INFO09_Current Events,INFO,,,141 Green St  Jamaica Plain  MA  02130,9.0,02,6.0,E13,Jamaica Plain,11.0,19,1906.0,E,141 Green St,2130.0,Address,66335.0,42.3104,-71.1075,Constituent Call,"(42.3104, -71.1075)"
529681,101001327175,03/08/2015 05:51:08 PM,,03/12/2015 12:00:53 PM,ONTIME,Closed,Case Closed Case Noted,Fire,Mayor's 24 Hour Hotline,Notification,Notification,INFO09_Current Events,INFO,,,40 Greenwich St  Dorchester  MA  02122,7.0,03,3.0,C11,Dorchester,8.0,Ward 15,1506.0,R3,40 Greenwich St,2122.0,Address,243896.0,42.3039,-71.0576,Constituent Call,"(42.3039, -71.0576)"
529760,101001327321,03/09/2015 07:49:29 AM,,03/12/2015 12:01:06 PM,ONTIME,Closed,Case Closed Case Noted,Other,Mayor's 24 Hour Hotline,Notification,Notification,INFO09_Current Events,INFO,,,73 Hemenway St  Boston  MA  02215,4.0,10A,8.0,D4,Fenway / Kenmore / Audubon Circle / Longwood,14.0,Ward 4,407.0,RC,73 Hemenway St,2215.0,Address,72723.0,42.3446,-71.09,Constituent Call,"(42.3446, -71.09)"
530733,101001328820,03/10/2015 10:52:39 AM,,03/12/2015 12:01:24 PM,ONTIME,Closed,Case Closed Case Noted,Fire,Mayor's 24 Hour Hotline,Notification,Notification,INFO09_Current Events,INFO,,,40 Stanbro St  Hyde Park  MA  02136,12.0,08,5.0,E18,Hyde Park,10.0,Ward 18,1820.0,R2,40 Stanbro St,2136.0,Address,130095.0,42.2347,-71.1294,Constituent Call,"(42.2347, -71.1294)"
530974,101001329151,03/10/2015 01:19:56 PM,,03/10/2015 01:21:47 PM,ONTIME,Closed,Case Closed Case Invalid Wrong Eform,Notification,Mayor's 24 Hour Hotline,Notification,Notification,INFO09_Current Events,INFO,,,109 Cornell St  Roslindale  MA  02131,12.0,06,5.0,E5,Roslindale,10.0,Ward 18,1810.0,R2,109 Cornell St,2131.0,Address,42910.0,42.2773,-71.1319,Constituent Call,"(42.2773, -71.1319)"
531078,101001329317,03/10/2015 03:12:27 PM,,03/12/2015 12:01:39 PM,ONTIME,Closed,Case Closed Case Noted,Fire,Mayor's 24 Hour Hotline,Notification,Notification,INFO09_Current Events,INFO,,,83 Tonawanda St  Dorchester  MA  02124,7.0,03,4.0,C11,Dorchester,8.0,Ward 17,1702.0,R2,83 Tonawanda St,2124.0,Address,136198.0,42.2985,-71.0686,Constituent Call,"(42.2985, -71.0686)"
531160,101001329445,03/10/2015 04:59:55 PM,,03/12/2015 12:01:55 PM,ONTIME,Closed,Case Closed Case Noted,Power Outage,Mayor's 24 Hour Hotline,Notification,Notification,INFO09_Current Events,INFO,,,INTERSECTION of Hyde Park Ave & Wilton St  Hyde Park  MA,12.0,08,5.0,E18,Hyde Park,10.0,Ward 18,1818.0,,INTERSECTION Hyde Park Ave & Wilton St,,Intersection,6456.0,42.2491,-71.1267,Constituent Call,"(42.2491, -71.1267)"
531351,101001329756,03/11/2015 08:23:47 AM,,03/12/2015 12:02:11 PM,ONTIME,Closed,Case Closed Case Noted,Gas/Steam Leak,Mayor's 24 Hour Hotline,Notification,Notification,INFO09_Current Events,INFO,,,91 Clare Ave  Hyde Park  MA  02136,12.0,08,5.0,E18,Hyde Park,10.0,Ward 18,1808.0,R1,91 Clare Ave,2136.0,Address,33009.0,42.275,-71.119,Constituent Call,"(42.275, -71.119)"
531953,101001330718,03/11/2015 09:02:38 PM,,03/12/2015 12:02:31 PM,ONTIME,Closed,Case Closed Case Noted,BWSC: Water Main Shutoff,Mayor's 24 Hour Hotline,Notification,Notification,INFO09_Current Events,INFO,,,142 Gove St  East Boston  MA  02128,1.0,09,1.0,A7,East Boston,1.0,Ward 1,102.0,A,142 Gove St,2128.0,Address,65604.0,42.3699,-71.0338,Constituent Call,"(42.3699, -71.0338)"
533601,101001333002,03/13/2015 10:24:35 PM,,03/16/2015 11:00:45 AM,ONTIME,Closed,Case Closed Case Noted,Fire,Mayor's 24 Hour Hotline,Notification,Notification,INFO09_Current Events,INFO,,,14 Lafield St  Dorchester  MA  02122,7.0,07,3.0,C11,Dorchester,7.0,Ward 16,1604.0,R3,14 Lafield St,2122.0,Address,82970.0,42.295,-71.0592,Constituent Call,"(42.295, -71.0592)"
533619,101001333031,03/14/2015 05:10:04 AM,,03/20/2015 12:06:02 PM,ONTIME,Closed,Case Closed Case Noted,Fire,Mayor's 24 Hour Hotline,Notification,Notification,INFO09_Current Events,INFO,,,3 Haskell St  Allston  MA  02134,11.0,04,9.0,D14,Allston / Brighton,15.0,Ward 22,2201.0,R3,3 Haskell St,2134.0,Address,71083.0,42.3587,-71.128,Constituent Call,"(42.3587, -71.128)"
533730,101001333197,03/14/2015 04:02:32 PM,,03/20/2015 12:06:23 PM,ONTIME,Closed,Case Closed Case Noted,Police: Full Notifications,Mayor's 24 Hour Hotline,Notification,Notification,INFO09_Current Events,INFO,,,571 Dudley St  Dorchester  MA  02125,7.0,03,7.0,B2,Roxbury,13.0,Ward 13,1302.0,E,571 Dudley St,2125.0,Address,49796.0,42.3208,-71.0723,Constituent Call,"(42.3208, -71.0723)"
533755,101001333239,03/14/2015 05:34:49 PM,,03/20/2015 12:06:45 PM,ONTIME,Closed,Case Closed Case Noted,Fire,Mayor's 24 Hour Hotline,Notification,Notification,INFO09_Current Events,INFO,,,INTERSECTION of Mount Vernon St & Walnut St  Boston  MA,3.0,1B,8.0,A1,Beacon Hill,14.0,Ward 5,503.0,,INTERSECTION Mount Vernon St & Walnut St,,Intersection,7445.0,42.3583,-71.0663,Constituent Call,"(42.3583, -71.0663)"
533812,101001333335,03/15/2015 02:48:44 AM,,03/20/2015 12:06:58 PM,ONTIME,Closed,Case Closed Case Noted,Power Outage,Mayor's 24 Hour Hotline,Notification,Notification,INFO09_Current Events,INFO,,,INTERSECTION of Jersey St & Peterborough St  Boston  MA,4.0,10A,8.0,D4,Fenway / Kenmore / Audubon Circle / Longwood,14.0,Ward 5,502.0,,INTERSECTION Jersey St & Peterborough St,,Intersection,6553.0,42.3437,-71.0974,Constituent Call,"(42.3437, -71.0974)"
533819,101001333343,03/15/2015 05:50:35 AM,,03/20/2015 12:07:20 PM,ONTIME,Closed,Case Closed Case Noted,Police: Full Notifications,Mayor's 24 Hour Hotline,Notification,Notification,INFO09_Current Events,INFO,,,23 Lincoln St  Hyde Park  MA  02136,12.0,08,5.0,E18,Hyde Park,10.0,Ward 18,1813.0,R3,23 Lincoln St,2136.0,Address,86201.0,42.2588,-71.1196,Constituent Call,"(42.2588, -71.1196)"
533860,101001333412,03/15/2015 11:43:51 AM,,03/20/2015 12:07:55 PM,ONTIME,Closed,Case Closed Case Noted,Fire,Mayor's 24 Hour Hotline,Notification,Notification,INFO09_Current Events,INFO,,,66 Johnston Rd  Dorchester  MA  02124,8.0,07,4.0,B3,Greater Mattapan,9.0,Ward 14,1411.0,R3,66 Johnston Rd,2124.0,Address,79963.0,42.2876,-71.0933,Constituent Call,"(42.2876, -71.0933)"
533927,101001333535,03/15/2015 06:00:09 PM,,03/20/2015 12:08:24 PM,ONTIME,Closed,Case Closed Case Noted,BWSC: Sanitary Sewer Overflow (SSO),Mayor's 24 Hour Hotline,Notification,Notification,INFO09_Current Events,INFO,,,225 Sumner St  East Boston  MA  02128,1.0,09,1.0,A7,East Boston,1.0,Ward 1,103.0,A,225 Sumner St,2128.0,Address,155928.0,42.3686,-71.0395,Constituent Call,"(42.3686, -71.0395)"
533933,101001333542,03/15/2015 06:35:40 PM,,03/20/2015 12:09:20 PM,ONTIME,Closed,Case Closed Case Noted,MBTA Notifications,Mayor's 24 Hour Hotline,Notification,Notification,INFO09_Current Events,INFO,,,275 Dorchester St  South Boston  MA  02127,6.0,05,2.0,C6,South Boston / South Boston Waterfront,5.0,Ward 7,705.0,R1,275 Dorchester St,2127.0,Address,48970.0,42.3323,-71.0523,Constituent Call,"(42.3323, -71.0523)"
533962,101001333583,03/15/2015 09:21:57 PM,,03/23/2015 03:14:42 PM,ONTIME,Closed,Case Closed Case Noted,Fire,Mayor's 24 Hour Hotline,Notification,Notification,INFO09_Current Events,INFO,,,18-32 Penniman Rd  Allston  MA  02134,11.0,04,9.0,D14,Allston / Brighton,15.0,Ward 22,2202.0,I,18-32 Penniman Rd,2134.0,Address,168619.0,42.3553,-71.1362,Constituent Call,"(42.3553, -71.1362)"
533980,101001333615,03/16/2015 05:58:34 AM,,03/24/2015 03:17:38 PM,ONTIME,Closed,Case Closed Case Noted,Police: Found Body,Mayor's 24 Hour Hotline,Notification,Notification,INFO09_Current Events,INFO,,,11 Gerard St  Roxbury  MA  02119,7.0,10B,7.0,B2,Roxbury,13.0,Ward 8,803.0,I,11 Gerard St,2119.0,Address,63523.0,42.3318,-71.0722,Constituent Call,"(42.3318, -71.0722)"
534161,101001333877,03/16/2015 10:18:33 AM,,03/24/2015 03:18:04 PM,ONTIME,Closed,Case Closed Case Noted,Police: Full Notifications,Mayor's 24 Hour Hotline,Notification,Notification,INFO09_Current Events,INFO,,,28 Rockwell St  Dorchester  MA  02124,8.0,07,4.0,B3,Dorchester,9.0,Ward 17,1710.0,R1,28 Rockwell St,2124.0,Address,117946.0,42.2833,-71.0732,Constituent Call,"(42.2833, -71.0732)"
534428,101001334266,03/16/2015 03:30:47 PM,,03/24/2015 03:19:38 PM,ONTIME,Closed,Case Closed Case Noted,Fire,Mayor's 24 Hour Hotline,Notification,Notification,INFO09_Current Events,INFO,,,129 Selden St  Dorchester  MA  02124,8.0,07,4.0,B3,Dorchester,9.0,Ward 17,1710.0,R3,129 Selden St,2124.0,Address,124884.0,42.2807,-71.0821,Constituent Call,"(42.2807, -71.0821)"
534526,101001334415,03/16/2015 06:56:02 PM,,03/24/2015 03:20:04 PM,ONTIME,Closed,Case Closed Case Noted,Fire,Mayor's 24 Hour Hotline,Notification,Notification,INFO09_Current Events,INFO,,,57 Olney St  Dorchester  MA  02121,7.0,03,4.0,C11,Dorchester,8.0,Ward 15,1502.0,R3,57 Olney St,2121.0,Address,105310.0,42.3057,-71.0715,Constituent Call,"(42.3057, -71.0715)"
535402,101001335625,03/18/2015 07:05:25 AM,,03/25/2015 08:43:56 AM,ONTIME,Closed,Case Closed Case Noted,BWSC: Water Main Break,Mayor's 24 Hour Hotline,Notification,Notification,INFO09_Current Events,INFO,,,INTERSECTION of Harrison Ave & Kneeland St  Boston  MA,4.0,1C,2.0,A1,Downtown / Financial District,4.0,Ward 3,308.0,,INTERSECTION Harrison Ave & Kneeland St,,Intersection,5708.0,42.3506,-71.0615,Constituent Call,"(42.3506, -71.0615)"
535582,101001335823,03/18/2015 08:23:19 AM,,03/25/2015 08:44:20 AM,ONTIME,Closed,Case Closed Case Noted,Power Outage,Mayor's 24 Hour Hotline,Notification,Notification,INFO09_Current Events,INFO,,,37 Harbor View St  Dorchester  MA  02125,7.0,03,3.0,C11,Dorchester,7.0,Ward 13,1308.0,R3,37 Harbor View St,2125.0,Address,69358.0,42.3171,-71.0549,Constituent Call,"(42.3171, -71.0549)"
535755,101001336051,03/18/2015 10:06:19 AM,,03/25/2015 08:44:43 AM,ONTIME,Closed,Case Closed Case Noted,BWSC: Water Main Shutoff,Mayor's 24 Hour Hotline,Notification,Notification,INFO09_Current Events,INFO,,,68-74 Harrison Ave  Boston  MA  02111,4.0,1C,2.0,A1,Downtown / Financial District,4.0,Ward 3,308.0,CM,68-74 Harrison Ave,2111.0,Address,69992.0,42.3511,-71.0611,Constituent Call,"(42.3511, -71.0611)"
536306,101001336783,03/19/2015 04:06:56 AM,,03/25/2015 08:47:26 AM,ONTIME,Closed,Case Closed Case Noted,Fire,Mayor's 24 Hour Hotline,Notification,Notification,INFO09_Current Events,INFO,,,66 Decatur St  Charlestown  MA  02129,3.0,1A,1.0,A15,Charlestown,2.0,02,202.0,,66 Decatur St,2129.0,Address,164188.0,42.3774,-71.0544,Constituent Call,"(42.3774, -71.0544)"
536383,101001336905,03/19/2015 08:46:29 AM,,03/25/2015 08:53:35 AM,ONTIME,Closed,Case Closed Case Noted,Fire: Other,Mayor's 24 Hour Hotline,Notification,Notification,INFO09_Current Events,INFO,,,1045-1047 Tremont St  Mission Hill  MA  02120,9.0,10B,7.0,D4,Roxbury,13.0,Ward 9,904.0,RC,1045-1047 Tremont St,2120.0,Address,136795.0,42.3366,-71.0858,Constituent Call,"(42.3366, -71.0858)"
536637,101001337215,03/19/2015 10:36:59 AM,,03/25/2015 08:54:01 AM,ONTIME,Closed,Case Closed Case Noted,Fire,Mayor's 24 Hour Hotline,Notification,Notification,INFO09_Current Events,INFO,,,8 Stonehurst St  Dorchester  MA  02122,7.0,03,4.0,C11,Dorchester,8.0,Ward 15,1502.0,R3,8 Stonehurst St,2122.0,Address,131008.0,42.3044,-71.0682,Constituent Call,"(42.3044, -71.0682)"
536699,101001337289,03/19/2015 11:19:05 AM,,03/19/2015 11:22:38 AM,ONTIME,Closed,Case Closed Case Invalid Case created in error.,Notification,Mayor's 24 Hour Hotline,Notification,Notification,INFO09_Current Events,INFO,,,8 Stonehurst St  Dorchester  MA  02122,7.0,03,4.0,C11,Dorchester,8.0,Ward 15,1502.0,R3,8 Stonehurst St,2122.0,Address,131008.0,42.3044,-71.0682,Constituent Call,"(42.3044, -71.0682)"
537074,101001337834,03/19/2015 10:37:32 PM,,03/25/2015 08:56:17 AM,ONTIME,Closed,Case Closed Case Noted,BWSC: Sanitary Sewer Overflow (SSO),Mayor's 24 Hour Hotline,Notification,Notification,INFO09_Current Events,INFO,,,INTERSECTION of Lanark Rd & Sutherland Rd  Brighton  MA,11.0,04,9.0,D14,Allston / Brighton,15.0,Ward 21,2114.0,,INTERSECTION Lanark Rd & Sutherland Rd,,Intersection,6758.0,42.3406,-71.1476,Constituent Call,"(42.3406, -71.1476)"
537262,101001338120,03/20/2015 10:19:27 AM,,03/25/2015 09:27:10 AM,ONTIME,Closed,Case Closed Case Noted,Fire,Mayor's 24 Hour Hotline,Notification,Notification,INFO09_Current Events,INFO,,,547 Washington St  Brighton  MA  02135,11.0,04,9.0,D14,Allston / Brighton,15.0,Ward 22,2207.0,RC,547 Washington St,2135.0,Address,156340.0,42.3495,-71.1638,Constituent Call,"(42.3495, -71.1638)"
537322,101001338194,03/20/2015 11:00:10 AM,,03/30/2015 01:18:07 PM,ONTIME,Closed,Case Closed Case Noted,BWSC: Sanitary Sewer Overflow (SSO),Mayor's 24 Hour Hotline,Notification,Notification,INFO09_Current Events,INFO,,,159 Saratoga St  East Boston  MA  02128,1.0,09,1.0,A7,East Boston,1.0,Ward 1,106.0,R2,159 Saratoga St,2128.0,Address,122519.0,42.3772,-71.0344,Constituent Call,"(42.3772, -71.0344)"
537688,101001338655,03/20/2015 03:40:53 PM,,03/30/2015 01:18:38 PM,ONTIME,Closed,Case Closed Case Noted,BHA Notification,Mayor's 24 Hour Hotline,Notification,Notification,INFO09_Current Events,INFO,,,120 L St  South Boston  MA  02127,6.0,05,2.0,C6,South Boston / South Boston Waterfront,5.0,Ward 6,606.0,E,120 L St,2127.0,Address,82455.0,42.3335,-71.0349,Constituent Call,"(42.3335, -71.0349)"
537882,101001338924,03/21/2015 01:01:02 PM,,03/30/2015 01:19:05 PM,ONTIME,Closed,Case Closed Case Noted,Fire,Mayor's 24 Hour Hotline,Notification,Notification,INFO09_Current Events,INFO,,,112-124 Paris St  East Boston  MA  02128,1.0,09,1.0,A7,East Boston,1.0,Ward 1,104.0,E,112-124 Paris St,2128.0,Address,106466.0,42.3729,-71.0375,Constituent Call,"(42.3729, -71.0375)"
538030,101001339169,03/22/2015 01:44:15 PM,,03/30/2015 04:16:10 PM,ONTIME,Closed,Case Closed Case Noted,Fire,Mayor's 24 Hour Hotline,Notification,Notification,INFO09_Current Events,INFO,,,72-74 Manthorne Rd  West Roxbury  MA  02132,12.0,06,6.0,E5,West Roxbury,12.0,Ward 20,2018.0,R2,72-74 Manthorne Rd,2132.0,Address,89177.0,42.2895,-71.1519,Constituent Call,"(42.2895, -71.1519)"
538117,101001339299,03/23/2015 06:05:08 AM,,03/24/2015 03:01:48 PM,ONTIME,Closed,Case Closed Case Invalid,Notification,Mayor's 24 Hour Hotline,Notification,Notification,INFO09_Current Events,INFO,,,600 Tremont St  Roxbury  MA  02118,4.0,1C,2.0,D4,South End,6.0,Ward 9,901.0,CM,600 Tremont St,2118.0,Address,137747.0,42.3428,-71.0733,Constituent Call,"(42.3428, -71.0733)"
538744,101001340145,03/23/2015 06:54:11 PM,,03/23/2015 06:56:45 PM,ONTIME,Closed,Case Closed Case Invalid,Notification,Mayor's 24 Hour Hotline,Notification,Notification,INFO09_Current Events,INFO,,,35 Grove St  Boston  MA  02114,3.0,1B,8.0,A1,Beacon Hill,14.0,Ward 5,504.0,A,35 Grove St,2114.0,Address,67540.0,42.3599,-71.0688,Constituent Call,"(42.3599, -71.0688)"
538786,101001340209,03/24/2015 03:58:21 AM,,03/30/2015 04:16:29 PM,ONTIME,Closed,Case Closed Case Noted,Fire: Hazmat,Mayor's 24 Hour Hotline,Notification,Notification,INFO09_Current Events,INFO,,,16 Greendale Rd  Mattapan  MA  02126,8.0,07,4.0,B3,Greater Mattapan,9.0,Ward 14,1414.0,CM,16 Greendale Rd,2126.0,Address,66504.0,42.2853,-71.0942,Constituent Call,"(42.2853, -71.0942)"
539181,101001340739,03/24/2015 01:00:46 PM,,03/30/2015 04:16:59 PM,ONTIME,Closed,Case Closed Case Noted,Fire,Mayor's 24 Hour Hotline,Notification,Notification,INFO09_Current Events,INFO,,,40 Dalton St  Boston  MA  02115,4.0,1C,8.0,D4,Back Bay,14.0,Ward 4,406.0,C,40 Dalton St,2115.0,Address,45831.0,42.3464,-71.0853,Constituent Call,"(42.3464, -71.0853)"
539321,101001340916,03/24/2015 02:52:52 PM,,03/24/2015 02:59:14 PM,ONTIME,Closed,Case Closed Case Invalid,Notification,Mayor's 24 Hour Hotline,Notification,Notification,INFO09_Current Events,INFO,,,49 Ames St  Dorchester  MA  02124,8.0,07,4.0,B3,Greater Mattapan,9.0,Ward 14,1410.0,E,49 Ames St,2124.0,Address,174082.0,42.2895,-71.0858,Constituent Call,"(42.2895, -71.0858)"
539330,101001340930,03/24/2015 03:03:05 PM,,03/30/2015 04:17:18 PM,ONTIME,Closed,Case Closed Case Noted,BWSC: Sanitary Sewer Overflow (SSO),Mayor's 24 Hour Hotline,Notification,Notification,INFO09_Current Events,INFO,,,49-63 Ames St  Dorchester  MA  02124,8.0,07,4.0,B3,Greater Mattapan,9.0,14,1410.0,,49-63 Ames St,2124.0,Address,350440.0,42.3594,-71.0587,Constituent Call,"(0, 0)"
540053,101001341878,03/25/2015 01:59:37 PM,,03/30/2015 04:17:49 PM,ONTIME,Closed,Case Closed Case Noted,Fire,Mayor's 24 Hour Hotline,Notification,Notification,INFO09_Current Events,INFO,,,64 Norfolk Ave  Roxbury  MA  02119,7.0,10B,7.0,B2,Roxbury,13.0,Ward 8,803.0,I,64 Norfolk Ave,2119.0,Address,172340.0,42.3284,-71.0737,Constituent Call,"(42.3284, -71.0737)"
540089,101001341936,03/25/2015 02:36:16 PM,,03/30/2015 04:18:17 PM,ONTIME,Closed,Case Closed Case Noted,Fire: Technical Rescue,Mayor's 24 Hour Hotline,Notification,Notification,INFO09_Current Events,INFO,,,INTERSECTION of Washington St & Summer St  Boston  MA,3.0,1C,2.0,A1,Downtown / Financial District,4.0,Ward 3,308.0,,INTERSECTION Washington St & Summer St,,Intersection,6075.0,42.3555,-71.0605,Constituent Call,"(42.3555, -71.0605)"
540726,101001342899,03/26/2015 03:50:42 PM,,03/30/2015 04:18:37 PM,ONTIME,Closed,Case Closed Case Noted,BHA Notification,Mayor's 24 Hour Hotline,Notification,Notification,INFO09_Current Events,INFO,,,9 Walford Way  Charlestown  MA  02129,3.0,1A,1.0,A15,Charlestown,2.0,Ward 2,202.0,E,9 Walford Way,2129.0,Address,173582.0,42.3783,-71.0547,Constituent Call,"(42.3783, -71.0547)"
541388,101001343809,03/27/2015 03:29:01 PM,,03/31/2015 10:03:17 AM,ONTIME,Closed,Case Closed Case Noted,BWSC: Sanitary Sewer Overflow (SSO),Mayor's 24 Hour Hotline,Notification,Notification,INFO09_Current Events,INFO,,,42-48 Batterymarch St  Boston  MA  02109,3.0,1C,1.0,A1,Downtown / Financial District,3.0,Ward 3,306.0,C,42-48 Batterymarch St,2109.0,Address,8804.0,42.3576,-71.0538,Constituent Call,"(42.3576, -71.0538)"
541480,101001343933,03/27/2015 06:41:31 PM,,04/01/2015 10:51:47 AM,ONTIME,Closed,Case Closed Case Noted,Police: Other,Mayor's 24 Hour Hotline,Notification,Notification,INFO09_Current Events,INFO,,,221 Dudley St  Roxbury  MA  02119,7.0,10B,7.0,B2,Roxbury,13.0,Ward 8,804.0,RC,221 Dudley St,2119.0,Address,226505.0,42.3284,-71.0806,Constituent Call,"(42.3284, -71.0806)"
541514,101001343989,03/27/2015 09:51:32 PM,,03/31/2015 10:05:47 AM,ONTIME,Closed,Case Closed Case Noted,Fire,Mayor's 24 Hour Hotline,Notification,Notification,INFO09_Current Events,INFO,,,33-59 Congress St  Boston  MA  02109,3.0,1C,1.0,A1,Downtown / Financial District,3.0,Ward 3,306.0,C,33-59 Congress St,2109.0,Address,42101.0,42.3578,-71.0569,Constituent Call,"(42.3578, -71.0569)"
541562,101001344057,03/28/2015 09:50:27 AM,,03/31/2015 10:07:24 AM,ONTIME,Closed,Case Closed Case Noted,Police: Other,Mayor's 24 Hour Hotline,Notification,Notification,INFO09_Current Events,INFO,,,650 Harrison Ave  Roxbury  MA  02118,4.0,1C,2.0,D4,Roxbury,6.0,08,801.0,E,650 Harrison Ave,2118.0,Address,341651.0,42.3395,-71.0693,Constituent Call,"(42.3395, -71.0693)"
541666,101001344224,03/28/2015 11:29:47 PM,,03/28/2015 11:32:17 PM,ONTIME,Closed,Case Closed Case Invalid Wrong eform.,Notification,Mayor's 24 Hour Hotline,Notification,Notification,INFO09_Current Events,INFO,,,INTERSECTION of Meridian St & Nay St  East Boston  MA,1.0,09,1.0,A7,East Boston,1.0,Ward 1,108.0,,INTERSECTION Meridian St & Nay St,,Intersection,7255.0,42.3832,-71.0393,Constituent Call,"(42.3832, -71.0393)"
541677,101001344249,03/29/2015 09:40:53 AM,,03/31/2015 10:07:51 AM,ONTIME,Closed,Case Closed Case Noted,Fire,Mayor's 24 Hour Hotline,Notification,Notification,INFO09_Current Events,INFO,,,23 Evergreen St  Jamaica Plain  MA  02130,9.0,10A,8.0,E13,Jamaica Plain,11.0,Ward 10,1008.0,R3,23 Evergreen St,2130.0,Address,55279.0,42.3243,-71.1102,Constituent Call,"(42.3243, -71.1102)"
541691,101001344270,03/29/2015 10:49:18 AM,,03/31/2015 10:08:04 AM,ONTIME,Closed,Case Closed Case Noted,Police: Found Body,Mayor's 24 Hour Hotline,Notification,Notification,INFO09_Current Events,INFO,,,330 Bowdoin St  Dorchester  MA  02125,7.0,03,3.0,C11,Dorchester,8.0,15,1504.0,E,330 Bowdoin St,2125.0,Address,341709.0,42.3084,-71.0651,Constituent Call,"(42.3084, -71.0651)"
542062,101001344794,03/30/2015 11:02:12 AM,,03/31/2015 10:08:51 AM,ONTIME,Closed,Case Closed Case Noted,Police: Full Notifications,Mayor's 24 Hour Hotline,Notification,Notification,INFO09_Current Events,INFO,,,7 Orton-Marotta Way  South Boston  MA  02127,6.0,05,2.0,C6,South Boston,5.0,06,601.0,E,7 Orton-Marotta Way,2127.0,Address,174418.0,42.3385,-71.0559,Constituent Call,"(42.3385, -71.0559)"
542211,101001345006,03/30/2015 01:36:53 PM,,03/31/2015 10:09:20 AM,ONTIME,Closed,Case Closed Case Noted,Fire,Mayor's 24 Hour Hotline,Notification,Notification,INFO09_Current Events,INFO,,,200 Stuart St  Boston  MA  02116,4.0,1C,2.0,A1,Back Bay,6.0,Ward 5,501.0,C,200 Stuart St,2116.0,Address,155726.0,42.3505,-71.0676,Constituent Call,"(42.3505, -71.0676)"
542468,101001345365,03/30/2015 08:55:20 PM,,03/31/2015 10:09:58 AM,ONTIME,Closed,Case Closed Case Noted,Fire: Manhole Fire,Mayor's 24 Hour Hotline,Notification,Notification,INFO09_Current Events,INFO,,,1-15 Water St  Boston  MA  02108,3.0,1C,1.0,A1,Downtown / Financial District,3.0,Ward 3,306.0,C,1-15 Water St,2108.0,Address,146290.0,42.3575,-71.0578,Constituent Call,"(42.3575, -71.0578)"
542518,101001345440,03/31/2015 07:40:00 AM,,04/02/2015 02:13:05 PM,ONTIME,Closed,Case Closed Case Noted,Fire: Odor of Gas,Mayor's 24 Hour Hotline,Notification,Notification,INFO09_Current Events,INFO,,,995 Blue Hill Ave  Dorchester  MA  02124,8.0,07,4.0,B3,Dorchester,9.0,14,1411.0,RC,995 Blue Hill Ave,2124.0,Address,16619.0,42.2903,-71.0898,Constituent Call,"(42.2903, -71.0898)"
542783,101001345796,03/31/2015 11:35:29 AM,,04/15/2015 01:35:55 PM,ONTIME,Closed,Case Closed Case Noted,Fire,Mayor's 24 Hour Hotline,Notification,Notification,INFO09_Current Events,INFO,,,332 Harvard St  Dorchester  MA  02124,8.0,07,4.0,B3,Greater Mattapan,9.0,Ward 14,1409.0,R4,332 Harvard St,2124.0,Address,70850.0,42.2926,-71.0897,Constituent Call,"(42.2926, -71.0897)"
542793,101001345812,03/31/2015 11:47:37 AM,,04/15/2015 01:36:52 PM,ONTIME,Closed,Case Closed Case Noted,Police: Full Notifications,Mayor's 24 Hour Hotline,Notification,Notification,INFO09_Current Events,INFO,,,332 Harvard St  Dorchester  MA  02124,8.0,07,4.0,B3,Greater Mattapan,9.0,Ward 14,1409.0,R4,332 Harvard St,2124.0,Address,70850.0,42.2926,-71.0897,Constituent Call,"(42.2926, -71.0897)"
543139,101001346294,03/31/2015 07:32:18 PM,,04/15/2015 01:37:07 PM,ONTIME,Closed,Case Closed Case Noted,Fire,Mayor's 24 Hour Hotline,Notification,Notification,INFO09_Current Events,INFO,,,174 Leyden St  East Boston  MA  02128,1.0,09,1.0,A7,East Boston,1.0,Ward 1,113.0,R1,174 Leyden St,2128.0,Address,85769.0,42.3889,-71.005,Constituent Call,"(42.3889, -71.005)"
543152,101001346315,03/31/2015 08:29:05 PM,,04/15/2015 01:37:19 PM,ONTIME,Closed,Case Closed Case Noted,Fire,Mayor's 24 Hour Hotline,Notification,Notification,INFO09_Current Events,INFO,,,3089-3091 Washington St  Roxbury  MA  02119,9.0,02,6.0,E13,Jamaica Plain,11.0,Ward 11,1104.0,RC,3089-3091 Washington St,2119.0,Address,144620.0,42.3155,-71.0989,Constituent Call,"(42.3155, -71.0989)"
543159,101001346323,03/31/2015 08:47:34 PM,,04/15/2015 01:37:32 PM,ONTIME,Closed,Case Closed Case Noted,Fire,Mayor's 24 Hour Hotline,Notification,Notification,INFO09_Current Events,INFO,,,289 Beacon St  Boston  MA  02116,4.0,1C,8.0,D4,Back Bay,14.0,Ward 5,507.0,A,289 Beacon St,2116.0,Address,10836.0,42.353,-71.0806,Constituent Call,"(42.353, -71.0806)"
543859,101001347247,04/01/2015 05:37:07 PM,,04/15/2015 01:37:45 PM,ONTIME,Closed,Case Closed Case Noted,Police: Full Notifications,Mayor's 24 Hour Hotline,Notification,Notification,INFO09_Current Events,INFO,,,8 Trull St  Dorchester  MA  02125,7.0,03,3.0,C11,Dorchester,8.0,Ward 15,1504.0,R1,8 Trull St,2125.0,Address,138476.0,42.3124,-71.0652,Constituent Call,"(42.3124, -71.0652)"
544877,101001348684,04/03/2015 10:51:57 AM,,04/03/2015 10:56:07 AM,ONTIME,Closed,Case Closed Case Invalid Case made in error.,Notification,Mayor's 24 Hour Hotline,Notification,Notification,INFO09_Current Events,INFO,,,29 Evelyn St  Mattapan  MA  02126,8.0,07,4.0,B3,Greater Mattapan,9.0,Ward 18,1802.0,R3,29 Evelyn St,2126.0,Address,54867.0,42.2793,-71.0917,Constituent Call,"(42.2793, -71.0917)"
544878,101001348685,04/03/2015 10:51:59 AM,,04/15/2015 01:37:58 PM,ONTIME,Closed,Case Closed Case Noted,BWSC: Sanitary Sewer Overflow (SSO),Mayor's 24 Hour Hotline,Notification,Notification,INFO09_Current Events,INFO,,,29 Evelyn St  Mattapan  MA  02126,8.0,07,4.0,B3,Greater Mattapan,9.0,Ward 18,1802.0,R3,29 Evelyn St,2126.0,Address,54867.0,42.2793,-71.0917,Constituent Call,"(42.2793, -71.0917)"
