,CASE_ENQUIRY_ID,OPEN_DT,TARGET_DT,CLOSED_DT,OnTime_Status,CASE_STATUS,CLOSURE_REASON,CASE_TITLE,SUBJECT,REASON,TYPE,QUEUE,Department,SubmittedPhoto,ClosedPhoto,Location,fire_district,pwd_district,city_council_district,police_district,neighborhood,neighborhood_services_district,ward,precinct,land_usage,LOCATION_STREET_NAME,LOCATION_ZIPCODE,Property_Type,Property_ID,LATITUDE,LONGITUDE,Source,Geocoded_Location
469963,101001241497,01/02/2015 04:05:30 PM,01/26/2015 04:05:30 PM,01/20/2015 11:32:32 AM,ONTIME,Closed,Case Closed Case Invalid,Parking Meter Repairs,Transportation - Traffic Division,Operations,Parking Meter Repairs,BTDT_Broken Meter Complaints,BTDT,,,290 Congress St  Boston  MA  02110,6.0,1C,1.0,A1,Downtown / Financial District,3.0,03,306.0,,290 Congress St,2110.0,Address,157186.0,42.353,-71.0525,Constituent Call,"(42.353, -71.0525)"
470663,101001242482,01/05/2015 01:59:05 PM,01/27/2015 01:59:05 PM,01/20/2015 09:55:57 AM,ONTIME,Closed,Case Closed Case Invalid,Parking Meter Repairs,Transportation - Traffic Division,Operations,Parking Meter Repairs,BTDT_Broken Meter Complaints,BTDT,,,200 Clarendon St  Boston  MA  02116,4.0,1C,2.0,D4,Back Bay,6.0,Ward 4,402.0,C,200 Clarendon St,2116.0,Address,33209.0,42.3492,-71.0751,Constituent Call,"(42.3492, -71.0751)"
471810,101001244143,01/08/2015 11:46:35 AM,01/30/2015 11:46:35 AM,01/20/2015 09:53:16 AM,ONTIME,Closed,Case Closed Case Invalid,Parking Meter Repairs,Transportation - Traffic Division,Operations,Parking Meter Repairs,BTDT_Broken Meter Complaints,BTDT,,,INTERSECTION of Broad St & State St  Boston  MA,3.0,1C,1.0,A1,Downtown / Financial District,3.0,Ward 3,306.0,,INTERSECTION Broad St & State St,,Intersection,1968.0,42.3592,-71.0546,Constituent Call,"(42.3592, -71.0546)"
472382,101001244944,01/09/2015 12:38:29 PM,02/02/2015 12:38:28 PM,01/21/2015 09:59:11 AM,ONTIME,Closed,Case Closed Case Resolved,Parking Meter Repairs,Transportation - Traffic Division,Operations,Parking Meter Repairs,BTDT_Broken Meter Complaints,BTDT,,,922 Beacon St  Boston  MA  02215,,10A,8.0,D4,Fenway / Kenmore / Audubon Circle / Longwood,14.0,Ward 21,2101.0,CD,922 Beacon St,2215.0,Address,12448.0,42.3466,-71.1065,Constituent Call,"(42.3466, -71.1065)"
472676,101001245380,01/10/2015 08:26:07 PM,02/03/2015 08:30:00 AM,01/20/2015 09:51:33 AM,ONTIME,Closed,Case Closed Case Resolved,Parking Meter Repairs,Transportation - Traffic Division,Operations,Parking Meter Repairs,BTDT_Broken Meter Complaints,BTDT,,,141-147 Portland St  Boston  MA  02114,3.0,1B,1.0,A1,Downtown / Financial District,3.0,03,306.0,C,141-147 Portland St,2114.0,Address,155984.0,42.3641,-71.0611,Constituent Call,"(42.3641, -71.0611)"
474727,101001248459,01/16/2015 11:31:51 AM,02/09/2015 11:31:51 AM,01/20/2015 09:49:39 AM,ONTIME,Closed,Case Closed Case Resolved,Parking Meter Repairs,Transportation - Traffic Division,Operations,Parking Meter Repairs,BTDT_Broken Meter Complaints,BTDT,,,0 Portland St  Boston  MA  02114,3.0,1B,1.0,A1,Downtown / Financial District,3.0,Ward 3,306.0,CL,0 Portland St,2114.0,Address,112311.0,42.3641,-71.0609,Constituent Call,"(42.3641, -71.0609)"
493130,101001274239,02/04/2015 11:14:41 AM,02/26/2015 11:14:40 AM,04/15/2015 09:24:56 AM,OVERDUE,Closed,Case Closed Case Referred to External Agency,Parking Meter Repairs,Transportation - Traffic Division,Operations,Parking Meter Repairs,BTDT_Broken Meter Complaints,BTDT,,,12 Channel St  Boston  MA  02210,6.0,05,2.0,C6,Boston,5.0,06,601.0,E,12 Channel St,2210.0,Address,340874.0,42.3453,-71.037,Constituent Call,"(42.3453, -71.037)"
506831,101001294372,02/13/2015 08:26:57 PM,03/10/2015 08:30:00 AM,02/25/2015 01:59:55 PM,ONTIME,Closed,Case Closed Case Resolved,Parking Meter Repairs,Transportation - Traffic Division,Operations,Parking Meter Repairs,BTDT_Broken Meter Complaints,BTDT,,,641-641A Huntington Ave  Boston  MA  02115,4.0,10A,8.0,B2,Boston,14.0,04,410.0,E,641-641A Huntington Ave,2115.0,Address,76396.0,42.3358,-71.1009,Constituent Call,"(42.3358, -71.1009)"
512817,101001302091,02/17/2015 04:43:22 PM,03/03/2015 04:43:21 PM,03/03/2015 09:55:15 AM,ONTIME,Closed,Case Closed Case Invalid,Parking Meter Repairs,Transportation - Traffic Division,Operations,Parking Meter Repairs,BTDT_Broken Meter Complaints,BTDT,,,1 Evans Way  Boston  MA  02115,4.0,10A,8.0,B2,Fenway / Kenmore / Audubon Circle / Longwood,14.0,04,410.0,,1 Evans Way,2115.0,Address,343330.0,42.3594,-71.0587,Constituent Call,"(0, 0)"
524755,101001319614,02/27/2015 06:07:50 PM,03/16/2015 08:30:00 AM,03/03/2015 09:56:10 AM,ONTIME,Closed,Case Closed Case Resolved Coin & Credit Card functioning.,Parking Meter Repairs,Transportation - Traffic Division,Operations,Parking Meter Repairs,BTDT_Broken Meter Complaints,BTDT,,,290 Congress St  Boston  MA  02110,6.0,1C,1.0,A1,Downtown / Financial District,3.0,03,306.0,,290 Congress St,2110.0,Address,157186.0,42.353,-71.0525,Constituent Call,"(42.353, -71.0525)"
526235,101001321877,03/02/2015 05:53:55 PM,03/17/2015 08:30:00 AM,03/03/2015 10:01:08 AM,ONTIME,Closed,Case Closed Case Noted where is the info on the specific meter.,Parking Meter Repairs,Transportation - Traffic Division,Operations,Parking Meter Repairs,BTDT_Broken Meter Complaints,BTDT,,,INTERSECTION of Stuart St & Tremont St  Boston  MA,4.0,1C,2.0,A1,Downtown / Financial District,4.0,Ward 3,308.0,,INTERSECTION Stuart St & Tremont St,,Intersection,8452.0,42.3511,-71.0649,Constituent Call,"(42.3511, -71.0649)"
526277,101001321933,03/02/2015 07:01:03 PM,03/17/2015 08:30:00 AM,03/05/2015 01:52:16 PM,ONTIME,Closed,Case Closed Case Noted,Parking Meter Repairs,Transportation - Traffic Division,Operations,Parking Meter Repairs,BTDT_Broken Meter Complaints,BTDT,,,1027-1033 Commonwealth Ave  Boston  MA  02215,11.0,04,9.0,D14,Allston / Brighton,14.0,Ward 21,2103.0,RC,1027-1033 Commonwealth Ave,2215.0,Address,36979.0,42.3522,-71.1216,Constituent Call,"(42.3522, -71.1216)"
529450,101001326766,03/07/2015 02:56:03 PM,03/23/2015 08:30:00 AM,04/13/2015 09:09:50 AM,OVERDUE,Closed,Case Closed Case Noted,Parking Meter Repairs,Transportation - Traffic Division,Operations,Parking Meter Repairs,BTDT_Broken Meter Complaints,BTDT,,,500 Commonwealth Ave  Boston  MA  02215,4.0,10A,8.0,D4,Boston,14.0,05,510.0,C,500 Commonwealth Ave,2215.0,Address,157943.0,42.3485,-71.0951,Constituent Call,"(42.3485, -71.0951)"
530398,101001328304,03/09/2015 06:28:25 PM,03/24/2015 08:30:00 AM,04/13/2015 09:10:32 AM,OVERDUE,Closed,Case Closed Case Resolved,Parking Meter Repairs,Transportation - Traffic Division,Operations,Parking Meter Repairs,BTDT_Broken Meter Complaints,BTDT,,,130 Newbury St  Boston  MA  02116,4.0,1C,8.0,D4,Back Bay,14.0,Ward 5,507.0,RC,130 Newbury St,2116.0,Address,101339.0,42.3509,-71.0766,Constituent Call,"(42.3509, -71.0766)"
532665,101001331727,03/12/2015 05:08:17 PM,03/27/2015 08:30:00 AM,04/15/2015 09:19:15 AM,OVERDUE,Closed,Case Closed Case Invalid,Parking Meter Repairs,Transportation - Traffic Division,Operations,Parking Meter Repairs,BTDT_Broken Meter Complaints,BTDT,,,85 Merrimac St  Boston  MA  02114,3.0,1B,1.0,A1,Downtown / Financial District,3.0,Ward 3,306.0,C,85 Merrimac St,2114.0,Address,274781.0,42.3637,-71.0613,Constituent Call,"(42.3637, -71.0613)"
534096,101001333785,03/16/2015 09:23:15 AM,03/30/2015 09:23:15 AM,04/15/2015 09:22:52 AM,OVERDUE,Closed,Case Closed Case Resolved,Parking Meter Repairs,Transportation - Traffic Division,Operations,Parking Meter Repairs,BTDT_Broken Meter Complaints,BTDT,,,INTERSECTION of Beacon St & Berkeley St  Boston  MA,4.0,1C,8.0,D4,Back Bay,14.0,Ward 5,506.0,,INTERSECTION Beacon St & Berkeley St,,Intersection,1101.0,42.3548,-71.0748,Constituent Call,"(42.3548, -71.0748)"
534310,101001334075,03/16/2015 12:54:23 PM,03/30/2015 12:54:23 PM,04/13/2015 08:55:01 AM,OVERDUE,Closed,Case Closed Case Resolved,Parking Meter Repairs,Transportation - Traffic Division,Operations,Parking Meter Repairs,BTDT_Broken Meter Complaints,BTDT,,,28 Exeter St  Boston  MA  02116,4.0,1C,8.0,D4,Back Bay,14.0,Ward 5,507.0,CM,28 Exeter St,2116.0,Address,55336.0,42.3501,-71.0796,Constituent Call,"(42.3501, -71.0796)"
534312,101001334078,03/16/2015 12:55:12 PM,03/30/2015 12:55:11 PM,04/13/2015 08:54:50 AM,OVERDUE,Closed,Case Closed Case Resolved,Parking Meter Repairs,Transportation - Traffic Division,Operations,Parking Meter Repairs,BTDT_Broken Meter Complaints,BTDT,,,33 Exeter St  Boston  MA  02116,4.0,1C,8.0,D4,Back Bay,14.0,Ward 5,508.0,C,33 Exeter St,2116.0,Address,55340.0,42.3497,-71.0799,Constituent Call,"(42.3497, -71.0799)"
535114,101001335235,03/17/2015 02:55:05 PM,03/31/2015 02:55:05 PM,04/13/2015 08:54:41 AM,OVERDUE,Closed,Case Closed Case Resolved,Parking Meter Repairs,Transportation - Traffic Division,Operations,Parking Meter Repairs,BTDT_Broken Meter Complaints,BTDT,,,51-53 Brookline Ave  Boston  MA  02215,4.0,10A,8.0,D4,Fenway / Kenmore / Audubon Circle / Longwood,14.0,Ward 21,2101.0,C,51-53 Brookline Ave,2215.0,Address,22106.0,42.3473,-71.0987,Constituent Call,"(42.3473, -71.0987)"
535803,101001336106,03/18/2015 10:29:24 AM,04/01/2015 10:29:24 AM,04/13/2015 08:54:30 AM,OVERDUE,Closed,Case Closed Case Noted,Parking Meter Repairs,Transportation - Traffic Division,Operations,Parking Meter Repairs,BTDT_Broken Meter Complaints,BTDT,,,INTERSECTION of D St & Summer St  Boston  MA,6.0,05,2.0,C6,South Boston / South Boston Waterfront,5.0,Ward 6,601.0,,INTERSECTION D St & Summer St,,Intersection,3818.0,42.3462,-71.0422,Constituent Call,"(42.3462, -71.0422)"
536001,101001336381,03/18/2015 01:37:43 PM,04/01/2015 01:37:43 PM,04/13/2015 08:54:14 AM,OVERDUE,Closed,Case Closed Case Noted,Parking Meter Repairs,Transportation - Traffic Division,Operations,Parking Meter Repairs,BTDT_Broken Meter Complaints,BTDT,,,210 Harvard Ave  Allston  MA  02134,11.0,04,9.0,D14,Allston / Brighton,14.0,Ward 21,2103.0,C,210 Harvard Ave,2134.0,Address,70349.0,42.3499,-71.1303,Constituent Call,"(42.3499, -71.1303)"
536242,101001336704,03/18/2015 07:02:18 PM,04/02/2015 08:30:00 AM,04/13/2015 08:53:55 AM,OVERDUE,Closed,Case Closed Case Noted,Parking Meter Repairs,Transportation - Traffic Division,Operations,Parking Meter Repairs,BTDT_Broken Meter Complaints,BTDT,,,179 Newbury St  Boston  MA  02116,4.0,1C,8.0,D4,Back Bay,14.0,Ward 5,507.0,RC,179 Newbury St,2116.0,Address,101384.0,42.3507,-71.0795,Constituent Call,"(42.3507, -71.0795)"
536344,101001336852,03/19/2015 08:17:59 AM,04/02/2015 08:30:00 AM,04/13/2015 08:53:05 AM,OVERDUE,Closed,Case Closed Case Noted,Parking Meter Repairs,Transportation - Traffic Division,Operations,Parking Meter Repairs,BTDT_Broken Meter Complaints,BTDT,,,628-630 Tremont St  Roxbury  MA  02118,4.0,1C,2.0,D4,South End,6.0,09,901.0,EA,628-630 Tremont St,2118.0,Address,170458.0,42.3423,-71.0743,Constituent Call,"(42.3423, -71.0743)"
538717,101001340105,03/23/2015 05:23:21 PM,04/07/2015 08:30:00 AM,04/13/2015 08:56:05 AM,OVERDUE,Closed,Case Closed Case Noted,Parking Meter Repairs,Transportation - Traffic Division,Operations,Parking Meter Repairs,BTDT_Broken Meter Complaints,BTDT,,,INTERSECTION of Clarendon St & Marlborough St  Boston  MA,4.0,1C,8.0,D4,Back Bay,14.0,Ward 5,507.0,,INTERSECTION Clarendon St & Marlborough St,,Intersection,3065.0,42.3534,-71.0766,Constituent Call,"(42.3534, -71.0766)"
538928,101001340407,03/24/2015 09:33:32 AM,04/07/2015 09:33:32 AM,04/15/2015 09:24:34 AM,OVERDUE,Closed,Case Closed Case Resolved,Parking Meter Repairs,Transportation - Traffic Division,Operations,Parking Meter Repairs,BTDT_Broken Meter Complaints,BTDT,,,INTERSECTION of D St & Fargo St  Boston  MA,6.0,05,2.0,C6,South Boston / South Boston Waterfront,5.0,Ward 6,601.0,,INTERSECTION D St & Fargo St,,Intersection,3816.0,42.3455,-71.0429,Constituent Call,"(42.3455, -71.0429)"
539345,101001340947,03/24/2015 03:04:49 PM,04/07/2015 03:04:48 PM,04/15/2015 09:24:00 AM,OVERDUE,Closed,Case Closed Case Resolved,Parking Meter Repairs,Transportation - Traffic Division,Operations,Parking Meter Repairs,BTDT_Broken Meter Complaints,BTDT,,,1100-1102 Boylston St  Boston  MA  02215,4.0,10A,8.0,D4,Back Bay,14.0,Ward 4,406.0,RC,1100-1102 Boylston St,2215.0,Address,162428.0,42.3468,-71.0885,Constituent Call,"(42.3468, -71.0885)"
543077,101001346196,03/31/2015 04:09:50 PM,04/14/2015 04:09:50 PM,04/13/2015 09:04:19 AM,ONTIME,Closed,Case Closed Case Noted,Parking Meter Repairs,Transportation - Traffic Division,Operations,Parking Meter Repairs,BTDT_Broken Meter Complaints,BTDT,,,1A Charles St  Boston  MA  02108,3.0,1C,8.0,A1,Boston,14.0,05,503.0,,1A Charles St,2108.0,Address,342808.0,42.3548,-71.0681,Constituent Call,"(42.3548, -71.0681)"
544357,101001347955,04/02/2015 01:31:19 PM,04/16/2015 01:31:19 PM,04/09/2015 07:57:17 AM,ONTIME,Closed,Case Closed Case Resolved,Parking Meter Repairs,Transportation - Traffic Division,Operations,Parking Meter Repairs,BTDT_Broken Meter Complaints,BTDT,,,INTERSECTION of Hereford St & Newbury St  Boston  MA,4.0,1C,8.0,D4,Back Bay,14.0,Ward 5,509.0,,INTERSECTION Hereford St & Newbury St,,Intersection,5887.0,42.3488,-71.0856,Constituent Call,"(42.3488, -71.0856)"
545354,101001349365,04/04/2015 03:54:39 PM,04/21/2015 08:30:00 AM,04/09/2015 07:55:25 AM,ONTIME,Closed,Case Closed Case Resolved,Parking Meter Repairs,Transportation - Traffic Division,Operations,Parking Meter Repairs,BTDT_Broken Meter Complaints,BTDT,,,INTERSECTION of Seventh St & Third Ave  Charlestown  MA,3.0,1A,1.0,A15,Charlestown,2.0,Ward 2,202.0,,INTERSECTION Seventh St & Third Ave,,Intersection,8332.0,42.3758,-71.0545,Constituent Call,"(42.3758, -71.0545)"
547464,101001352179,04/08/2015 02:04:38 PM,04/23/2015 02:04:38 PM,04/09/2015 07:00:08 AM,ONTIME,Closed,Case Closed Case Noted AMX NOT ACCEPTED IN METER,Parking Meter Repairs,Transportation - Traffic Division,Operations,Parking Meter Repairs,BTDT_Broken Meter Complaints,BTDT,,,72 Broad St  Boston  MA  02110,3.0,1C,1.0,A1,Downtown / Financial District,3.0,03,306.0,,72 Broad St,2110.0,Address,351915.0,42.3594,-71.0587,Constituent Call,"(0, 0)"
549673,101001355247,04/13/2015 03:32:52 PM,04/28/2015 03:32:52 PM,04/23/2015 09:11:50 AM,ONTIME,Closed,Case Closed Case Resolved,Parking Meter Repairs,Transportation - Traffic Division,Operations,Parking Meter Repairs,BTDT_Broken Meter Complaints,BTDT,,,1415 Washington St  Roxbury  MA  02118,4.0,1C,2.0,D4,South End,4.0,Ward 3,307.0,CM,1415 Washington St,2118.0,Address,161051.0,42.3412,-71.0705,Constituent Call,"(42.3412, -71.0705)"
550050,101001355796,04/14/2015 10:04:26 AM,04/29/2015 10:04:26 AM,04/23/2015 09:12:03 AM,ONTIME,Closed,Case Closed Case Referred to External Agency,Parking Meter Repairs,Transportation - Traffic Division,Operations,Parking Meter Repairs,BTDT_Broken Meter Complaints,BTDT,,,12 Channel St  Boston  MA  02210,6.0,05,2.0,C6,Boston,5.0,06,601.0,E,12 Channel St,2210.0,Address,340874.0,42.3453,-71.037,Constituent Call,"(42.3453, -71.037)"
551780,101001358179,04/16/2015 02:01:54 PM,05/01/2015 02:01:54 PM,04/23/2015 09:13:56 AM,ONTIME,Closed,Case Closed Case Noted,Parking Meter Repairs,Transportation - Traffic Division,Operations,Parking Meter Repairs,BTDT_Broken Meter Complaints,BTDT,,,73 Seaport Blvd  Boston  MA  02210,6.0,05,2.0,C6,South Boston / South Boston Waterfront,5.0,Ward 6,601.0,E,73 Seaport Blvd,2210.0,Address,124061.0,42.3522,-71.047,Constituent Call,"(42.3522, -71.047)"
551825,101001358240,04/16/2015 02:58:37 PM,05/01/2015 02:58:37 PM,04/23/2015 09:14:10 AM,ONTIME,Closed,Case Closed Case Noted,Parking Meter Repairs,Transportation - Traffic Division,Operations,Parking Meter Repairs,BTDT_Broken Meter Complaints,BTDT,,,75 Newbury St  Boston  MA  02116,4.0,1C,8.0,D4,Back Bay,14.0,Ward 5,506.0,RC,75 Newbury St,2116.0,Address,101989.0,42.352,-71.0746,Constituent Call,"(42.352, -71.0746)"
553883,101001361222,04/22/2015 09:33:54 AM,05/06/2015 09:33:54 AM,04/27/2015 07:28:31 AM,ONTIME,Closed,Case Closed Case Invalid,Parking Meter Repairs,Transportation - Traffic Division,Operations,Parking Meter Repairs,BTDT_Broken Meter Complaints,BTDT,,,INTERSECTION of Hemenway St & Westland Entrance  Boston  MA,4.0,10A,8.0,D4,Fenway / Kenmore / Audubon Circle / Longwood,14.0,Ward 4,407.0,,INTERSECTION Hemenway St & Westland Entrance,,Intersection,5856.0,42.344,-71.0899,Constituent Call,"(42.344, -71.0899)"
554117,101001361547,04/22/2015 01:46:19 PM,05/06/2015 01:46:19 PM,04/27/2015 07:28:41 AM,ONTIME,Closed,Case Closed Case Resolved,Parking Meter Repairs,Transportation - Traffic Division,Operations,Parking Meter Repairs,BTDT_Broken Meter Complaints,BTDT,,,INTERSECTION of Bay State Rd & Sherborn St  Boston  MA,4.0,10A,8.0,D4,Fenway / Kenmore / Audubon Circle / Longwood,14.0,Ward 5,510.0,,INTERSECTION Bay State Rd & Sherborn St,,Intersection,1037.0,42.3503,-71.1004,Constituent Call,"(42.3503, -71.1004)"
555326,101001363193,04/24/2015 12:24:58 PM,05/08/2015 12:24:57 PM,05/28/2015 02:12:24 PM,OVERDUE,Closed,Case Closed. Closed date : 2015-05-28 14:12:24.403 Case Noted,Parking Meter Repairs,Transportation - Traffic Division,Operations,Parking Meter Repairs,BTDT_Broken Meter Complaints,BTDT,,,222 Berkeley St  Boston  MA  02116,4.0,1C,2.0,D4,Back Bay,6.0,Ward 4,402.0,C,222 Berkeley St,2116.0,Address,15007.0,42.3508,-71.0731,Constituent Call,"(42.3508, -71.0731)"
562616,101001373848,05/09/2015 12:43:00 PM,05/26/2015 08:30:00 AM,05/27/2015 11:29:55 AM,OVERDUE,Closed,Case Closed. Closed date : 2015-05-27 11:29:55.64 Case Resolved,Parking Meter Repairs,Transportation - Traffic Division,Operations,Parking Meter Repairs,BTDT_Broken Meter Complaints,BTDT,,,INTERSECTION of Berkeley St & Boylston St  Boston  MA,4.0,1C,8.0,D4,Back Bay,14.0,Ward 5,506.0,,INTERSECTION Berkeley St & Boylston St,,Intersection,1353.0,42.3512,-71.0731,Constituent Call,"(42.3512, -71.0731)"
562939,101001374405,05/11/2015 09:17:00 AM,05/26/2015 09:17:13 AM,07/24/2015 08:55:13 AM,OVERDUE,Closed,Case Closed. Closed date : 2015-07-24 08:55:13.917 Case Noted,Parking Meter Repairs,Transportation - Traffic Division,Operations,Parking Meter Repairs,BTDT_Broken Meter Complaints,BTDT,,,INTERSECTION of N Washington St & Thacher St  Boston  MA,3.0,1B,1.0,A1,Downtown / Financial District,3.0,Ward 3,304.0,,INTERSECTION N Washington St & Thacher St,,Intersection,6130.0,42.3653,-71.0583,Constituent Call,"(42.3653, -71.0583)"
565302,101001377798,05/14/2015 04:33:00 PM,05/29/2015 04:33:37 PM,05/27/2015 11:33:05 AM,ONTIME,Closed,Case Closed. Closed date : 2015-05-27 11:33:05.797 Case Resolved,Parking Meter Repairs,Transportation - Traffic Division,Operations,Parking Meter Repairs,BTDT_Broken Meter Complaints,BTDT,,,2 Center Plz  Boston  MA  02108,3.0,1B,1.0,A1,Downtown / Financial District,3.0,03,306.0,C,2 Center Plz,2108.0,Address,154960.0,42.3598,-71.0602,Constituent Call,"(42.3598, -71.0602)"
568073,101001381851,05/20/2015 03:42:00 PM,06/04/2015 03:42:47 PM,05/28/2015 02:10:00 PM,ONTIME,Closed,Case Closed. Closed date : 2015-05-28 14:10:00.8 Case Invalid,Parking Meter Repairs,Transportation - Traffic Division,Operations,Parking Meter Repairs,BTDT_Broken Meter Complaints,BTDT,,,45-55 Union St  Boston  MA  02108,3.0,1B,1.0,A1,Downtown / Financial District,3.0,Ward 3,306.0,C,45-55 Union St,2108.0,Address,139294.0,42.3616,-71.0571,Constituent Call,"(42.3616, -71.0571)"
568792,101001382988,05/22/2015 08:50:00 AM,06/08/2015 08:50:27 AM,05/28/2015 02:10:16 PM,ONTIME,Closed,Case Closed. Closed date : 2015-05-28 14:10:16.847 Case Resolved,Parking Meter Repairs,Transportation - Traffic Division,Operations,Parking Meter Repairs,BTDT_Broken Meter Complaints,BTDT,,,100 N Washington St  Boston  MA  02114,3.0,1B,1.0,A1,Downtown / Financial District,3.0,03,304.0,,100 N Washington St,2114.0,Address,350510.0,42.3594,-71.0587,Constituent Call,"(0, 0)"
569351,101001393826,05/23/2015 06:58:00 PM,06/09/2015 08:30:00 AM,05/27/2015 11:22:41 AM,ONTIME,Closed,Case Closed. Closed date : 2015-05-27 11:22:41.817 Case Noted,Parking Meter Repairs,Transportation - Traffic Division,Operations,Parking Meter Repairs,BTDT_Broken Meter Complaints,BTDT,,,INTERSECTION of Arlington St & Newbury St  Boston  MA,4.0,1C,8.0,D4,,14.0,Ward 5,503.0,,INTERSECTION Arlington St & Newbury St,,Intersection,581.0,42.3527,-71.0711,Constituent Call,"(42.3527, -71.0711)"
569352,101001393828,05/23/2015 07:02:00 PM,06/09/2015 08:30:00 AM,05/27/2015 11:22:14 AM,ONTIME,Closed,Case Closed. Closed date : 2015-05-27 11:22:14.97 Case Noted,Parking Meter Repairs,Transportation - Traffic Division,Operations,Parking Meter Repairs,BTDT_Broken Meter Complaints,BTDT,,,INTERSECTION of Arlington St & Boylston St  Boston  MA,4.0,1C,8.0,A1,,14.0,Ward 5,503.0,,INTERSECTION Arlington St & Boylston St,,Intersection,583.0,42.3519,-71.0707,Constituent Call,"(42.3519, -71.0707)"
569358,101001393836,05/23/2015 07:52:00 PM,06/09/2015 08:30:00 AM,05/27/2015 11:21:50 AM,ONTIME,Closed,Case Closed. Closed date : 2015-05-27 11:21:50.997 Case Noted,Parking Meter Repairs,Transportation - Traffic Division,Operations,Parking Meter Repairs,BTDT_Broken Meter Complaints,BTDT,,,INTERSECTION of Broad St & State St  Boston  MA,3.0,1C,1.0,A1,Downtown / Financial District,3.0,Ward 3,306.0,,INTERSECTION Broad St & State St,,Intersection,1968.0,42.3592,-71.0546,Constituent Call,"(42.3592, -71.0546)"
569460,101001393985,05/24/2015 04:03:00 PM,06/09/2015 08:30:00 AM,05/27/2015 11:21:33 AM,ONTIME,Closed,Case Closed. Closed date : 2015-05-27 11:21:33.97 Case Noted,Parking Meter Repairs,Transportation - Traffic Division,Operations,Parking Meter Repairs,BTDT_Broken Meter Complaints,BTDT,,,INTERSECTION of Arlington St & Newbury St  Boston  MA,4.0,1C,8.0,D4,,14.0,Ward 5,503.0,,INTERSECTION Arlington St & Newbury St,,Intersection,581.0,42.3527,-71.0711,Constituent Call,"(42.3527, -71.0711)"
570311,101001395224,05/26/2015 04:27:00 PM,06/09/2015 04:27:13 PM,05/27/2015 11:20:45 AM,ONTIME,Closed,Case Closed. Closed date : 2015-05-27 11:20:45.283 Case Noted,Parking Meter Repairs,Transportation - Traffic Division,Operations,Parking Meter Repairs,BTDT_Broken Meter Complaints,BTDT,,,200 Newbury St  Boston  MA  02116,4.0,1C,8.0,D4,Back Bay,14.0,05,508.0,,200 Newbury St,2116.0,Address,343310.0,42.35,-71.0801,Constituent Call,"(42.35, -71.0801)"
570553,101001395526,05/27/2015 08:11:00 AM,06/10/2015 08:30:00 AM,05/27/2015 11:20:20 AM,ONTIME,Closed,Case Closed. Closed date : 2015-05-27 11:20:20.43 Case Noted,Parking Meter Repairs,Transportation - Traffic Division,Operations,Parking Meter Repairs,BTDT_Broken Meter Complaints,BTDT,,,INTERSECTION of Anthony Rip Valenti Way & Canal St  Boston  MA,3.0,1B,1.0,A1,Downtown / Financial District,3.0,Ward 3,306.0,,INTERSECTION Anthony Rip Valenti Way & Canal St,,Intersection,479.0,42.3643,-71.0599,Constituent Call,"(42.3643, -71.0599)"
570790,101001395880,05/27/2015 11:54:00 AM,06/10/2015 11:54:38 AM,06/02/2015 07:38:43 AM,ONTIME,Closed,Case Closed. Closed date : 2015-06-02 07:38:43.373 Case Resolved,Parking Meter Repairs,Transportation - Traffic Division,Operations,Parking Meter Repairs,BTDT_Broken Meter Complaints,BTDT,,,INTERSECTION of Boylston St & Exeter St  Boston  MA,4.0,1C,2.0,D4,Back Bay,6.0,Ward 4,402.0,,INTERSECTION Boylston St & Exeter St,,Intersection,1777.0,42.3495,-71.0795,Constituent Call,"(42.3495, -71.0795)"
571677,101001397173,05/28/2015 03:00:00 PM,06/11/2015 03:00:10 PM,06/02/2015 07:37:43 AM,ONTIME,Closed,Case Closed. Closed date : 2015-06-02 07:37:43.14 Case Resolved,Parking Meter Repairs,Transportation - Traffic Division,Operations,Parking Meter Repairs,BTDT_Broken Meter Complaints,BTDT,,,89 Canal St  Boston  MA  02114,3.0,1B,1.0,A1,Downtown / Financial District,3.0,Ward 3,306.0,E,89 Canal St,2114.0,Address,25425.0,42.3647,-71.0601,Constituent Call,"(42.3647, -71.0601)"
575017,101001402024,06/03/2015 08:10:00 PM,06/18/2015 08:30:00 AM,07/24/2015 08:54:35 AM,OVERDUE,Closed,Case Closed. Closed date : 2015-07-24 08:54:35.647 Case Resolved,Parking Meter Repairs,Transportation - Traffic Division,Operations,Parking Meter Repairs,BTDT_Broken Meter Complaints,BTDT,,,367-377 Boylston St  Boston  MA  02116,4.0,1C,8.0,D4,Back Bay,14.0,Ward 5,506.0,C,367-377 Boylston St,2116.0,Address,162436.0,42.3518,-71.0721,Constituent Call,"(42.3518, -71.0721)"
575289,101001402444,06/04/2015 11:30:00 AM,06/18/2015 11:30:24 AM,07/30/2015 08:06:30 AM,OVERDUE,Closed,Case Closed. Closed date : 2015-07-30 08:06:30.8 Case Resolved,Parking Meter Repairs,Transportation - Traffic Division,Operations,Parking Meter Repairs,BTDT_Broken Meter Complaints,BTDT,,,112 Newbury St  Boston  MA  02116,4.0,1C,8.0,D4,Back Bay,14.0,Ward 5,507.0,RC,112 Newbury St,2116.0,Address,101319.0,42.3512,-71.0758,Constituent Call,"(42.3512, -71.0758)"
579334,101001408470,06/12/2015 12:21:00 PM,06/26/2015 12:21:35 PM,07/24/2015 08:53:21 AM,OVERDUE,Closed,Case Closed. Closed date : 2015-07-24 08:53:21.74 Case Resolved,Parking Meter Repairs,Transportation - Traffic Division,Operations,Parking Meter Repairs,BTDT_Broken Meter Complaints,BTDT,,,762 Tremont St  Roxbury  MA  02118,4.0,1C,7.0,D4,South End,6.0,Ward 9,902.0,CM,762 Tremont St,2118.0,Address,137968.0,42.3396,-71.0792,Constituent Call,"(42.3396, -71.0792)"
579759,101001409121,06/13/2015 07:39:00 PM,06/29/2015 08:30:00 AM,07/30/2015 08:09:33 AM,OVERDUE,Closed,Case Closed. Closed date : 2015-07-30 08:09:33.733 Case Noted,Parking Meter Repairs,Transportation - Traffic Division,Operations,Parking Meter Repairs,BTDT_Broken Meter Complaints,BTDT,,,15 Newbury St  Boston  MA  02116,4.0,1C,8.0,D4,Back Bay,14.0,Ward 5,506.0,E,15 Newbury St,2116.0,Address,101352.0,42.3526,-71.0724,Constituent Call,"(42.3526, -71.0724)"
582132,101001412690,06/18/2015 02:51:00 PM,07/02/2015 02:51:36 PM,07/24/2015 08:48:59 AM,OVERDUE,Closed,Case Closed. Closed date : 2015-07-24 08:48:59.927 Case Resolved,Parking Meter Repairs,Transportation - Traffic Division,Operations,Parking Meter Repairs,BTDT_Broken Meter Complaints,BTDT,,,271 Newbury St  Boston  MA  02116,4.0,1C,8.0,D4,Back Bay,14.0,Ward 5,508.0,RC,271 Newbury St,2116.0,Address,101484.0,42.3495,-71.0836,Constituent Call,"(42.3495, -71.0836)"
583080,101001414086,06/21/2015 06:45:00 AM,07/06/2015 08:30:00 AM,07/30/2015 07:28:01 AM,OVERDUE,Closed,Case Closed. Closed date : 2015-07-30 07:28:01.933 Case Invalid,Parking Meter Repairs,Transportation - Traffic Division,Operations,Parking Meter Repairs,BTDT_Broken Meter Complaints,BTDT,,,1 Palace Rd  Boston  MA  02115,9.0,10A,8.0,B2,Boston,14.0,04,410.0,,1 Palace Rd,2115.0,Address,168446.0,42.3384,-71.0997,Constituent Call,"(42.3384, -71.0997)"
586390,101001418986,06/28/2015 06:31:10 PM,07/13/2015 08:30:00 AM,06/28/2015 06:35:44 PM,ONTIME,Closed,Case Closed. Closed date : 2015-06-28 18:35:44.537 Case Invalid wrong address,Parking Meter Repairs,Transportation - Traffic Division,Operations,Parking Meter Repairs,BTDT_Broken Meter Complaints,BTDT,,,304-308 Stuart St  Boston  MA  02116,4.0,1C,2.0,D4,Back Bay,6.0,Ward 5,501.0,C,304-308 Stuart St,2116.0,Address,131647.0,42.3498,-71.0706,Constituent Call,"(42.3498, -71.0706)"
586392,101001418989,06/28/2015 06:38:00 PM,07/13/2015 08:30:00 AM,07/24/2015 08:47:15 AM,OVERDUE,Closed,Case Closed. Closed date : 2015-07-24 08:47:15.567 Case Resolved,Parking Meter Repairs,Transportation - Traffic Division,Operations,Parking Meter Repairs,BTDT_Broken Meter Complaints,BTDT,,,390 Stuart St  Boston  MA  02116,4.0,1C,2.0,D4,Back Bay,6.0,04,402.0,CL,390 Stuart St,2116.0,Address,131658.0,42.3488,-71.0735,Constituent Call,"(42.3488, -71.0735)"
587979,101001421181,07/01/2015 10:05:00 AM,07/15/2015 10:05:15 AM,07/30/2015 07:29:57 AM,OVERDUE,Closed,Case Closed. Closed date : 2015-07-30 07:29:57.25 Case Resolved,Parking Meter Repairs,Transportation - Traffic Division,Operations,Parking Meter Repairs,BTDT_Broken Meter Complaints,BTDT,,,INTERSECTION of Causeway St & Lancaster St  Boston  MA,3.0,1B,1.0,A1,Downtown / Financial District,3.0,Ward 3,306.0,,INTERSECTION Causeway St & Lancaster St,,Intersection,2518.0,42.3645,-71.0629,Constituent Call,"(42.3645, -71.0629)"
588369,101001421734,07/01/2015 06:39:00 PM,07/16/2015 08:30:00 AM,07/20/2015 07:21:48 AM,OVERDUE,Closed,Case Closed. Closed date : 2015-07-20 07:21:48.58 Case Resolved,Parking Meter Repairs,Transportation - Traffic Division,Operations,Parking Meter Repairs,BTDT_Broken Meter Complaints,BTDT,,,136 Blackstone St  Boston  MA  02108,3.0,1B,1.0,A1,Downtown / Financial District,3.0,Ward 3,306.0,E,136 Blackstone St,2108.0,Address,15795.0,42.3622,-71.0575,Constituent Call,"(42.3622, -71.0575)"
588808,101001422328,07/02/2015 02:47:00 PM,07/16/2015 02:47:54 PM,07/24/2015 08:43:23 AM,OVERDUE,Closed,Case Closed. Closed date : 2015-07-24 08:43:23.487 Case Noted,Parking Meter Repairs,Transportation - Traffic Division,Operations,Parking Meter Repairs,BTDT_Broken Meter Complaints,BTDT,,,118 South St  Boston  MA  02111,4.0,1C,2.0,A1,Downtown / Financial District,4.0,Ward 3,308.0,RC,118 South St,2111.0,Address,128512.0,42.3508,-71.0572,Constituent Call,"(42.3508, -71.0572)"
589599,101001423531,07/06/2015 10:51:00 AM,07/20/2015 10:51:40 AM,07/24/2015 08:42:30 AM,OVERDUE,Closed,Case Closed. Closed date : 2015-07-24 08:42:30.143 Case Noted,Parking Meter Repairs,Transportation - Traffic Division,Operations,Parking Meter Repairs,BTDT_Broken Meter Complaints,BTDT,,,INTERSECTION of Berkeley St & Newbury St  Boston  MA,4.0,1C,8.0,D4,Back Bay,14.0,Ward 5,506.0,,INTERSECTION Berkeley St & Newbury St,,Intersection,1351.0,42.3521,-71.0734,Constituent Call,"(42.3521, -71.0734)"
592604,101001427658,07/12/2015 12:06:00 PM,07/27/2015 08:30:00 AM,07/20/2015 07:20:43 AM,ONTIME,Closed,Case Closed. Closed date : 2015-07-20 07:20:43.03 Case Resolved,Parking Meter Repairs,Transportation - Traffic Division,Operations,Parking Meter Repairs,BTDT_Broken Meter Complaints,BTDT,,,75 Charles St  Boston  MA  02114,3.0,1B,8.0,A1,Beacon Hill,14.0,05,511.0,,75 Charles St,2114.0,Address,352015.0,42.3594,-71.0587,Constituent Call,"(0, 0)"
595924,101001432023,07/17/2015 01:29:00 PM,07/31/2015 01:29:10 PM,07/20/2015 07:12:53 AM,ONTIME,Closed,Case Closed. Closed date : 2015-07-20 07:12:53.937 Case Noted,Parking Meter Repairs,Transportation - Traffic Division,Operations,Parking Meter Repairs,BTDT_Broken Meter Complaints,BTDT,,,132 Newbury St  Boston  MA  02116,4.0,1C,8.0,D4,Back Bay,14.0,Ward 5,507.0,C,132 Newbury St,2116.0,Address,101341.0,42.3509,-71.0767,Constituent Call,"(42.3509, -71.0767)"
604817,101001504152,08/05/2015 01:02:00 PM,08/19/2015 01:02:04 PM,08/14/2015 10:19:33 AM,ONTIME,Closed,Case Closed. Closed date : 2015-08-14 10:19:33.96 Case Noted,Parking Meter Repairs,Transportation - Traffic Division,Operations,Parking Meter Repairs,BTDT_Broken Meter Complaints,BTDT,,,280 Summer St  Boston  MA  02210,6.0,05,2.0,C6,South Boston / South Boston Waterfront,5.0,Ward 6,601.0,C,280 Summer St,2210.0,Address,315684.0,42.3503,-71.0498,Constituent Call,"(42.3503, -71.0498)"
607847,101001518310,08/11/2015 02:19:00 PM,08/25/2015 02:19:35 PM,08/19/2015 07:25:12 AM,ONTIME,Closed,Case Closed. Closed date : 2015-08-19 07:25:12.123 Case Resolved,Parking Meter Repairs,Transportation - Traffic Division,Operations,Parking Meter Repairs,BTDT_Broken Meter Complaints,BTDT,,,955 Boylston St  Boston  MA  02115,4.0,1C,8.0,D4,Boston,14.0,5,509.0,CM,955 Boylston St,2115.0,Address,18426.0,42.348,-71.0859,Constituent Call,"(42.348, -71.0859)"
616364,101001529276,08/24/2015 07:29:00 PM,09/09/2015 08:30:00 AM,09/08/2015 11:03:55 AM,ONTIME,Closed,Case Closed. Closed date : 2015-09-08 11:03:55.143 Case Resolved,Parking Meter Repairs,Transportation - Traffic Division,Operations,Parking Meter Repairs,BTDT_Broken Meter Complaints,BTDT,,,200 Boylston St  Boston  MA  02116,4.0,1C,2.0,A1,Downtown / Financial District,6.0,05,501.0,,200 Boylston St,2116.0,Address,162431.0,42.3522,-71.068,Constituent Call,"(42.3522, -71.068)"
619567,101001543484,08/28/2015 06:12:00 PM,09/15/2015 08:30:00 AM,09/08/2015 11:04:13 AM,ONTIME,Closed,Case Closed. Closed date : 2015-09-08 11:04:13.403 Case Resolved,Parking Meter Repairs,Transportation - Traffic Division,Operations,Parking Meter Repairs,BTDT_Broken Meter Complaints,BTDT,,,77 Canal St  Boston  MA  02114,3.0,1B,1.0,A1,Downtown / Financial District,3.0,Ward 3,306.0,C,77 Canal St,2114.0,Address,155876.0,42.3642,-71.0595,Constituent Call,"(42.3642, -71.0595)"
624525,101001570539,09/04/2015 04:30:00 PM,09/21/2015 04:30:35 PM,09/08/2015 11:05:50 AM,ONTIME,Closed,Case Closed. Closed date : 2015-09-08 11:05:50.97 Case Noted,Parking Meter Repairs,Transportation - Traffic Division,Operations,Parking Meter Repairs,BTDT_Broken Meter Complaints,BTDT,,,474 Tremont St  Roxbury  MA  02118,4.0,1C,2.0,D4,South End,6.0,Ward 5,501.0,RC,474 Tremont St,2118.0,Address,321718.0,42.3459,-71.0691,Constituent Call,"(42.3459, -71.0691)"
624923,101001571080,09/06/2015 05:08:00 AM,09/22/2015 08:30:00 AM,09/08/2015 02:15:21 PM,ONTIME,Closed,Case Closed. Closed date : 2015-09-08 14:15:21.457 Case Noted,Parking Meter Repairs,Transportation - Traffic Division,Operations,Parking Meter Repairs,BTDT_Broken Meter Complaints,BTDT,,,INTERSECTION of Harrison Ave & Kneeland St  Boston  MA,4.0,1C,2.0,A1,Downtown / Financial District,4.0,Ward 3,308.0,,INTERSECTION Harrison Ave & Kneeland St,,Intersection,5708.0,42.3506,-71.0615,Constituent Call,"(42.3506, -71.0615)"
626735,101001573716,09/09/2015 12:12:00 PM,09/23/2015 12:12:38 PM,10/02/2015 09:22:12 AM,OVERDUE,Closed,Case Closed. Closed date : 2015-10-02 09:22:12.833 Case Invalid,Parking Meter Repairs,Transportation - Traffic Division,Operations,Parking Meter Repairs,BTDT_Broken Meter Complaints,BTDT,,,INTERSECTION of Clarendon St & Newbury St  Boston  MA,4.0,1C,8.0,D4,Back Bay,14.0,Ward 5,507.0,,INTERSECTION Clarendon St & Newbury St,,Intersection,3069.0,42.3515,-71.0756,Constituent Call,"(42.3515, -71.0756)"
630868,101001579549,09/15/2015 05:52:00 PM,09/30/2015 08:30:00 AM,09/28/2015 02:17:15 PM,ONTIME,Closed,Case Closed. Closed date : 2015-09-28 14:17:15.353 Case Noted,Parking Meter Repairs,Transportation - Traffic Division,Operations,Parking Meter Repairs,BTDT_Broken Meter Complaints,BTDT,,,117 Newbury St  Boston  MA  02116,4.0,1C,8.0,D4,Back Bay,14.0,Ward 5,507.0,C,117 Newbury St,2116.0,Address,101328.0,42.3515,-71.0763,Constituent Call,"(42.3515, -71.0763)"
632557,101001582080,09/18/2015 09:23:00 AM,10/02/2015 09:23:07 AM,09/25/2015 10:10:30 AM,ONTIME,Closed,Case Closed. Closed date : 2015-09-25 10:10:30.607 Case Noted,Parking Meter Repairs,Transportation - Traffic Division,Operations,Parking Meter Repairs,BTDT_Broken Meter Complaints,BTDT,,,144 Newbury St  Boston  MA  02116,4.0,1C,8.0,D4,Back Bay,14.0,Ward 5,507.0,CM,144 Newbury St,2116.0,Address,156228.0,42.3508,-71.0772,Constituent Call,"(42.3508, -71.0772)"
632948,101001582662,09/18/2015 03:56:00 PM,10/02/2015 03:56:49 PM,09/25/2015 10:11:50 AM,ONTIME,Closed,Case Closed. Closed date : 2015-09-25 10:11:50.42 Case Noted,Parking Meter Repairs,Transportation - Traffic Division,Operations,Parking Meter Repairs,BTDT_Broken Meter Complaints,BTDT,,,1 Canal St  Boston  MA  02114,3.0,1B,1.0,A1,Boston,3.0,03,306.0,,1 Canal St,2114.0,Address,342962.0,42.3594,-71.0587,Constituent Call,"(0, 0)"
633257,101001583079,09/19/2015 03:05:00 PM,10/05/2015 08:30:00 AM,09/28/2015 02:13:50 PM,ONTIME,Closed,Case Closed. Closed date : 2015-09-28 14:13:50.95 Case Resolved,Parking Meter Repairs,Transportation - Traffic Division,Operations,Parking Meter Repairs,BTDT_Broken Meter Complaints,BTDT,,,INTERSECTION of Broad St & Milk St  Boston  MA,3.0,1C,1.0,A1,Downtown / Financial District,3.0,Ward 3,306.0,,INTERSECTION Broad St & Milk St,,Intersection,1972.0,42.358,-71.054,Constituent Call,"(42.358, -71.054)"
634733,101001585142,09/22/2015 11:29:00 AM,10/06/2015 11:29:34 AM,09/28/2015 02:15:10 PM,ONTIME,Closed,Case Closed. Closed date : 2015-09-28 14:15:10.013 Case Invalid,Parking Meter Repairs,Transportation - Traffic Division,Operations,Parking Meter Repairs,BTDT_Broken Meter Complaints,BTDT,,,328 Newbury St  Boston  MA  02115,4.0,1C,8.0,D4,Back Bay,14.0,Ward 5,509.0,RC,328 Newbury St,2115.0,Address,101549.0,42.3484,-71.0862,Constituent Call,"(42.3484, -71.0862)"
635010,101001585563,09/22/2015 05:12:00 PM,10/07/2015 08:30:00 AM,09/28/2015 02:14:03 PM,ONTIME,Closed,Case Closed. Closed date : 2015-09-28 14:14:03.827 Case Resolved,Parking Meter Repairs,Transportation - Traffic Division,Operations,Parking Meter Repairs,BTDT_Broken Meter Complaints,BTDT,,,167 Milk St  Boston  MA  02109,3.0,1C,1.0,A1,Boston,3.0,03,306.0,C,167 Milk St,2109.0,Address,275469.0,42.3582,-71.0535,Constituent Call,"(42.3582, -71.0535)"
635444,101001586233,09/23/2015 01:19:00 PM,10/07/2015 01:19:52 PM,09/28/2015 02:15:22 PM,ONTIME,Closed,Case Closed. Closed date : 2015-09-28 14:15:22.373 Case Noted,Parking Meter Repairs,Transportation - Traffic Division,Operations,Parking Meter Repairs,BTDT_Broken Meter Complaints,BTDT,,,110-126 Boylston St  Boston  MA  02116,4.0,1C,2.0,A1,Downtown / Financial District,6.0,05,501.0,C,110-126 Boylston St,2116.0,Address,17994.0,42.3522,-71.0656,Constituent Call,"(42.3522, -71.0656)"
635502,101001586318,09/23/2015 02:14:00 PM,10/07/2015 02:14:54 PM,09/28/2015 02:14:50 PM,ONTIME,Closed,Case Closed. Closed date : 2015-09-28 14:14:50.95 Case Invalid,Parking Meter Repairs,Transportation - Traffic Division,Operations,Parking Meter Repairs,BTDT_Broken Meter Complaints,BTDT,,,535-541 Boylston St  Boston  MA  02116,4.0,1C,8.0,D4,Boston,14.0,05,507.0,C,535-541 Boylston St,2116.0,Address,18338.0,42.3509,-71.0756,Constituent Call,"(42.3509, -71.0756)"
636961,101001598400,09/25/2015 06:13:00 PM,10/13/2015 08:30:00 AM,11/05/2015 12:45:52 PM,OVERDUE,Closed,Case Closed. Closed date : 2015-11-05 12:45:52.973 Case Noted,Parking Meter Repairs,Transportation - Traffic Division,Operations,Parking Meter Repairs,BTDT_Broken Meter Complaints,BTDT,,,145 Dartmouth St  Boston  MA  02116,4.0,1C,2.0,D4,Boston,6.0,04,402.0,E,145 Dartmouth St,2116.0,Address,46313.0,42.3474,-71.0748,Constituent Call,"(42.3474, -71.0748)"
650262,101001617709,10/22/2015 09:40:00 AM,11/05/2015 09:40:29 AM,11/17/2015 08:52:21 AM,OVERDUE,Closed,Case Closed. Closed date : 2015-11-17 08:52:21.74 Case Resolved,Parking Meter Repairs,Transportation - Traffic Division,Operations,Parking Meter Repairs,BTDT_Broken Meter Complaints,BTDT,,,INTERSECTION of Boylston St & Ipswich St  Boston  MA,4.0,10A,8.0,D4,Fenway / Kenmore / Audubon Circle / Longwood,14.0,Ward 5,502.0,,INTERSECTION Boylston St & Ipswich St,,Intersection,1765.0,42.3452,-71.0954,Constituent Call,"(42.3452, -71.0954)"
651363,101001619411,10/23/2015 05:28:00 PM,11/09/2015 08:30:00 AM,11/20/2015 08:01:58 AM,OVERDUE,Closed,Case Closed. Closed date : 2015-11-20 08:01:58.02 Case Noted,Parking Meter Repairs,Transportation - Traffic Division,Operations,Parking Meter Repairs,BTDT_Broken Meter Complaints,BTDT,,,270 Northern Ave  Boston  MA  02210,6.0,05,2.0,C6,South Boston / South Boston Waterfront,5.0,06,601.0,,270 Northern Ave,2210.0,Address,351681.0,42.3594,-71.0587,Constituent Call,"(0, 0)"
653711,101001622785,10/28/2015 04:03:00 PM,11/12/2015 04:03:14 PM,11/17/2015 08:54:50 AM,OVERDUE,Closed,Case Closed. Closed date : 2015-11-17 08:54:50.153 Case Noted,Parking Meter Repairs,Transportation - Traffic Division,Operations,Parking Meter Repairs,BTDT_Broken Meter Complaints,BTDT,,,224 Clarendon St  Boston  MA  02116,4.0,1C,8.0,D4,Back Bay,14.0,05,507.0,CM,224 Clarendon St,2116.0,Address,340972.0,42.3512,-71.0757,Constituent Call,"(42.3512, -71.0757)"
654129,101001623386,10/29/2015 11:41:00 AM,11/13/2015 11:41:43 AM,11/17/2015 08:56:05 AM,OVERDUE,Closed,Case Closed. Closed date : 2015-11-17 08:56:05.13 Case Noted,Parking Meter Repairs,Transportation - Traffic Division,Operations,Parking Meter Repairs,BTDT_Broken Meter Complaints,BTDT,,,INTERSECTION of Fairfield St & Newbury St  Boston  MA,4.0,1C,8.0,D4,Back Bay,14.0,Ward 5,508.0,,INTERSECTION Fairfield St & Newbury St,,Intersection,4744.0,42.3497,-71.0822,Twitter,"(42.3497, -71.0822)"
658839,101001630355,11/07/2015 03:08:00 PM,11/24/2015 08:30:00 AM,11/20/2015 08:00:01 AM,ONTIME,Closed,Case Closed. Closed date : 2015-11-20 08:00:01.01 Case Invalid,Parking Meter Repairs,Transportation - Traffic Division,Operations,Parking Meter Repairs,BTDT_Broken Meter Complaints,BTDT,,,855 Commonwealth Ave  Boston  MA  02215,11.0,04,8.0,D14,Boston,14.0,21,2102,,855 Commonwealth Ave,2215.0,Address,351644.0,42.3594,-71.0587,Constituent Call,"(0, 0)"
659612,101001631406,11/09/2015 03:02:00 PM,11/24/2015 03:02:21 PM,11/17/2015 09:15:22 AM,ONTIME,Closed,Case Closed. Closed date : 2015-11-17 09:15:22.463 Case Noted,Parking Meter Repairs,Transportation - Traffic Division,Operations,Parking Meter Repairs,BTDT_Broken Meter Complaints,BTDT,,,37 Newbury St  Boston  MA  02116,4.0,1C,8.0,D4,Back Bay,14.0,Ward 5,0506,C,37 Newbury St,2116.0,Address,101635.0,42.3524,-71.0731,Constituent Call,"(42.3524, -71.0731)"
665900,101001640327,11/21/2015 04:07:00 PM,12/08/2015 08:30:00 AM,,OVERDUE,Open,,Parking Meter Repairs,Transportation - Traffic Division,Operations,Parking Meter Repairs,BTDT_Broken Meter Complaints,BTDT,,,INTERSECTION of Dartmouth St & Newbury St  Boston  MA,4.0,1C,8.0,D4,Back Bay,14.0,Ward 5,0507,,INTERSECTION Dartmouth St & Newbury St,,Intersection,3913.0,42.3509,-71.0777,Constituent Call,"(42.3509, -71.0777)"
665913,101001640344,11/21/2015 05:00:00 PM,12/08/2015 08:30:00 AM,,OVERDUE,Open,,Parking Meter Repairs,Transportation - Traffic Division,Operations,Parking Meter Repairs,BTDT_Broken Meter Complaints,BTDT,,,INTERSECTION of Arlington St & Beacon St  Boston  MA,4.0,1C,8.0,D4,Back Bay,14.0,Ward 5,0505,,INTERSECTION Arlington St & Beacon St,,Intersection,575.0,42.3554,-71.0726,Constituent Call,"(42.3554, -71.0726)"
667542,101001642887,11/25/2015 12:05:00 PM,12/10/2015 12:05:40 PM,,OVERDUE,Open,,Parking Meter Repairs,Transportation - Traffic Division,Operations,Parking Meter Repairs,BTDT_Broken Meter Complaints,BTDT,,,331A-333 Newbury St  Boston  MA  02115,4.0,1C,8.0,D4,Back Bay,14.0,Ward 5,0509,C,331A-333 Newbury St,2115.0,Address,168068.0,42.3488,-71.0865,Constituent Call,"(42.3488, -71.0865)"
669182,101001655143,11/30/2015 04:15:00 PM,12/14/2015 04:15:47 PM,,OVERDUE,Open,,Parking Meter Repairs,Transportation - Traffic Division,Operations,Parking Meter Repairs,BTDT_Broken Meter Complaints,BTDT,,,0 Portland St  Boston  MA  02114,3.0,1B,1.0,A1,Downtown / Financial District,3.0,Ward 3,0306,CL,0 Portland St,2114.0,Address,112311.0,42.3641,-71.0609,Constituent Call,"(42.3641, -71.0609)"
669855,101001656162,12/01/2015 04:09:00 PM,12/15/2015 04:09:13 PM,,OVERDUE,Open,,Parking Meter Repairs,Transportation - Traffic Division,Operations,Parking Meter Repairs,BTDT_Broken Meter Complaints,BTDT,,,112 Newbury St  Boston  MA  02116,4.0,1C,8.0,D4,Back Bay,14.0,Ward 5,0507,RC,112 Newbury St,2116.0,Address,101319.0,42.3512,-71.0758,Constituent Call,"(42.3512, -71.0758)"
670722,101001657504,12/03/2015 10:51:00 AM,12/17/2015 10:51:17 AM,,OVERDUE,Open,,Parking Meter Repairs,Transportation - Traffic Division,Operations,Parking Meter Repairs,BTDT_Broken Meter Complaints,BTDT,,,39 Newbury St  Boston  MA  02116,4.0,1C,8.0,D4,Back Bay,14.0,Ward 5,0506,C,39 Newbury St,2116.0,Address,168043.0,42.3523,-71.0733,Constituent Call,"(42.3523, -71.0733)"
670852,101001657715,12/03/2015 02:51:00 PM,12/17/2015 02:51:18 PM,,OVERDUE,Open,,Parking Meter Repairs,Transportation - Traffic Division,Operations,Parking Meter Repairs,BTDT_Broken Meter Complaints,BTDT,,,INTERSECTION of Massachusetts Ave & Newbury St  Boston  MA,4.0,1C,8.0,D4,Back Bay,14.0,Ward 5,0509,,INTERSECTION Massachusetts Ave & Newbury St,,Intersection,7136.0,42.3481,-71.0881,Constituent Call,"(42.3481, -71.0881)"
674900,101001663580,12/11/2015 04:46:00 PM,12/28/2015 04:46:54 PM,,OVERDUE,Open,,Parking Meter Repairs,Transportation - Traffic Division,Operations,Parking Meter Repairs,BTDT_Broken Meter Complaints,BTDT,,,126-134 Canal St  Boston  MA  02114,3.0,1B,1.0,A1,Downtown / Financial District,3.0,Ward 3,306.0,C,126-134 Canal St,2114.0,Address,25415.0,42.3646,-71.0606,Constituent Call,"(42.3646, -71.0606)"
677257,101001667016,12/16/2015 04:05:00 PM,12/31/2015 04:05:17 PM,,OVERDUE,Open,,Parking Meter Repairs,Transportation - Traffic Division,Operations,Parking Meter Repairs,BTDT_Broken Meter Complaints,BTDT,,,0 Tremont St  Boston  MA  02116,4.0,1C,2.0,A1,Back Bay,6.0,Ward 5,501.0,E,0 Tremont St,2116.0,Address,136762.0,42.3478,-71.0687,Constituent Call,"(42.3478, -71.0687)"
677927,101001678110,12/18/2015 10:04:00 AM,01/05/2016 10:04:56 AM,,OVERDUE,Open,,Parking Meter Repairs,Transportation - Traffic Division,Operations,Parking Meter Repairs,BTDT_Broken Meter Complaints,BTDT,,,INTERSECTION of Causeway St & Portland St  Boston  MA,3.0,1B,1.0,A1,Downtown / Financial District,3.0,Ward 3,306.0,,INTERSECTION Causeway St & Portland St,,Intersection,2519.0,42.3648,-71.0623,Constituent Call,"(42.3648, -71.0623)"
680454,101001681985,12/26/2015 09:18:00 AM,01/12/2016 08:30:00 AM,,OVERDUE,Open,,Parking Meter Repairs,Transportation - Traffic Division,Operations,Parking Meter Repairs,BTDT_Broken Meter Complaints,BTDT,,,49 Gloucester St  Boston  MA  02116,4.0,1C,8.0,D4,Back Bay,14.0,Ward 5,508.0,RC,49 Gloucester St,2116.0,Address,64955.0,42.3488,-71.0837,Constituent Call,"(42.3488, -71.0837)"
680512,101001682062,12/26/2015 01:35:00 PM,01/12/2016 08:30:00 AM,,OVERDUE,Open,,Parking Meter Repairs,Transportation - Traffic Division,Operations,Parking Meter Repairs,BTDT_Broken Meter Complaints,BTDT,,,201 Newbury St  Boston  MA  02116,4.0,1C,8.0,D4,Back Bay,14.0,Ward 5,508.0,CM,201 Newbury St,2116.0,Address,101387.0,42.3504,-71.0805,Constituent Call,"(42.3504, -71.0805)"
681256,101001683169,12/28/2015 05:37:00 PM,01/13/2016 08:30:00 AM,,ONTIME,Open,,Parking Meter Repairs,Transportation - Traffic Division,Operations,Parking Meter Repairs,BTDT_Broken Meter Complaints,BTDT,,,INTERSECTION of Avery St & Washington St  Boston  MA,3.0,1C,2.0,A1,Downtown / Financial District,4.0,Ward 3,308.0,,INTERSECTION Avery St & Washington St,,Intersection,818.0,42.3533,-71.0625,Constituent Call,"(42.3533, -71.0625)"
681263,101001683176,12/28/2015 05:56:00 PM,01/13/2016 08:30:00 AM,,ONTIME,Open,,Parking Meter Repairs,Transportation - Traffic Division,Operations,Parking Meter Repairs,BTDT_Broken Meter Complaints,BTDT,,,25-27 India St  Boston  MA  02109,3.0,1C,1.0,A1,Boston,3.0,03,306.0,C,25-27 India St,2109.0,Address,166573.0,42.3583,-71.0533,Constituent Call,"(42.3583, -71.0533)"
