,CASE_ENQUIRY_ID,OPEN_DT,TARGET_DT,CLOSED_DT,OnTime_Status,CASE_STATUS,CLOSURE_REASON,CASE_TITLE,SUBJECT,REASON,TYPE,QUEUE,Department,SubmittedPhoto,ClosedPhoto,Location,fire_district,pwd_district,city_council_district,police_district,neighborhood,neighborhood_services_district,ward,precinct,land_usage,LOCATION_STREET_NAME,LOCATION_ZIPCODE,Property_Type,Property_ID,LATITUDE,LONGITUDE,Source,Geocoded_Location
470043,101001241615,01/03/2015 10:13:42 AM,01/06/2015 08:30:00 AM,01/03/2015 10:15:15 AM,ONTIME,Closed,Case Closed Case Invalid,Space Savers,Public Works Department,Sanitation,Space Savers,PWDx_Space Saver Removal,PWDx,,,11 Courtland Rd  Mattapan  MA  02126,8.0,07,4.0,B3,Greater Mattapan,9.0,Ward 14,1411.0,R3,11 Courtland Rd,2126.0,Address,43812.0,42.2864,-71.0946,Constituent Call,"(42.2864, -71.0946)"
472675,101001245379,01/10/2015 08:18:28 PM,01/13/2015 08:30:00 AM,01/11/2015 02:28:29 AM,ONTIME,Closed,Case Closed Case Resolved pwd removed space saver,Space Savers,Public Works Department,Sanitation,Space Savers,PWDx_District 10A: Roxbury,PWDx,,,7-21 Cornelia St  Mission Hill  MA  02120,9.0,10A,8.0,B2,Mission Hill,13.0,10,1001.0,,7-21 Cornelia St,2120.0,Address,353129.0,42.3594,-71.0587,Constituent Call,"(0, 0)"
472728,101001245472,01/11/2015 11:52:00 AM,01/13/2015 08:30:00 AM,01/11/2015 12:22:46 PM,ONTIME,Closed,Case Closed Case Resolved removed,Space Savers,Public Works Department,Sanitation,Space Savers,PWDx_District 10A: Roxbury,PWDx,,,9 Cornelia St  Mission Hill  MA  02120,9.0,10A,8.0,B2,Mission Hill,13.0,10,1001.0,,9 Cornelia St,2120.0,Address,354149.0,42.3594,-71.0587,Constituent Call,"(0, 0)"
472738,101001245486,01/11/2015 12:46:35 PM,01/13/2015 08:30:00 AM,01/11/2015 01:11:03 PM,ONTIME,Closed,Case Closed Case Resolved space saver removed,Space Savers,Public Works Department,Sanitation,Space Savers,PWDx_District 10A: Roxbury,PWDx,,https://cityworker.cityofboston.gov:8443/attachments/report/54b2b705d052affa7e49ef9f/closed_photo/Report.jpg,9 Cornelia St  Mission Hill  MA  02120,9.0,10A,8.0,B2,Mission Hill,13.0,10,1001.0,,9 Cornelia St,2120.0,Address,354149.0,42.3594,-71.0587,Constituent Call,"(0, 0)"
473332,101001246376,01/13/2015 08:22:21 AM,01/14/2015 08:30:00 AM,01/13/2015 02:00:30 PM,ONTIME,Closed,Case Closed Case Resolved cones picked up,Space Savers,Public Works Department,Sanitation,Space Savers,PWDx_District 05: South Boston,PWDx,,,644-646 E Eighth St  South Boston  MA  02127,6.0,05,2.0,C6,South Boston / South Boston Waterfront,5.0,Ward 7,702.0,R2,644-646 E Eighth St,2127.0,Address,52358.0,42.3316,-71.0357,Constituent Call,"(42.3316, -71.0357)"
477834,101001252978,01/24/2015 08:31:23 AM,01/27/2015 08:30:00 AM,01/24/2015 10:10:20 AM,ONTIME,Closed,Case Closed Case Noted,Space Savers,Public Works Department,Sanitation,Space Savers,PWDx_District 10B: Roxbury,PWDx,,,35 Dale St  Roxbury  MA  02119,7.0,10B,7.0,B2,Roxbury,13.0,Ward 12,1203.0,R1,35 Dale St,2119.0,Address,45729.0,42.3209,-71.0839,Constituent Call,"(42.3209, -71.0839)"
477837,101001252982,01/24/2015 08:46:12 AM,01/27/2015 08:30:00 AM,01/26/2015 08:14:39 AM,ONTIME,Closed,Case Closed Case Resolved,Space Savers,Public Works Department,Sanitation,Space Savers,PWDx_District 05: South Boston,PWDx,,,236-238 E St  South Boston  MA  02127,6.0,05,2.0,C6,South Boston / South Boston Waterfront,5.0,Ward 6,602.0,R3,236-238 E St,2127.0,Address,50540.0,42.3357,-71.052,Constituent Call,"(42.3357, -71.052)"
477879,101001253033,01/24/2015 10:03:57 AM,01/27/2015 08:30:00 AM,01/26/2015 08:14:27 AM,ONTIME,Closed,Case Closed Case Resolved,Space Savers,Public Works Department,Sanitation,Space Savers,PWDx_District 05: South Boston,PWDx,,,INTERSECTION of H St & E Sixth St  South Boston  MA,6.0,05,2.0,C6,South Boston / South Boston Waterfront,5.0,Ward 6,606.0,,INTERSECTION H St & E Sixth St,,Intersection,5536.0,42.333,-71.0415,Constituent Call,"(42.333, -71.0415)"
477882,101001253037,01/24/2015 10:12:42 AM,01/27/2015 08:30:00 AM,01/26/2015 06:35:13 PM,ONTIME,Closed,Case Closed Case Noted will resolve after storm,Space Savers,Public Works Department,Sanitation,Space Savers,PWDx_District 09: East Boston,PWDx,,,59 Putnam St  East Boston  MA  02128,1.0,09,1.0,A7,East Boston,1.0,01,108.0,,59 Putnam St,2128.0,Address,344178.0,42.3594,-71.0587,Constituent Call,"(0, 0)"
477951,101001253122,01/24/2015 12:10:02 PM,01/27/2015 08:30:00 AM,01/26/2015 08:14:13 AM,ONTIME,Closed,Case Closed Case Resolved,Space Savers,Public Works Department,Sanitation,Space Savers,PWDx_District 05: South Boston,PWDx,,,INTERSECTION of E Broadway & O St  South Boston  MA,6.0,05,2.0,C6,South Boston / South Boston Waterfront,5.0,Ward 6,607.0,,INTERSECTION E Broadway & O St,,Intersection,1989.0,42.3357,-71.0292,Constituent Call,"(42.3357, -71.0292)"
478028,101001253220,01/24/2015 02:21:34 PM,01/27/2015 08:30:00 AM,01/24/2015 03:23:33 PM,ONTIME,Closed,Case Closed Case Resolved picked up,Space Savers,Public Works Department,Sanitation,Space Savers,PWDx_District 06: West Roxbury and Roslindale,PWDx,,,154 Poplar St  Roslindale  MA  02131,12.0,06,5.0,E5,Roslindale,10.0,Ward 19,1910.0,R2,154 Poplar St,2131.0,Address,111783.0,42.283,-71.1279,Employee Generated,"(42.283, -71.1279)"
478030,101001253222,01/24/2015 02:23:22 PM,01/27/2015 08:30:00 AM,01/26/2015 10:53:22 PM,ONTIME,Closed,Case Closed Case Noted,Space Savers,Public Works Department,Sanitation,Space Savers,PWDx_District 03: North Dorchester,PWDx,,,61 Mount Ida Rd  Dorchester  MA  02122,7.0,03,3.0,C11,Dorchester,8.0,Ward 15,1507.0,R3,61 Mount Ida Rd,2122.0,Address,98344.0,42.3049,-71.0645,Constituent Call,"(42.3049, -71.0645)"
478069,101001253276,01/24/2015 04:32:42 PM,01/27/2015 08:30:00 AM,01/24/2015 07:29:52 PM,ONTIME,Closed,Case Closed Case Noted,Space Savers,Public Works Department,Sanitation,Space Savers,PWDx_District 10B: Roxbury,PWDx,,,14-16 Humboldt Ct  Roxbury  MA  02119,9.0,10B,7.0,B2,Roxbury,13.0,12,1205.0,,14-16 Humboldt Ct,2119.0,Address,343560.0,42.3594,-71.0587,Constituent Call,"(0, 0)"
478158,101001253409,01/25/2015 08:47:29 AM,01/27/2015 08:30:00 AM,01/26/2015 10:37:55 AM,ONTIME,Closed,Case Closed Case Noted,Space Savers,Public Works Department,Sanitation,Space Savers,PWDx_District 03: North Dorchester,PWDx,,,72 Tuttle St  Dorchester  MA  02125,7.0,03,3.0,C11,Dorchester,7.0,Ward 13,1310.0,CM,72 Tuttle St,2125.0,Address,138744.0,42.3145,-71.0535,Constituent Call,"(42.3145, -71.0535)"
478179,101001253453,01/25/2015 10:13:35 AM,01/27/2015 08:30:00 AM,01/25/2015 11:07:07 AM,ONTIME,Closed,Case Closed Case Resolved picked up,Space Savers,Public Works Department,Sanitation,Space Savers,PWDx_District 09: East Boston,PWDx,,,79 Homer St  East Boston  MA  02128,1.0,09,1.0,A7,East Boston,1.0,Ward 1,111.0,R3,79 Homer St,2128.0,Address,74984.0,42.3816,-71.0162,Constituent Call,"(42.3816, -71.0162)"
478183,101001253458,01/25/2015 10:23:34 AM,01/27/2015 08:30:00 AM,01/25/2015 01:40:25 PM,ONTIME,Closed,Case Closed Case Resolved Picked up,Space Savers,Public Works Department,Sanitation,Space Savers,PWDx_District 04: Allston/Brighton,PWDx,,,INTERSECTION of Benson St & Litchfield St  Brighton  MA,11.0,04,9.0,D14,Allston / Brighton,15.0,Ward 22,2205.0,,INTERSECTION Benson St & Litchfield St,,Intersection,1339.0,42.3594,-71.1411,Constituent Call,"(42.3594, -71.1411)"
478189,101001253474,01/25/2015 11:10:33 AM,01/27/2015 08:30:00 AM,01/25/2015 11:22:20 AM,ONTIME,Closed,Case Closed Case Resolved picked up,Space Savers,Public Works Department,Sanitation,Space Savers,PWDx_District 03: North Dorchester,PWDx,,,76-78 Tuttle St  Dorchester  MA  02125,7.0,03,3.0,C11,Dorchester,7.0,Ward 13,1310.0,R2,76-78 Tuttle St,2125.0,Address,138751.0,42.3146,-71.0534,Constituent Call,"(42.3146, -71.0534)"
478191,101001253483,01/25/2015 11:24:01 AM,01/27/2015 08:30:00 AM,01/26/2015 08:13:38 AM,ONTIME,Closed,Case Closed Case Resolved,Space Savers,Public Works Department,Sanitation,Space Savers,PWDx_District 05: South Boston,PWDx,,,755-757 E Fifth St  South Boston  MA  02127,6.0,05,2.0,C6,South Boston / South Boston Waterfront,5.0,Ward 6,608.0,R2,755-757 E Fifth St,2127.0,Address,58047.0,42.3339,-71.03,Constituent Call,"(42.3339, -71.03)"
478199,101001253497,01/25/2015 11:44:53 AM,01/27/2015 08:30:00 AM,01/28/2015 10:42:02 PM,OVERDUE,Closed,Case Closed Case Noted will pick up,Space Savers,Public Works Department,Sanitation,Space Savers,PWDx_District 06: West Roxbury and Roslindale,PWDx,,,INTERSECTION of Rowe St & Seymour St  Roslindale  MA,12.0,06,5.0,E5,Roslindale,10.0,Ward 19,1910.0,,INTERSECTION Rowe St & Seymour St,,Intersection,8182.0,42.2793,-71.1208,Constituent Call,"(42.2793, -71.1208)"
478208,101001253520,01/25/2015 12:11:44 PM,01/27/2015 08:30:00 AM,01/26/2015 10:53:13 PM,ONTIME,Closed,Case Closed Case Noted,Space Savers,Public Works Department,Sanitation,Space Savers,PWDx_District 03: North Dorchester,PWDx,,,9 Hinckley St  Dorchester  MA  02125,7.0,03,3.0,C11,Dorchester,7.0,Ward 13,1306.0,R3,9 Hinckley St,2125.0,Address,74347.0,42.3175,-71.0597,Constituent Call,"(42.3175, -71.0597)"
478210,101001253523,01/25/2015 12:12:41 PM,01/27/2015 08:30:00 AM,01/26/2015 10:53:03 PM,ONTIME,Closed,Case Closed Case Noted,Space Savers,Public Works Department,Sanitation,Space Savers,PWDx_District 03: North Dorchester,PWDx,,,69 Mayfield St  Dorchester  MA  02125,7.0,03,3.0,C11,Dorchester,7.0,Ward 13,1306.0,R2,69 Mayfield St,2125.0,Address,93235.0,42.317,-71.0599,Constituent Call,"(42.317, -71.0599)"
478216,101001253531,01/25/2015 12:19:45 PM,01/27/2015 08:30:00 AM,01/26/2015 08:13:30 AM,ONTIME,Closed,Case Closed Case Resolved,Space Savers,Public Works Department,Sanitation,Space Savers,PWDx_District 05: South Boston,PWDx,,,550 E Seventh St  South Boston  MA  02127,6.0,05,2.0,C6,South Boston / South Boston Waterfront,5.0,Ward 7,702.0,R3,550 E Seventh St,2127.0,Address,125393.0,42.3324,-71.0385,Constituent Call,"(42.3324, -71.0385)"
478319,101001253786,01/26/2015 07:08:29 AM,01/27/2015 08:30:00 AM,01/26/2015 08:13:21 AM,ONTIME,Closed,Case Closed Case Resolved,Space Savers,Public Works Department,Sanitation,Space Savers,PWDx_District 05: South Boston,PWDx,,,77 Old Harbor St  South Boston  MA  02127,6.0,05,2.0,C6,South Boston / South Boston Waterfront,5.0,Ward 7,704.0,CM,77 Old Harbor St,2127.0,Address,105141.0,42.3322,-71.0476,Constituent Call,"(42.3322, -71.0476)"
478321,101001253794,01/26/2015 07:22:28 AM,01/27/2015 08:30:00 AM,01/26/2015 06:34:54 PM,ONTIME,Closed,Case Closed Case Noted will resolve after storm,Space Savers,Public Works Department,Sanitation,Space Savers,PWDx_District 09: East Boston,PWDx,,,90 Byron St  East Boston  MA  02128,1.0,09,1.0,A7,East Boston,1.0,Ward 1,111.0,R1,90 Byron St,2128.0,Address,24622.0,42.3845,-71.0178,Constituent Call,"(42.3845, -71.0178)"
478322,101001253796,01/26/2015 07:24:07 AM,01/27/2015 08:30:00 AM,01/26/2015 10:33:48 AM,ONTIME,Closed,Case Closed Case Noted,Space Savers,Public Works Department,Sanitation,Space Savers,PWDx_District 03: North Dorchester,PWDx,,,12 Tuttle St  Dorchester  MA  02125,7.0,03,3.0,C11,Dorchester,7.0,Ward 13,1310.0,R2,12 Tuttle St,2125.0,Address,138713.0,42.3125,-71.0543,Constituent Call,"(42.3125, -71.0543)"
478324,101001253800,01/26/2015 07:31:38 AM,01/27/2015 08:30:00 AM,01/26/2015 08:13:14 AM,ONTIME,Closed,Case Closed Case Resolved,Space Savers,Public Works Department,Sanitation,Space Savers,PWDx_District 05: South Boston,PWDx,,,584 E Third St  South Boston  MA  02127,6.0,05,2.0,C6,South Boston / South Boston Waterfront,5.0,Ward 6,605.0,R2,584 E Third St,2127.0,Address,135029.0,42.3366,-71.0366,Constituent Call,"(42.3366, -71.0366)"
478330,101001253819,01/26/2015 07:51:39 AM,01/31/2015 08:30:00 AM,01/30/2015 01:32:24 PM,ONTIME,Closed,Case Closed Case Noted,Space Savers,Public Works Department,Sanitation,Space Savers,PWDx_District 10B: Roxbury,PWDx,,,37 Dale St  Roxbury  MA  02119,7.0,10B,7.0,B2,Roxbury,13.0,Ward 12,1203.0,R2,37 Dale St,2119.0,Address,45730.0,42.3209,-71.0839,Constituent Call,"(42.3209, -71.0839)"
478340,101001253859,01/26/2015 08:17:48 AM,01/27/2015 08:30:00 AM,01/26/2015 10:52:29 PM,ONTIME,Closed,Case Closed Case Noted,Space Savers,Public Works Department,Sanitation,Space Savers,PWDx_District 03: North Dorchester,PWDx,,,37 Buttonwood St  Dorchester  MA  02125,7.0,03,3.0,C11,Dorchester,7.0,Ward 13,1307.0,R3,37 Buttonwood St,2125.0,Address,24428.0,42.3204,-71.0556,Constituent Call,"(42.3204, -71.0556)"
478346,101001253876,01/26/2015 08:31:08 AM,01/27/2015 08:31:08 AM,01/26/2015 06:34:32 PM,ONTIME,Closed,Case Closed Case Resolved will resolve after storm,Space Savers,Public Works Department,Sanitation,Space Savers,PWDx_District 09: East Boston,PWDx,,,90 Everett St  East Boston  MA  02128,1.0,09,1.0,A7,East Boston,1.0,Ward 1,102.0,RL,90 Everett St,2128.0,Address,55183.0,42.3675,-71.0344,Constituent Call,"(42.3675, -71.0344)"
478348,101001253881,01/26/2015 08:33:01 AM,01/27/2015 08:33:01 AM,01/26/2015 07:10:55 PM,ONTIME,Closed,Case Closed Case Noted,Space Savers,Public Works Department,Sanitation,Space Savers,PWDx_District 03: North Dorchester,PWDx,,,91 Buttonwood St  Dorchester  MA  02125,6.0,03,2.0,C6,Dorchester,5.0,Ward 7,708.0,R1,91 Buttonwood St,2125.0,Address,24450.0,42.3218,-71.0556,Constituent Call,"(42.3218, -71.0556)"
478351,101001253886,01/26/2015 08:37:09 AM,01/27/2015 08:37:09 AM,01/26/2015 10:54:15 PM,ONTIME,Closed,Case Closed Case Noted,Space Savers,Public Works Department,Sanitation,Space Savers,PWDx_District 03: North Dorchester,PWDx,,,40 Harlow St  Dorchester  MA  02125,7.0,03,7.0,B2,Roxbury,13.0,Ward 13,1302.0,R3,40 Harlow St,2125.0,Address,69526.0,42.3196,-71.073,Constituent Call,"(42.3196, -71.073)"
478358,101001253909,01/26/2015 08:49:12 AM,01/27/2015 08:49:12 AM,01/27/2015 12:35:14 AM,ONTIME,Closed,Case Closed Case Noted,Space Savers,Public Works Department,Sanitation,Space Savers,PWDx_District 07: South Dorchester,PWDx,,,109 Lonsdale St  Dorchester  MA  02124,8.0,07,3.0,C11,Dorchester,7.0,Ward 16,1606.0,R2,109 Lonsdale St,2124.0,Address,87198.0,42.2911,-71.0579,Constituent Call,"(42.2911, -71.0579)"
478393,101001253998,01/26/2015 09:38:52 AM,01/27/2015 09:38:52 AM,01/26/2015 12:09:05 PM,ONTIME,Closed,Case Closed Case Resolved,Space Savers,Public Works Department,Sanitation,Space Savers,PWDx_District 05: South Boston,PWDx,,,56 Gates St  South Boston  MA  02127,6.0,05,2.0,C6,South Boston / South Boston Waterfront,5.0,Ward 7,704.0,R3,56 Gates St,2127.0,Address,63087.0,42.3321,-71.0481,Constituent Call,"(42.3321, -71.0481)"
478405,101001254026,01/26/2015 09:58:20 AM,01/27/2015 09:58:20 AM,01/26/2015 06:34:40 PM,ONTIME,Closed,Case Closed Case Resolved removed,Space Savers,Public Works Department,Sanitation,Space Savers,PWDx_District 04: Allston/Brighton,PWDx,,,62 Union St  Brighton  MA  02135,11.0,04,9.0,D14,Allston / Brighton,15.0,Ward 21,2111.0,R3,62 Union St,2135.0,Address,139270.0,42.3454,-71.1503,Constituent Call,"(42.3454, -71.1503)"
478415,101001254054,01/26/2015 10:17:32 AM,01/27/2015 10:17:31 AM,01/26/2015 12:08:56 PM,ONTIME,Closed,Case Closed Case Resolved,Space Savers,Public Works Department,Sanitation,Space Savers,PWDx_District 05: South Boston,PWDx,,,821 E Fifth St  South Boston  MA  02127,6.0,05,2.0,C6,South Boston / South Boston Waterfront,5.0,Ward 6,609.0,R2,821 E Fifth St,2127.0,Address,58095.0,42.3339,-71.0277,Constituent Call,"(42.3339, -71.0277)"
478416,101001254056,01/26/2015 10:19:00 AM,01/27/2015 10:19:00 AM,01/26/2015 10:52:05 PM,ONTIME,Closed,Case Closed Case Noted,Space Savers,Public Works Department,Sanitation,Space Savers,PWDx_District 03: North Dorchester,PWDx,,,117 Devon St  Dorchester  MA  02121,7.0,03,4.0,B2,Roxbury,13.0,Ward 14,1401.0,R3,117 Devon St,2121.0,Address,47535.0,42.3082,-71.0774,Constituent Call,"(42.3082, -71.0774)"
478422,101001254067,01/26/2015 10:23:18 AM,01/27/2015 10:23:17 AM,01/27/2015 10:07:41 PM,OVERDUE,Closed,Case Closed Case Noted,Space Savers,Public Works Department,Sanitation,Space Savers,PWDx_District 1A: Charlestown,PWDx,,,20 Sackville St  Charlestown  MA  02129,3.0,1A,1.0,A15,Charlestown,2.0,Ward 2,205.0,CM,20 Sackville St,2129.0,Address,120381.0,42.3811,-71.0649,Constituent Call,"(42.3811, -71.0649)"
478434,101001254088,01/26/2015 10:33:21 AM,01/27/2015 10:33:20 AM,01/27/2015 10:08:11 PM,OVERDUE,Closed,Case Closed Case Noted,Space Savers,Public Works Department,Sanitation,Space Savers,PWDx_District 1A: Charlestown,PWDx,,,0 N Mead St  Charlestown  MA  02129,3.0,1A,1.0,A15,Charlestown,2.0,Ward 2,207.0,RL,0 N Mead St,2129.0,Address,93567.0,42.382,-71.0668,Constituent Call,"(42.382, -71.0668)"
478448,101001254128,01/26/2015 10:53:20 AM,01/27/2015 10:53:20 AM,01/26/2015 12:08:42 PM,ONTIME,Closed,Case Closed Case Resolved,Space Savers,Public Works Department,Sanitation,Space Savers,PWDx_District 05: South Boston,PWDx,,,411 E Seventh St  South Boston  MA  02127,6.0,05,2.0,C6,South Boston / South Boston Waterfront,5.0,Ward 7,703.0,R2,411 E Seventh St,2127.0,Address,125265.0,42.332,-71.0434,Constituent Call,"(42.332, -71.0434)"
478453,101001254136,01/26/2015 11:00:55 AM,01/27/2015 11:00:55 AM,01/26/2015 12:08:34 PM,ONTIME,Closed,Case Closed Case Resolved,Space Savers,Public Works Department,Sanitation,Space Savers,PWDx_District 05: South Boston,PWDx,,,INTERSECTION of E Fifth St & O St  South Boston  MA,6.0,05,2.0,C6,South Boston / South Boston Waterfront,5.0,Ward 6,609.0,,INTERSECTION E Fifth St & O St,,Intersection,4914.0,42.334,-71.0292,Constituent Call,"(42.334, -71.0292)"
478461,101001254158,01/26/2015 11:22:05 AM,01/27/2015 11:22:05 AM,01/26/2015 12:08:26 PM,ONTIME,Closed,Case Closed Case Resolved,Space Savers,Public Works Department,Sanitation,Space Savers,PWDx_District 05: South Boston,PWDx,,,INTERSECTION of E Eighth St & Old Harbor St  South Boston  MA,6.0,05,2.0,C6,South Boston / South Boston Waterfront,5.0,Ward 7,704.0,,INTERSECTION E Eighth St & Old Harbor St,,Intersection,4447.0,42.3313,-71.0474,Constituent Call,"(42.3313, -71.0474)"
478476,101001254196,01/26/2015 11:53:33 AM,01/27/2015 11:53:33 AM,01/26/2015 06:33:48 PM,ONTIME,Closed,Case Closed Case Noted will resolve after storm,Space Savers,Public Works Department,Sanitation,Space Savers,PWDx_District 09: East Boston,PWDx,,,216 Paris St  East Boston  MA  02128,1.0,09,1.0,A7,East Boston,1.0,Ward 1,105.0,R3,216 Paris St,2128.0,Address,106508.0,42.3748,-71.0351,Constituent Call,"(42.3748, -71.0351)"
478479,101001254206,01/26/2015 11:58:38 AM,01/27/2015 11:58:37 AM,01/27/2015 10:08:53 PM,OVERDUE,Closed,Case Closed Case Noted,Space Savers,Public Works Department,Sanitation,Space Savers,PWDx_District 1A: Charlestown,PWDx,,,9 Walker St  Charlestown  MA  02129,3.0,1A,1.0,A15,Charlestown,2.0,Ward 2,206.0,R1,9 Walker St,2129.0,Address,141778.0,42.3785,-71.0674,Constituent Call,"(42.3785, -71.0674)"
478482,101001254211,01/26/2015 12:01:05 PM,01/27/2015 12:01:05 PM,01/26/2015 06:33:24 PM,ONTIME,Closed,Case Closed Case Noted will resolve after storm,Space Savers,Public Works Department,Sanitation,Space Savers,PWDx_District 09: East Boston,PWDx,,,150-152 Everett St  East Boston  MA  02128,1.0,09,1.0,A7,East Boston,1.0,Ward 1,102.0,R3,150-152 Everett St,2128.0,Address,55058.0,42.3667,-71.0325,Constituent Call,"(42.3667, -71.0325)"
478484,101001254216,01/26/2015 12:09:02 PM,01/27/2015 12:09:02 PM,02/17/2015 07:46:49 AM,OVERDUE,Closed,Case Closed Case Noted,Space Savers,Public Works Department,Sanitation,Space Savers,PWDx_District 05: South Boston,PWDx,,,139 W Sixth St  South Boston  MA  02127,6.0,05,2.0,C6,South Boston / South Boston Waterfront,5.0,Ward 6,602.0,CM,139 W Sixth St,2127.0,Address,127923.0,42.3366,-71.053,Constituent Call,"(42.3366, -71.053)"
478501,101001254246,01/26/2015 12:50:13 PM,01/27/2015 12:50:13 PM,01/26/2015 06:32:37 PM,ONTIME,Closed,Case Closed Case Resolved will resolve after storm,Space Savers,Public Works Department,Sanitation,Space Savers,PWDx_District 09: East Boston,PWDx,,,765  Saratoga St  East Boston  MA  02128,1.0,09,1.0,A7,East Boston,1.0,1,111.0,,765  Saratoga St,2128.0,Address,342038.0,42.3594,-71.0587,Constituent Call,"(0, 0)"
478504,101001254250,01/26/2015 12:58:17 PM,01/27/2015 12:58:17 PM,02/17/2015 07:47:03 AM,OVERDUE,Closed,Case Closed Case Noted,Space Savers,Public Works Department,Sanitation,Space Savers,PWDx_District 05: South Boston,PWDx,,,INTERSECTION of F St & W Fifth St  South Boston  MA,6.0,05,2.0,C6,South Boston / South Boston Waterfront,5.0,Ward 7,704.0,,INTERSECTION F St & W Fifth St,,Intersection,4726.0,42.3355,-71.0493,Constituent Call,"(42.3355, -71.0493)"
478514,101001254267,01/26/2015 01:11:13 PM,01/27/2015 01:11:13 PM,01/26/2015 06:31:36 PM,ONTIME,Closed,Case Closed Case Noted will resolve when storm is over,Space Savers,Public Works Department,Sanitation,Space Savers,PWDx_District 09: East Boston,PWDx,,,0 Westbrook St  East Boston  MA  02128,1.0,09,1.0,A7,East Boston,1.0,Ward 1,112.0,RL,0 Westbrook St,2128.0,Address,148052.0,42.3844,-71.0121,Constituent Call,"(42.3844, -71.0121)"
478536,101001254329,01/26/2015 01:59:20 PM,01/27/2015 01:59:20 PM,01/26/2015 07:08:07 PM,ONTIME,Closed,Case Closed Case Noted,Space Savers,Public Works Department,Sanitation,Space Savers,PWDx_District 03: North Dorchester,PWDx,,,15 Esmond St  Dorchester  MA  02121,7.0,03,4.0,B3,Greater Mattapan,8.0,Ward 14,1407.0,R3,15 Esmond St,2121.0,Address,54251.0,42.2989,-71.0859,Constituent Call,"(42.2989, -71.0859)"
478558,101001254388,01/26/2015 03:04:38 PM,01/27/2015 03:04:37 PM,01/27/2015 05:39:09 AM,ONTIME,Closed,Case Closed Case Noted,Space Savers,Public Works Department,Sanitation,Space Savers,PWDx_District 1A: Charlestown,PWDx,,,35 Walker St  Charlestown  MA  02129,3.0,1A,1.0,A15,Charlestown,2.0,Ward 2,206.0,R1,35 Walker St,2129.0,Address,141768.0,42.3791,-71.0667,Constituent Call,"(42.3791, -71.0667)"
478595,101001254496,01/26/2015 04:55:25 PM,01/27/2015 04:55:24 PM,01/26/2015 07:07:45 PM,ONTIME,Closed,Case Closed Case Noted,Space Savers,Public Works Department,Sanitation,Space Savers,PWDx_District 03: North Dorchester,PWDx,,,12 Upham Ave  Dorchester  MA  02125,7.0,03,7.0,C11,Dorchester,13.0,Ward 13,1305.0,R3,12 Upham Ave,2125.0,Address,139475.0,42.3155,-71.065,Constituent Call,"(42.3155, -71.065)"
478596,101001254499,01/26/2015 05:00:53 PM,01/28/2015 08:30:00 AM,01/26/2015 07:07:33 PM,ONTIME,Closed,Case Closed Case Noted,Space Savers,Public Works Department,Sanitation,Space Savers,PWDx_District 03: North Dorchester,PWDx,,,19 Upham Ave  Dorchester  MA  02125,7.0,03,7.0,C11,Dorchester,13.0,Ward 13,1305.0,CM,19 Upham Ave,2125.0,Address,139479.0,42.3152,-71.065,Constituent Call,"(42.3152, -71.065)"
478602,101001254510,01/26/2015 05:33:34 PM,01/28/2015 08:30:00 AM,01/26/2015 06:31:09 PM,ONTIME,Closed,Case Closed Case Noted will handle after storm,Space Savers,Public Works Department,Sanitation,Space Savers,PWDx_District 09: East Boston,PWDx,,,900-908 Saratoga St  East Boston  MA  02128,1.0,09,1.0,A7,East Boston,1.0,01,111.0,A,900-908 Saratoga St,2128.0,Address,341349.0,42.3594,-71.0587,Constituent Call,"(0, 0)"
481367,101001257730,01/28/2015 11:02:29 AM,01/29/2015 11:02:29 AM,03/24/2015 09:09:10 AM,OVERDUE,Closed,Case Closed Case Resolved,Space Savers,Public Works Department,Sanitation,Space Savers,PWDx_District 1C: Downtown,PWDx,,https://cityworker.cityofboston.gov:8443/attachments/report/54c90819d0527116877cee64/closed_photo/Report.jpg,16 Saint Charles St  Boston  MA  02116,4.0,1C,2.0,D4,South End,6.0,Ward 5,501.0,CM,16 Saint Charles St,2116.0,Address,120984.0,42.3473,-71.0723,Constituent Call,"(42.3473, -71.0723)"
482253,101001258793,01/28/2015 03:02:19 PM,01/29/2015 03:02:19 PM,01/31/2015 07:17:55 AM,OVERDUE,Closed,Case Closed Case Resolved Case Closed,Space Savers,Public Works Department,Sanitation,Space Savers,PWDx_District 02: Jamaica Plain,PWDx,,,55 Paul Gore St  Jamaica Plain  MA  02130,9.0,02,6.0,E13,Jamaica Plain,11.0,Ward 19,1901.0,CM,55 Paul Gore St,2130.0,Address,108586.0,42.3196,-71.1085,Constituent Call,"(42.3196, -71.1085)"
482276,101001258820,01/28/2015 03:10:35 PM,01/29/2015 03:10:35 PM,02/02/2015 10:50:38 AM,OVERDUE,Closed,Case Closed Case Resolved,Space Savers,Public Works Department,Sanitation,Space Savers,PWDx_District 1C: Downtown,PWDx,,,423 Shawmut Ave  Roxbury  MA  02118,4.0,1C,2.0,D4,South End,6.0,Ward 9,901.0,A,423 Shawmut Ave,2118.0,Address,126248.0,42.3401,-71.0743,Constituent Call,"(42.3401, -71.0743)"
482279,101001258826,01/28/2015 03:11:49 PM,01/29/2015 03:11:48 PM,02/02/2015 10:53:01 AM,OVERDUE,Closed,Case Closed Case Resolved,Space Savers,Public Works Department,Sanitation,Space Savers,PWDx_District 1C: Downtown,PWDx,,,433 Shawmut Ave  Roxbury  MA  02118,4.0,1C,2.0,D4,South End,6.0,Ward 9,901.0,E,433 Shawmut Ave,2118.0,Address,126266.0,42.3399,-71.0745,Constituent Call,"(42.3399, -71.0745)"
482749,101001259394,01/28/2015 05:29:56 PM,01/30/2015 08:30:00 AM,02/02/2015 11:14:36 AM,OVERDUE,Closed,Case Closed Case Resolved,Space Savers,Public Works Department,Sanitation,Space Savers,PWDx_District 1C: Downtown,PWDx,,,174 W Springfield St  Roxbury  MA  02118,4.0,1C,7.0,D4,South End,6.0,Ward 9,902.0,EA,174 W Springfield St,2118.0,Address,129939.0,42.3394,-71.0795,Constituent Call,"(42.3394, -71.0795)"
482969,101001259675,01/28/2015 06:36:39 PM,01/30/2015 08:30:00 AM,03/24/2015 08:32:14 AM,OVERDUE,Closed,Case Closed Case Resolved,Space Savers,Public Works Department,Sanitation,Space Savers,PWDx_District 1C: Downtown,PWDx,,https://cityworker.cityofboston.gov:8443/attachments/report/54c97291d0527116877d2906/closed_photo/Report.jpg,330 Shawmut Ave  Roxbury  MA  02118,4.0,1C,2.0,D4,South End,4.0,Ward 3,307.0,EA,330 Shawmut Ave,2118.0,Address,309921.0,42.3417,-71.071,Constituent Call,"(42.3417, -71.071)"
483124,101001259874,01/28/2015 08:03:43 PM,01/30/2015 08:30:00 AM,02/25/2015 11:13:12 PM,OVERDUE,Closed,Case Closed Case Resolved,Space Savers,Public Works Department,Sanitation,Space Savers,PWDx_District 04: Allston/Brighton,PWDx,,,5-9 Saybrook St  Brighton  MA  02135,11.0,04,9.0,D14,Allston / Brighton,15.0,Ward 22,2206.0,CM,5-9 Saybrook St,2135.0,Address,123707.0,42.3549,-71.1495,Constituent Call,"(42.3549, -71.1495)"
483406,101001260233,01/29/2015 06:28:54 AM,01/30/2015 08:30:00 AM,02/03/2015 11:14:10 AM,OVERDUE,Closed,Case Closed Case Resolved,Space Savers,Public Works Department,Sanitation,Space Savers,PWDx_District 1C: Downtown,PWDx,,,65 W Dedham St  Roxbury  MA  02118,4.0,1C,2.0,D4,South End,6.0,Ward 9,901.0,EA,65 W Dedham St,2118.0,Address,155697.0,42.3418,-71.0724,Constituent Call,"(42.3418, -71.0724)"
483407,101001260235,01/29/2015 06:30:18 AM,01/30/2015 08:30:00 AM,03/24/2015 08:31:44 AM,OVERDUE,Closed,Case Closed Case Resolved,Space Savers,Public Works Department,Sanitation,Space Savers,PWDx_District 1C: Downtown,PWDx,,https://cityworker.cityofboston.gov:8443/attachments/report/54ca19d2d0527116877d3d62/closed_photo/Report.jpg,348-358 Shawmut Ave  Roxbury  MA  02118,4.0,1C,2.0,D4,South End,6.0,Ward 9,901.0,EA,348-358 Shawmut Ave,2118.0,Address,169638.0,42.3412,-71.0715,Constituent Call,"(42.3412, -71.0715)"
484317,101001261514,01/29/2015 11:33:46 AM,01/30/2015 11:33:46 AM,01/29/2015 01:08:08 PM,ONTIME,Closed,Case Closed Case Resolved,Space Savers,Public Works Department,Sanitation,Space Savers,PWDx_District 05: South Boston,PWDx,,,2 G St  South Boston  MA  02127,6.0,05,2.0,C6,South Boston / South Boston Waterfront,5.0,Ward 6,604.0,R1,2 G St,2127.0,Address,61600.0,42.3362,-71.0441,Constituent Call,"(42.3362, -71.0441)"
484553,101001261858,01/29/2015 01:00:24 PM,01/30/2015 01:00:24 PM,02/01/2015 10:38:43 AM,OVERDUE,Closed,Case Closed Case Noted,Space Savers,Public Works Department,Sanitation,Space Savers,PWDx_District 07: South Dorchester,PWDx,,,INTERSECTION of Adams St & Centre St  Dorchester  MA,8.0,07,3.0,C11,Dorchester,7.0,Ward 16,1605.0,,INTERSECTION Adams St & Centre St,,Intersection,109.0,42.2952,-71.0562,Constituent Call,"(42.2952, -71.0562)"
484683,101001262036,01/29/2015 01:52:14 PM,01/30/2015 01:52:14 PM,03/24/2015 08:12:57 AM,OVERDUE,Closed,Case Closed Case Resolved,Space Savers,Public Works Department,Sanitation,Space Savers,PWDx_District 1C: Downtown,PWDx,,https://cityworker.cityofboston.gov:8443/attachments/report/54ca815fd0527116877d7825/closed_photo/Report.jpg,INTERSECTION of Concord Sq & Tremont St  Roxbury  MA,4.0,1C,7.0,D4,South End,6.0,Ward 9,902.0,,INTERSECTION Concord Sq & Tremont St,,Intersection,3409.0,42.3405,-71.0781,Constituent Call,"(42.3405, -71.0781)"
484788,101001262178,01/29/2015 02:33:19 PM,01/30/2015 02:33:19 PM,03/24/2015 08:23:23 AM,OVERDUE,Closed,Case Closed Case Resolved,Space Savers,Public Works Department,Sanitation,Space Savers,PWDx_District 1C: Downtown,PWDx,,https://cityworker.cityofboston.gov:8443/attachments/report/54ca8b02d0527116877d7d56/closed_photo/Report.jpg,44 Montgomery St  Roxbury  MA  02118,4.0,1C,2.0,D4,South End,6.0,Ward 4,401.0,R1,44 Montgomery St,2118.0,Address,96686.0,42.3436,-71.0734,Constituent Call,"(42.3436, -71.0734)"
484823,101001262235,01/29/2015 02:47:52 PM,01/30/2015 02:47:51 PM,01/29/2015 03:16:13 PM,ONTIME,Closed,Case Closed Case Resolved Constituent called back  stated he worked it out with the other car owner  doesn't need the city to take any action,Space Savers,Public Works Department,Sanitation,Space Savers,PWDx_District 04: Allston/Brighton,PWDx,,,107 Bennett St  Brighton  MA  02135,11.0,04,9.0,D14,Allston / Brighton,15.0,Ward 22,2210.0,R2,107 Bennett St,2135.0,Address,187113.0,42.3521,-71.1588,Constituent Call,"(42.3521, -71.1588)"
484837,101001262258,01/29/2015 02:55:08 PM,01/30/2015 02:55:08 PM,05/04/2015 11:42:34 AM,OVERDUE,Closed,Case Closed. Closed date : 2015-05-04 11:42:34.97 Case Noted Thank you for your request. This service request is now considered closed due to the recent arrival of Spring. The City worked around the clock this winter to address the record-breaking snowfall and we hope that many of your concerns were resolved. We encourage you to let us know of any additional issues and thank you for working with us to make the City a better place. Thank you for your patience and we apologize for any requests that we were not able to get to.,Space Savers,Public Works Department,Sanitation,Space Savers,INFO_Reallocation From Dept,INFO,,,INTERSECTION of Cunningham St & Woodledge St  Dorchester  MA,7.0,03,7.0,B2,Roxbury,13.0,Ward 13,1304.0,,INTERSECTION Cunningham St & Woodledge St,,Intersection,3769.0,42.3143,-71.0745,Constituent Call,"(42.3143, -71.0745)"
484854,101001262277,01/29/2015 02:59:49 PM,01/30/2015 02:59:49 PM,02/17/2015 11:23:30 AM,OVERDUE,Closed,Case Closed Case Resolved  per inspector,Space Savers,Public Works Department,Sanitation,Space Savers,PWDx_District 07: South Dorchester,PWDx,,,22 Barrington Rd  Dorchester  MA  02124,8.0,07,3.0,C11,Dorchester,7.0,Ward 16,1608.0,R2,22 Barrington Rd,2124.0,Address,8301.0,42.2855,-71.0609,Constituent Call,"(42.2855, -71.0609)"
484864,101001262292,01/29/2015 03:04:13 PM,01/30/2015 03:04:12 PM,03/24/2015 08:26:57 AM,OVERDUE,Closed,Case Closed Case Resolved,Space Savers,Public Works Department,Sanitation,Space Savers,PWDx_District 1C: Downtown,PWDx,,https://cityworker.cityofboston.gov:8443/attachments/report/54ca9247d0527116877d8136/closed_photo/Report.jpg,21 Worcester St  Roxbury  MA  02118,4.0,1C,7.0,D4,South End,6.0,Ward 9,902.0,R3,21 Worcester St,2118.0,Address,152418.0,42.3381,-71.0762,Constituent Call,"(42.3381, -71.0762)"
484885,101001262322,01/29/2015 03:14:13 PM,01/30/2015 03:14:13 PM,03/24/2015 08:56:24 AM,OVERDUE,Closed,Case Closed Case Resolved,Space Savers,Public Works Department,Sanitation,Space Savers,PWDx_District 1C: Downtown,PWDx,,https://cityworker.cityofboston.gov:8443/attachments/report/54ca949ed0527116877d8219/closed_photo/Report.jpg,20 Appleton St  Boston  MA  02116,4.0,1C,2.0,D4,South End,6.0,Ward 5,501.0,R1,20 Appleton St,2116.0,Address,3959.0,42.3459,-71.0713,Constituent Call,"(42.3459, -71.0713)"
484923,101001262377,01/29/2015 03:31:46 PM,01/30/2015 03:31:46 PM,05/04/2015 11:42:58 AM,OVERDUE,Closed,Case Closed. Closed date : 2015-05-04 11:42:58.427 Case Noted Thank you for your request. This service request is now considered closed due to the recent arrival of Spring. The City worked around the clock this winter to address the record-breaking snowfall and we hope that many of your concerns were resolved. We encourage you to let us know of any additional issues and thank you for working with us to make the City a better place. Thank you for your patience and we apologize for any requests that we were not able to get to.,Space Savers,Public Works Department,Sanitation,Space Savers,INFO_Reallocation From Dept,INFO,,,12 Westville Ter  Dorchester  MA  02124,7.0,03,4.0,C11,Dorchester,8.0,Ward 15,1505.0,R4,12 Westville Ter,2124.0,Address,335906.0,42.301,-71.0685,Constituent Call,"(42.301, -71.0685)"
485027,101001262536,01/29/2015 04:20:08 PM,01/30/2015 04:20:07 PM,03/24/2015 09:02:34 AM,OVERDUE,Closed,Case Closed Case Resolved,Space Savers,Public Works Department,Sanitation,Space Savers,PWDx_District 1C: Downtown,PWDx,,,INTERSECTION of Chesterton St & Massachusetts Ave  Roxbury  MA,7.0,1C,7.0,C6,South Boston / South Boston Waterfront,13.0,Ward 8,806.0,,INTERSECTION Chesterton St & Massachusetts Ave,,Intersection,2911.0,42.3305,-71.07,Constituent Call,"(42.3305, -71.07)"
485757,101001263709,01/30/2015 08:16:13 AM,02/02/2015 08:30:00 AM,01/31/2015 07:41:56 AM,ONTIME,Closed,Case Closed Case Noted,Space Savers,Public Works Department,Sanitation,Space Savers,PWDx_District 07: South Dorchester,PWDx,,,31 Glenhill Rd  Mattapan  MA  02126,8.0,07,4.0,B3,Greater Mattapan,9.0,Ward 18,1801.0,R1,31 Glenhill Rd,2126.0,Address,64444.0,42.2776,-71.0827,Constituent Call,"(42.2776, -71.0827)"
485858,101001263902,01/30/2015 09:09:31 AM,02/02/2015 09:09:30 AM,01/31/2015 10:55:20 AM,ONTIME,Closed,Case Closed Case Resolved,Space Savers,Public Works Department,Sanitation,Space Savers,PWDx_District 05: South Boston,PWDx,,,388 E Eighth St  South Boston  MA  02127,6.0,05,2.0,C6,South Boston / South Boston Waterfront,5.0,Ward 7,703.0,C,388 E Eighth St,2127.0,Address,52124.0,42.3315,-71.0455,Constituent Call,"(42.3315, -71.0455)"
486016,101001264187,01/30/2015 10:23:11 AM,02/02/2015 10:23:11 AM,01/31/2015 07:41:57 AM,ONTIME,Closed,Case Closed Case Noted,Space Savers,Public Works Department,Sanitation,Space Savers,PWDx_District 07: South Dorchester,PWDx,,,243-245 Minot St  Dorchester  MA  02124,8.0,07,3.0,C11,Dorchester,7.0,Ward 16,1608.0,R2,243-245 Minot St,2124.0,Address,96118.0,42.2837,-71.0576,Constituent Call,"(42.2837, -71.0576)"
486021,101001264198,01/30/2015 10:26:09 AM,02/02/2015 10:26:09 AM,03/24/2015 08:43:27 AM,OVERDUE,Closed,Case Closed Case Resolved,Space Savers,Public Works Department,Sanitation,Space Savers,PWDx_District 1C: Downtown,PWDx,,https://cityworker.cityofboston.gov:8443/attachments/report/54cba294d0527116877dc4a1/closed_photo/Report.jpg,11 Bond St  Roxbury  MA  02118,4.0,1C,2.0,D4,South End,4.0,Ward 3,307.0,R1,11 Bond St,2118.0,Address,16961.0,42.3434,-71.0692,Constituent Call,"(42.3434, -71.0692)"
486033,101001264220,01/30/2015 10:32:03 AM,02/02/2015 10:32:03 AM,03/24/2015 08:51:19 AM,OVERDUE,Closed,Case Closed Case Resolved,Space Savers,Public Works Department,Sanitation,Space Savers,PWDx_District 1C: Downtown,PWDx,,https://cityworker.cityofboston.gov:8443/attachments/report/54cba3fdd0527116877dc54b/closed_photo/Report.jpg,147 W Canton St  Roxbury  MA  02118,4.0,1C,2.0,D4,South End,6.0,Ward 4,401.0,R1,147 W Canton St,2118.0,Address,25569.0,42.343,-71.075,Constituent Call,"(42.343, -71.075)"
486532,101001265034,01/30/2015 03:39:19 PM,02/02/2015 03:39:19 PM,01/30/2015 04:06:03 PM,ONTIME,Closed,Case Closed Case Noted will check out,Space Savers,Public Works Department,Sanitation,Space Savers,PWDx_District 1C: Downtown,PWDx,,,298 Marlborough St  Boston  MA  02116,4.0,1C,8.0,D4,Back Bay,14.0,Ward 5,508.0,CM,298 Marlborough St,2116.0,Address,90899.0,42.3512,-71.0839,Constituent Call,"(42.3512, -71.0839)"
486585,101001265115,01/30/2015 04:18:39 PM,02/02/2015 04:18:39 PM,01/30/2015 04:20:57 PM,ONTIME,Closed,Case Closed Case Noted,Space Savers,Public Works Department,Sanitation,Space Savers,PWDx_District 1C: Downtown,PWDx,,,INTERSECTION of Massachusetts Ave & Shawmut Ave  Roxbury  MA,7.0,1C,7.0,D4,Roxbury,13.0,Ward 9,903.0,,INTERSECTION Massachusetts Ave & Shawmut Ave,,Intersection,7143.0,42.3373,-71.0781,Constituent Call,"(42.3373, -71.0781)"
486639,101001265195,01/30/2015 05:05:14 PM,02/03/2015 08:30:00 AM,03/24/2015 09:49:23 AM,OVERDUE,Closed,Case Closed Case Resolved,Space Savers,Public Works Department,Sanitation,Space Savers,PWDx_District 1C: Downtown,PWDx,,https://cityworker.cityofboston.gov:8443/attachments/report/54cc001bd0527116877dec90/closed_photo/Report.jpg,INTERSECTION of Atlantic Ave & Rowes Wharf  Boston  MA,3.0,1C,1.0,A1,Downtown / Financial District,3.0,Ward 3,306.0,,INTERSECTION Atlantic Ave & Rowes Wharf,,Intersection,746.0,42.357,-71.0507,Constituent Call,"(42.357, -71.0507)"
486641,101001265198,01/30/2015 05:05:55 PM,02/03/2015 08:30:00 AM,02/02/2015 01:42:59 PM,ONTIME,Closed,Case Closed Case Resolved,Space Savers,Public Works Department,Sanitation,Space Savers,PWDx_District 1A: Charlestown,PWDx,,,INTERSECTION of Bartlett St & Walker St  Charlestown  MA,3.0,1A,1.0,A15,Charlestown,2.0,Ward 2,206.0,,INTERSECTION Bartlett St & Walker St,,Intersection,989.0,42.3794,-71.0667,Constituent Call,"(42.3794, -71.0667)"
486678,101001265268,01/30/2015 05:31:17 PM,02/03/2015 08:30:00 AM,01/31/2015 09:39:18 AM,ONTIME,Closed,Case Closed Case Noted,Space Savers,Public Works Department,Sanitation,Space Savers,PWDx_District 03: North Dorchester,PWDx,,,52 Ridgewood St  Dorchester  MA  02122,7.0,03,3.0,C11,Dorchester,8.0,Ward 15,1507.0,R3,52 Ridgewood St,2122.0,Address,116021.0,42.3024,-71.0652,Constituent Call,"(42.3024, -71.0652)"
486830,101001265507,01/30/2015 09:15:42 PM,02/03/2015 08:30:00 AM,01/31/2015 08:32:55 AM,ONTIME,Closed,Case Closed Case Noted,Space Savers,Public Works Department,Sanitation,Space Savers,PWDx_District 03: North Dorchester,PWDx,,,102 Draper St  Dorchester  MA  02122,7.0,03,3.0,C11,Dorchester,8.0,Ward 15,1507.0,R3,102 Draper St,2122.0,Address,49382.0,42.3049,-71.0654,Constituent Call,"(42.3049, -71.0654)"
486831,101001265508,01/30/2015 09:16:36 PM,02/03/2015 08:30:00 AM,01/30/2015 10:00:51 PM,ONTIME,Closed,Case Closed Case Noted received space savers r in effect,Space Savers,Public Works Department,Sanitation,Space Savers,PWDx_District 03: North Dorchester,PWDx,,,47 Mount Ida Rd  Dorchester  MA  02122,7.0,03,3.0,C11,Dorchester,8.0,Ward 15,1507.0,R3,47 Mount Ida Rd,2122.0,Address,98334.0,42.3054,-71.0648,Constituent Call,"(42.3054, -71.0648)"
486946,101001265669,01/31/2015 09:24:33 AM,02/03/2015 08:30:00 AM,02/17/2015 07:33:43 AM,OVERDUE,Closed,Case Closed Case Noted,Space Savers,Public Works Department,Sanitation,Space Savers,PWDx_District 05: South Boston,PWDx,,,521 E Fifth St  South Boston  MA  02127,6.0,05,2.0,C6,South Boston / South Boston Waterfront,5.0,Ward 6,606.0,R2,521 E Fifth St,2127.0,Address,57844.0,42.3337,-71.0396,Constituent Call,"(42.3337, -71.0396)"
486948,101001265671,01/31/2015 09:25:51 AM,02/03/2015 08:30:00 AM,02/25/2015 11:14:46 PM,OVERDUE,Closed,Case Closed Case Resolved,Space Savers,Public Works Department,Sanitation,Space Savers,PWDx_District 04: Allston/Brighton,PWDx,,,84 Lanark Rd  Brighton  MA  02135,11.0,04,9.0,D14,Allston / Brighton,15.0,Ward 21,2114.0,R2,84 Lanark Rd,2135.0,Address,83804.0,42.3405,-71.1474,Constituent Call,"(42.3405, -71.1474)"
486999,101001265739,01/31/2015 10:26:42 AM,02/03/2015 08:30:00 AM,02/01/2015 12:36:55 AM,ONTIME,Closed,Case Closed Case Resolved will remove,Space Savers,Public Works Department,Sanitation,Space Savers,PWDx_District 06: West Roxbury and Roslindale,PWDx,,,150 Poplar St  Roslindale  MA  02131,12.0,06,5.0,E5,Roslindale,10.0,Ward 19,1910.0,R1,150 Poplar St,2131.0,Address,111781.0,42.2831,-71.1279,Constituent Call,"(42.2831, -71.1279)"
487066,101001265832,01/31/2015 11:54:11 AM,02/03/2015 08:30:00 AM,02/01/2015 12:36:18 AM,ONTIME,Closed,Case Closed Case Resolved will remove,Space Savers,Public Works Department,Sanitation,Space Savers,PWDx_District 06: West Roxbury and Roslindale,PWDx,,,5018 Washington St  West Roxbury  MA  02132,12.0,06,6.0,E5,West Roxbury,10.0,Ward 20,2003.0,R3,5018 Washington St,2132.0,Address,145498.0,42.2658,-71.1517,Constituent Call,"(42.2658, -71.1517)"
487120,101001265915,01/31/2015 01:09:08 PM,02/03/2015 08:30:00 AM,02/03/2015 05:26:42 AM,ONTIME,Closed,Case Closed Case Noted no spacers taken away,Space Savers,Public Works Department,Sanitation,Space Savers,PWDx_District 02: Jamaica Plain,PWDx,,,80 Paul Gore St  Jamaica Plain  MA  02130,9.0,02,6.0,E13,Jamaica Plain,11.0,Ward 19,1901.0,CM,80 Paul Gore St,2130.0,Address,108612.0,42.3195,-71.1075,Constituent Call,"(42.3195, -71.1075)"
487135,101001265937,01/31/2015 01:26:59 PM,02/03/2015 08:30:00 AM,03/01/2015 11:23:57 PM,OVERDUE,Closed,Case Closed Case Noted,Space Savers,Public Works Department,Sanitation,Space Savers,PWDx_District 1A: Charlestown,PWDx,,,20 Monument Sq  Charlestown  MA  02129,3.0,1A,1.0,A15,Charlestown,2.0,Ward 2,204.0,R1,20 Monument Sq,2129.0,Address,96975.0,42.377,-71.0602,Constituent Call,"(42.377, -71.0602)"
487191,101001266017,01/31/2015 02:38:48 PM,02/03/2015 08:30:00 AM,02/01/2015 01:00:59 PM,ONTIME,Closed,Case Closed Case Noted,Space Savers,Public Works Department,Sanitation,Space Savers,PWDx_District 03: North Dorchester,PWDx,,,49 Mount Ida Rd  Dorchester  MA  02122,7.0,03,3.0,C11,Dorchester,8.0,Ward 15,1507.0,CM,49 Mount Ida Rd,2122.0,Address,98335.0,42.3053,-71.0647,Constituent Call,"(42.3053, -71.0647)"
487192,101001266018,01/31/2015 02:39:24 PM,02/03/2015 08:30:00 AM,02/01/2015 01:00:39 PM,ONTIME,Closed,Case Closed Case Noted,Space Savers,Public Works Department,Sanitation,Space Savers,PWDx_District 03: North Dorchester,PWDx,,,77 Draper St  Dorchester  MA  02122,7.0,03,3.0,C11,Dorchester,8.0,Ward 15,1507.0,CM,77 Draper St,2122.0,Address,49454.0,42.3042,-71.0644,Constituent Call,"(42.3042, -71.0644)"
487195,101001266021,01/31/2015 02:40:34 PM,02/03/2015 08:30:00 AM,02/01/2015 01:00:16 PM,ONTIME,Closed,Case Closed Case Noted,Space Savers,Public Works Department,Sanitation,Space Savers,PWDx_District 03: North Dorchester,PWDx,,,48 Juliette St  Dorchester  MA  02122,7.0,03,3.0,C11,Dorchester,8.0,Ward 15,1509.0,R3,48 Juliette St,2122.0,Address,80371.0,42.3053,-71.0622,Constituent Call,"(42.3053, -71.0622)"
487219,101001266058,01/31/2015 03:14:18 PM,02/03/2015 08:30:00 AM,02/02/2015 01:43:07 PM,ONTIME,Closed,Case Closed Case Resolved,Space Savers,Public Works Department,Sanitation,Space Savers,PWDx_District 1A: Charlestown,PWDx,,,9 Sullivan St  Charlestown  MA  02129,3.0,1A,1.0,A15,Charlestown,2.0,Ward 2,206.0,R2,9 Sullivan St,2129.0,Address,131868.0,42.3778,-71.0669,Constituent Call,"(42.3778, -71.0669)"
487294,101001266176,01/31/2015 06:18:45 PM,02/03/2015 08:30:00 AM,02/01/2015 12:59:59 PM,ONTIME,Closed,Case Closed Case Noted,Space Savers,Public Works Department,Sanitation,Space Savers,PWDx_District 03: North Dorchester,PWDx,,,130 Draper St  Dorchester  MA  02122,7.0,03,3.0,C11,Dorchester,8.0,Ward 15,1507.0,R2,130 Draper St,2122.0,Address,49404.0,42.3058,-71.0659,Constituent Call,"(42.3058, -71.0659)"
487316,101001266211,01/31/2015 07:37:47 PM,02/03/2015 08:30:00 AM,02/02/2015 01:47:55 PM,ONTIME,Closed,Case Closed Case Resolved,Space Savers,Public Works Department,Sanitation,Space Savers,PWDx_District 1A: Charlestown,PWDx,,,358-256 Main St  Charlestown  MA  02129,3.0,1A,1.0,A15,Charlestown,2.0,Ward 2,206.0,CD,358-256 Main St,2129.0,Address,88554.0,42.3791,-71.0691,Constituent Call,"(42.3791, -71.0691)"
487365,101001266293,01/31/2015 11:21:18 PM,02/03/2015 08:30:00 AM,02/08/2015 02:38:25 PM,OVERDUE,Closed,Case Closed Case Noted will get to it,Space Savers,Public Works Department,Sanitation,Space Savers,PWDx_District 09: East Boston,PWDx,,,336 Sumner St  East Boston  MA  02128,1.0,09,1.0,A7,East Boston,1.0,Ward 1,103.0,C,336 Sumner St,2128.0,Address,155729.0,42.3673,-71.0357,Constituent Call,"(42.3673, -71.0357)"
487468,101001266455,02/01/2015 12:27:55 PM,02/03/2015 08:30:00 AM,03/01/2015 11:23:48 PM,OVERDUE,Closed,Case Closed Case Noted,Space Savers,Public Works Department,Sanitation,Space Savers,PWDx_District 1A: Charlestown,PWDx,,,INTERSECTION of Lyndeboro St & Middlesex St  Charlestown  MA,3.0,1A,1.0,A15,Charlestown,2.0,Ward 2,206.0,,INTERSECTION Lyndeboro St & Middlesex St,,Intersection,6968.0,42.38,-71.0705,Constituent Call,"(42.38, -71.0705)"
487470,101001266457,02/01/2015 12:29:44 PM,02/03/2015 08:30:00 AM,02/17/2015 07:31:22 AM,OVERDUE,Closed,Case Closed Case Noted,Space Savers,Public Works Department,Sanitation,Space Savers,PWDx_District 05: South Boston,PWDx,,,INTERSECTION of E Seventh St & Springer St  South Boston  MA,6.0,05,2.0,C6,South Boston / South Boston Waterfront,5.0,Ward 7,702.0,,INTERSECTION E Seventh St & Springer St,,Intersection,8334.0,42.3322,-71.0409,Constituent Call,"(42.3322, -71.0409)"
487484,101001266474,02/01/2015 12:39:11 PM,02/03/2015 08:30:00 AM,02/08/2015 02:42:17 PM,OVERDUE,Closed,Case Closed Case Noted will get to them,Space Savers,Public Works Department,Sanitation,Space Savers,PWDx_District 09: East Boston,PWDx,,,INTERSECTION of Orleans St & Sumner St  East Boston  MA,1.0,09,1.0,A7,East Boston,1.0,Ward 1,103.0,,INTERSECTION Orleans St & Sumner St,,Intersection,7741.0,42.3681,-71.038,Constituent Call,"(42.3681, -71.038)"
487526,101001266535,02/01/2015 01:36:08 PM,02/03/2015 08:30:00 AM,02/17/2015 07:43:28 AM,OVERDUE,Closed,Case Closed Case Noted,Space Savers,Public Works Department,Sanitation,Space Savers,PWDx_District 05: South Boston,PWDx,,,INTERSECTION of L St & Summer St  South Boston  MA,6.0,05,2.0,C6,South Boston / South Boston Waterfront,5.0,Ward 6,607.0,,INTERSECTION L St & Summer St,,Intersection,6691.0,42.3373,-71.0355,Constituent Call,"(42.3373, -71.0355)"
487557,101001266580,02/01/2015 02:40:57 PM,02/03/2015 08:30:00 AM,03/01/2015 11:23:38 PM,OVERDUE,Closed,Case Closed Case Noted,Space Savers,Public Works Department,Sanitation,Space Savers,PWDx_District 1A: Charlestown,PWDx,,,9 Monument Sq  Charlestown  MA  02129,3.0,1A,1.0,A15,Charlestown,2.0,Ward 2,203.0,R4,9 Monument Sq,2129.0,Address,97114.0,42.3762,-71.0597,Constituent Call,"(42.3762, -71.0597)"
487615,101001266681,02/01/2015 05:10:34 PM,02/03/2015 08:30:00 AM,02/25/2015 11:17:32 PM,OVERDUE,Closed,Case Closed Case Resolved,Space Savers,Public Works Department,Sanitation,Space Savers,PWDx_District 04: Allston/Brighton,PWDx,,,42 Newcastle Rd  Brighton  MA  02135,11.0,04,9.0,D14,Allston / Brighton,15.0,Ward 22,2210.0,R2,42 Newcastle Rd,2135.0,Address,282577.0,42.3538,-71.1614,Constituent Call,"(42.3538, -71.1614)"
487737,101001266878,02/02/2015 08:10:30 AM,02/03/2015 08:30:00 AM,03/24/2015 08:57:49 AM,OVERDUE,Closed,Case Closed Case Noted,Space Savers,Public Works Department,Sanitation,Space Savers,PWDx_District 1C: Downtown,PWDx,,,INTERSECTION of Beach St & Lincoln St  Boston  MA,4.0,1C,2.0,A1,Downtown / Financial District,4.0,Ward 3,308.0,,INTERSECTION Beach St & Lincoln St,,Intersection,1061.0,42.3509,-71.0585,Constituent Call,"(42.3509, -71.0585)"
488505,101001267913,02/02/2015 04:13:07 PM,02/03/2015 04:13:06 PM,03/21/2015 01:48:06 PM,OVERDUE,Closed,Case Closed Case Resolved Trash cans gone.,Space Savers,Public Works Department,Sanitation,Space Savers,PWDx_District 1C: Downtown,PWDx,,,1-11 Aguadilla St  Roxbury  MA  02118,4.0,1C,2.0,D4,South End,6.0,Ward 9,901.0,EA,1-11 Aguadilla St,2118.0,Address,1216.0,42.342,-71.0743,Constituent Call,"(42.342, -71.0743)"
488802,101001268245,02/02/2015 06:08:04 PM,02/04/2015 08:30:00 AM,02/09/2015 02:40:10 AM,OVERDUE,Closed,Case Closed Case Noted needs to call Police dept,Space Savers,Public Works Department,Sanitation,Space Savers,PWDx_District 09: East Boston,PWDx,,,53-55 Barnes Ave  East Boston  MA  02128,1.0,09,1.0,A7,East Boston,1.0,Ward 1,112.0,R2,53-55 Barnes Ave,2128.0,Address,8269.0,42.3863,-71.0038,Constituent Call,"(42.3863, -71.0038)"
488881,101001268331,02/02/2015 06:37:07 PM,02/04/2015 08:30:00 AM,02/02/2015 06:54:21 PM,ONTIME,Closed,Case Closed Case Noted not removing space savers at this time,Space Savers,Public Works Department,Sanitation,Space Savers,PWDx_District 03: North Dorchester,PWDx,,,1 Hartford Ct  Dorchester  MA  02125,7.0,03,7.0,B2,Roxbury,13.0,Ward 13,1304.0,R1,1 Hartford Ct,2125.0,Address,248189.0,42.3145,-71.0727,Constituent Call,"(42.3145, -71.0727)"
490295,101001270125,02/03/2015 11:36:26 AM,02/04/2015 11:36:26 AM,02/14/2015 01:43:56 PM,OVERDUE,Closed,Case Closed Case Noted,Space Savers,Public Works Department,Sanitation,Space Savers,PWDx_District 02: Jamaica Plain,PWDx,,,123 Morton St  Jamaica Plain  MA  02130,12.0,02,6.0,E13,Jamaica Plain,11.0,Ward 11,1108.0,C,123 Morton St,2130.0,Address,97678.0,42.2999,-71.1073,Constituent Call,"(42.2999, -71.1073)"
490587,101001270616,02/03/2015 01:17:02 PM,02/04/2015 01:17:02 PM,02/25/2015 11:21:01 PM,OVERDUE,Closed,Case Closed Case Resolved,Space Savers,Public Works Department,Sanitation,Space Savers,PWDx_District 04: Allston/Brighton,PWDx,,,24 Tip Top St  Brighton  MA  02135,11.0,04,9.0,D14,Allston / Brighton,15.0,Ward 22,2204.0,R1,24 Tip Top St,2135.0,Address,136070.0,42.3505,-71.1702,Constituent Call,"(42.3505, -71.1702)"
491175,101001271437,02/03/2015 04:34:42 PM,02/04/2015 04:34:41 PM,03/24/2015 07:47:36 AM,OVERDUE,Closed,Case Closed Case Resolved,Space Savers,Public Works Department,Sanitation,Space Savers,PWDx_District 1C: Downtown,PWDx,,https://cityworker.cityofboston.gov:8443/attachments/report/54d13ef6d052d9e62c325de3/closed_photo/Report.jpg,INTERSECTION of W Springfield St & Tremont St  Roxbury  MA,4.0,1C,7.0,D4,South End,6.0,Ward 9,902.0,,INTERSECTION W Springfield St & Tremont St,,Intersection,8426.0,42.3397,-71.0796,Constituent Call,"(42.3397, -71.0796)"
491751,101001272216,02/03/2015 07:47:18 PM,02/05/2015 08:30:00 AM,02/04/2015 08:40:43 AM,ONTIME,Closed,Case Closed Case Noted,Space Savers,Public Works Department,Sanitation,Space Savers,PWDx_Space Saver Removal,PWDx,,,6 Groom St  Dorchester  MA  02125,7.0,03,7.0,B2,Dorchester,13.0,Ward 7,710.0,R3,6 Groom St,2125.0,Address,67284.0,42.32,-71.0664,Constituent Call,"(42.32, -71.0664)"
492181,101001272790,02/04/2015 07:14:40 AM,02/05/2015 08:30:00 AM,02/17/2015 07:21:09 AM,OVERDUE,Closed,Case Closed Case Noted,Space Savers,Public Works Department,Sanitation,Space Savers,PWDx_District 07: South Dorchester,PWDx,,,6 Atherstone St  Dorchester  MA  02124,8.0,07,4.0,C11,Dorchester,8.0,Ward 17,1711.0,R1,6 Atherstone St,2124.0,Address,5832.0,42.2835,-71.0685,Constituent Call,"(42.2835, -71.0685)"
492788,101001273727,02/04/2015 09:52:20 AM,02/05/2015 09:52:20 AM,03/24/2015 07:49:30 AM,OVERDUE,Closed,Case Closed Case Resolved,Space Savers,Public Works Department,Sanitation,Space Savers,PWDx_District 1C: Downtown,PWDx,,https://cityworker.cityofboston.gov:8443/attachments/report/54d2322ed0529b7ce4ce3e7b/closed_photo/Report.jpg,39 E Springfield St  Roxbury  MA  02118,4.0,1C,2.0,D4,South End,6.0,Ward 8,802.0,R4,39 E Springfield St,2118.0,Address,129851.0,42.3359,-71.0753,Constituent Call,"(42.3359, -71.0753)"
493297,101001274474,02/04/2015 12:04:18 PM,02/05/2015 12:04:18 PM,02/25/2015 11:22:01 PM,OVERDUE,Closed,Case Closed Case Resolved,Space Savers,Public Works Department,Sanitation,Space Savers,PWDx_District 04: Allston/Brighton,PWDx,,,500 Cambridge St  Allston  MA  02134,11.0,04,9.0,D14,Allston,15.0,21,2106.0,E,500 Cambridge St,2134.0,Address,155936.0,42.353,-71.1375,Constituent Call,"(42.353, -71.1375)"
493618,101001274931,02/04/2015 01:45:39 PM,02/05/2015 01:45:38 PM,02/25/2015 11:20:35 PM,OVERDUE,Closed,Case Closed Case Resolved,Space Savers,Public Works Department,Sanitation,Space Savers,PWDx_District 04: Allston/Brighton,PWDx,,,34 Chiswick Rd  Brighton  MA  02135,11.0,04,9.0,D14,Allston / Brighton,15.0,Ward 21,2115.0,A,34 Chiswick Rd,2135.0,Address,32433.0,42.3389,-71.1506,Constituent Call,"(42.3389, -71.1506)"
495124,101001277307,02/05/2015 09:32:20 AM,02/06/2015 09:32:20 AM,04/14/2015 07:20:10 AM,OVERDUE,Closed,Case Closed Case Resolved,Space Savers,Public Works Department,Sanitation,Space Savers,PWDx_District 10B: Roxbury,PWDx,,,15 Waldren Rd  Roxbury  MA  02119,9.0,10B,7.0,E13,Roxbury,13.0,Ward 11,1103.0,A,15 Waldren Rd,2119.0,Address,141550.0,42.3155,-71.0955,Constituent Call,"(42.3155, -71.0955)"
495634,101001278064,02/05/2015 01:04:00 PM,02/06/2015 01:04:00 PM,02/17/2015 07:53:45 AM,OVERDUE,Closed,Case Closed Case Noted,Space Savers,Public Works Department,Sanitation,Space Savers,PWDx_District 05: South Boston,PWDx,,,444 E Third St  South Boston  MA  02127,6.0,05,2.0,C6,South Boston / South Boston Waterfront,5.0,Ward 6,605.0,C,444 E Third St,2127.0,Address,134909.0,42.3366,-71.0421,Constituent Call,"(42.3366, -71.0421)"
495953,101001278588,02/05/2015 04:19:58 PM,02/06/2015 04:19:58 PM,02/06/2015 10:17:59 AM,ONTIME,Closed,Case Closed Case Noted  not removing at this time,Space Savers,Public Works Department,Sanitation,Space Savers,PWDx_District 03: North Dorchester,PWDx,,,8 S Sydney St  Dorchester  MA  02125,7.0,03,3.0,C11,Dorchester,7.0,Ward 13,1310.0,CD,8 S Sydney St,2125.0,Address,133367.0,42.3113,-71.0537,Constituent Call,"(42.3113, -71.0537)"
496060,101001278735,02/05/2015 05:31:36 PM,02/09/2015 08:30:00 AM,02/05/2015 05:32:51 PM,ONTIME,Closed,Case Closed Case Invalid test,Space Savers,Public Works Department,Sanitation,Space Savers,PWDx_District 1B: North End,PWDx,,,1 City Hall Plz  Boston  MA  02108,3.0,1B,1.0,A1,Downtown / Financial District,3.0,03,306.0,E,1 City Hall Plz,2108.0,Address,32856.0,42.3604,-71.0583,Constituent Call,"(42.3604, -71.0583)"
496144,101001278865,02/05/2015 06:32:07 PM,02/09/2015 08:30:00 AM,02/17/2015 07:22:04 AM,OVERDUE,Closed,Case Closed Case Noted,Space Savers,Public Works Department,Sanitation,Space Savers,PWDx_District 07: South Dorchester,PWDx,,,INTERSECTION of Southern Ave & Talbot Ave  Dorchester  MA,8.0,07,4.0,B3,Dorchester,9.0,Ward 17,1703.0,,INTERSECTION Southern Ave & Talbot Ave,,Intersection,8409.0,42.2906,-71.0733,Constituent Call,"(42.2906, -71.0733)"
496170,101001278908,02/05/2015 06:54:18 PM,02/09/2015 08:30:00 AM,02/24/2015 02:56:46 PM,OVERDUE,Closed,Case Closed Case Noted not taking space savers,Space Savers,Public Works Department,Sanitation,Space Savers,PWDx_District 03: North Dorchester,PWDx,,,196-196A Savin Hill Ave  Dorchester  MA  02125,7.0,03,3.0,C11,Dorchester,7.0,Ward 13,1310.0,R2,196-196A Savin Hill Ave,2125.0,Address,123257.0,42.3088,-71.0497,Constituent Call,"(42.3088, -71.0497)"
496387,101001279253,02/06/2015 07:35:22 AM,02/09/2015 08:30:00 AM,02/25/2015 11:31:57 PM,OVERDUE,Closed,Case Closed Case Resolved,Space Savers,Public Works Department,Sanitation,Space Savers,PWDx_District 04: Allston/Brighton,PWDx,,,9 Saybrook St  Brighton  MA  02135,11.0,04,9.0,D14,Allston / Brighton,15.0,Ward 22,2206.0,CM,9 Saybrook St,2135.0,Address,169521.0,42.3548,-71.1495,Constituent Call,"(42.3548, -71.1495)"
496427,101001279298,02/06/2015 07:53:26 AM,02/09/2015 08:30:00 AM,03/02/2015 05:50:50 AM,OVERDUE,Closed,Case Closed Case Noted  space savers will be collected on trash day beginning March 2  2015,Space Savers,Public Works Department,Sanitation,Space Savers,PWDx_District 1B: North End,PWDx,,,10 Stillman St  Boston  MA  02113,3.0,1B,1.0,A1,Boston,3.0,3,303.0,,10 Stillman St,2113.0,Address,342055.0,42.3594,-71.0587,Constituent Call,"(0, 0)"
496496,101001279394,02/06/2015 08:25:36 AM,02/09/2015 08:30:00 AM,02/06/2015 12:20:10 PM,ONTIME,Closed,Case Closed Duplicate of Existing Case,Space Savers,Public Works Department,Sanitation,Space Savers,PWDx_District 06: West Roxbury and Roslindale,PWDx,,,7 Maplewood St  West Roxbury  MA  02132,12.0,06,6.0,E5,West Roxbury,12.0,Ward 20,2010.0,CM,7 Maplewood St,2132.0,Address,89479.0,42.2705,-71.1476,Constituent Call,"(42.2705, -71.1476)"
496529,101001279445,02/06/2015 08:36:48 AM,02/09/2015 08:36:48 AM,03/01/2015 11:23:25 PM,OVERDUE,Closed,Case Closed Case Noted,Space Savers,Public Works Department,Sanitation,Space Savers,PWDx_District 1A: Charlestown,PWDx,,,INTERSECTION of Bunker Hill St & Mystic St  Charlestown  MA,3.0,1A,1.0,A15,Charlestown,2.0,Ward 2,205.0,,INTERSECTION Bunker Hill St & Mystic St,,Intersection,2190.0,42.3792,-71.0632,Constituent Call,"(42.3792, -71.0632)"
496543,101001279467,02/06/2015 08:43:22 AM,02/09/2015 08:43:22 AM,02/08/2015 09:36:45 AM,ONTIME,Closed,Case Closed Case Noted,Space Savers,Public Works Department,Sanitation,Space Savers,PWDx_District 10A: Roxbury,PWDx,,,80-100 Smith St  Mission Hill  MA  02120,9.0,10A,8.0,B2,Mission Hill,14.0,Ward 10,1002.0,A,80-100 Smith St,2120.0,Address,128192.0,42.3339,-71.1005,Constituent Call,"(42.3339, -71.1005)"
496548,101001279473,02/06/2015 08:44:20 AM,02/09/2015 08:44:19 AM,02/08/2015 11:34:27 AM,ONTIME,Closed,Case Closed Case Noted,Space Savers,Public Works Department,Sanitation,Space Savers,PWDx_District 10A: Roxbury,PWDx,,,60-68 Mcgreevey Way  Mission Hill  MA  02120,9.0,10A,8.0,B2,Mission Hill,13.0,10,1001.0,,60-68 Mcgreevey Way,2120.0,Address,350910.0,42.3594,-71.0587,Constituent Call,"(0, 0)"
496614,101001279596,02/06/2015 09:18:16 AM,02/09/2015 09:18:16 AM,04/14/2015 08:06:29 AM,OVERDUE,Closed,Case Closed Case Resolved,Space Savers,Public Works Department,Sanitation,Space Savers,PWDx_District 10B: Roxbury,PWDx,,,179 Northampton St  Roxbury  MA  02118,7.0,10B,7.0,D4,Roxbury,13.0,Ward 9,903.0,R4,179 Northampton St,2118.0,Address,103695.0,42.3374,-71.0791,Constituent Call,"(42.3374, -71.0791)"
496629,101001279617,02/06/2015 09:23:11 AM,02/09/2015 09:23:11 AM,02/19/2015 07:06:25 PM,OVERDUE,Closed,Case Closed Case Noted case noted,Space Savers,Public Works Department,Sanitation,Space Savers,PWDx_District 02: Jamaica Plain,PWDx,,,53 Rockvale Cir  Jamaica Plain  MA  02130,9.0,02,6.0,E13,Jamaica Plain,11.0,11,1107.0,CD,53 Rockvale Cir,2130.0,Address,117826.0,42.3067,-71.1043,Constituent Call,"(42.3067, -71.1043)"
496682,101001279702,02/06/2015 09:49:43 AM,02/09/2015 09:49:43 AM,02/19/2015 07:08:52 PM,OVERDUE,Closed,Case Closed Case Noted case noted,Space Savers,Public Works Department,Sanitation,Space Savers,PWDx_District 02: Jamaica Plain,PWDx,,,12 Saint Peter St  Jamaica Plain  MA  02130,9.0,02,6.0,E13,Jamaica Plain,11.0,Ward 19,1901.0,R3,12 Saint Peter St,2130.0,Address,121472.0,42.3187,-71.1076,Constituent Call,"(42.3187, -71.1076)"
496729,101001279768,02/06/2015 10:09:14 AM,02/09/2015 10:09:14 AM,04/14/2015 09:19:44 AM,OVERDUE,Closed,Case Closed Case Resolved,Space Savers,Public Works Department,Sanitation,Space Savers,PWDx_District 10B: Roxbury,PWDx,,,260-256 Warren St  Roxbury  MA  02119,7.0,10B,7.0,B2,Roxbury,13.0,Ward 12,1201.0,RC,260-256 Warren St,2119.0,Address,161068.0,42.322,-71.0817,Constituent Call,"(42.322, -71.0817)"
496776,101001279847,02/06/2015 10:27:53 AM,02/09/2015 10:27:53 AM,02/17/2015 08:48:21 AM,OVERDUE,Closed,Case Closed Case Noted,Space Savers,Public Works Department,Sanitation,Space Savers,PWDx_District 05: South Boston,PWDx,,,34 Mercer St  South Boston  MA  02127,6.0,05,2.0,C6,South Boston / South Boston Waterfront,5.0,Ward 7,704.0,R2,34 Mercer St,2127.0,Address,94283.0,42.3324,-71.0488,Constituent Call,"(42.3324, -71.0488)"
496899,101001280018,02/06/2015 11:27:57 AM,02/09/2015 11:27:56 AM,03/01/2015 11:23:14 PM,OVERDUE,Closed,Case Closed Case Noted,Space Savers,Public Works Department,Sanitation,Space Savers,PWDx_District 1A: Charlestown,PWDx,,,77-85 Monument St  Charlestown  MA  02129,3.0,1A,1.0,A15,Charlestown,2.0,02,204.0,E,77-85 Monument St,2129.0,Address,341435.0,42.3594,-71.0587,Constituent Call,"(0, 0)"
496993,101001280161,02/06/2015 12:19:18 PM,02/09/2015 12:19:18 PM,02/08/2015 05:29:44 PM,ONTIME,Closed,Case Closed Case Noted not removing at this time,Space Savers,Public Works Department,Sanitation,Space Savers,PWDx_District 03: North Dorchester,PWDx,,,INTERSECTION of Buttonwood St & Grafton St  Dorchester  MA,7.0,03,3.0,C11,Dorchester,7.0,Ward 13,1307.0,,INTERSECTION Buttonwood St & Grafton St,,Intersection,2268.0,42.3199,-71.0558,Constituent Call,"(42.3199, -71.0558)"
497064,101001280295,02/06/2015 12:59:58 PM,02/09/2015 12:59:58 PM,02/08/2015 05:31:57 PM,ONTIME,Closed,Case Closed Case Noted not removing space savers at this time,Space Savers,Public Works Department,Sanitation,Space Savers,PWDx_District 03: North Dorchester,PWDx,,,11 S Sydney St  Dorchester  MA  02125,7.0,03,3.0,C11,Dorchester,7.0,13,1310.0,R1,11 S Sydney St,2125.0,Address,133243.0,42.312,-71.0533,Constituent Call,"(42.312, -71.0533)"
497210,101001280533,02/06/2015 02:23:37 PM,02/09/2015 02:23:37 PM,03/01/2015 11:22:58 PM,OVERDUE,Closed,Case Closed Case Noted,Space Savers,Public Works Department,Sanitation,Space Savers,PWDx_District 1A: Charlestown,PWDx,,,44 Sullivan St  Charlestown  MA  02129,3.0,1A,1.0,A15,Charlestown,2.0,02,206.0,R1,44 Sullivan St,2129.0,Address,131823.0,42.3787,-71.0659,Constituent Call,"(42.3787, -71.0659)"
497223,101001280548,02/06/2015 02:29:45 PM,02/09/2015 02:29:45 PM,03/01/2015 11:22:45 PM,OVERDUE,Closed,Case Closed Case Noted,Space Savers,Public Works Department,Sanitation,Space Savers,PWDx_District 1A: Charlestown,PWDx,,,285 Bunker Hill St  Charlestown  MA  02129,3.0,1A,1.0,A15,Charlestown,2.0,Ward 2,205.0,CM,285 Bunker Hill St,2129.0,Address,23483.0,42.3805,-71.0653,Constituent Call,"(42.3805, -71.0653)"
497363,101001280783,02/06/2015 04:18:02 PM,02/09/2015 04:18:02 PM,03/02/2015 05:51:21 AM,OVERDUE,Closed,Case Closed Case Noted  space savers will be collected on trash day beginning March 2  2015,Space Savers,Public Works Department,Sanitation,Space Savers,PWDx_District 1B: North End,PWDx,,,105-107 Fulton St  Boston  MA  02109,3.0,1B,1.0,A1,Downtown / Financial District,3.0,Ward 3,301.0,R4,105-107 Fulton St,2109.0,Address,165488.0,42.3624,-71.053,Constituent Call,"(42.3624, -71.053)"
497374,101001280802,02/06/2015 04:24:54 PM,02/09/2015 04:24:54 PM,02/19/2015 07:08:21 PM,OVERDUE,Closed,Case Closed Case Noted case noted,Space Savers,Public Works Department,Sanitation,Space Savers,PWDx_District 02: Jamaica Plain,PWDx,,,14 Grovenor Rd  Jamaica Plain  MA  02130,9.0,02,6.0,E13,Jamaica Plain,11.0,Ward 19,1905.0,R3,14 Grovenor Rd,2130.0,Address,67634.0,42.3142,-71.1148,Constituent Call,"(42.3142, -71.1148)"
497697,101001281326,02/07/2015 08:52:03 AM,02/10/2015 08:30:00 AM,02/19/2015 07:07:36 PM,OVERDUE,Closed,Case Closed Case Noted case noted,Space Savers,Public Works Department,Sanitation,Space Savers,PWDx_District 02: Jamaica Plain,PWDx,,,8 Parkton Rd  Jamaica Plain  MA  02130,9.0,02,6.0,E13,Jamaica Plain,11.0,Ward 10,1009.0,R3,8 Parkton Rd,2130.0,Address,108209.0,42.3216,-71.1141,Constituent Call,"(42.3216, -71.1141)"
497761,101001281432,02/07/2015 10:22:06 AM,02/10/2015 08:30:00 AM,03/24/2015 08:04:57 AM,OVERDUE,Closed,Case Closed Case Resolved,Space Savers,Public Works Department,Sanitation,Space Savers,PWDx_District 1C: Downtown,PWDx,,https://cityworker.cityofboston.gov:8443/attachments/report/54d62da7d0529b7ce4cf563e/closed_photo/Report.jpg,38-44 Aguadilla St  Roxbury  MA  02118,4.0,1C,2.0,D4,South End,6.0,09,901.0,,38-44 Aguadilla St,2118.0,Address,350991.0,42.3594,-71.0587,Constituent Call,"(0, 0)"
497793,101001281468,02/07/2015 10:43:54 AM,02/10/2015 08:30:00 AM,02/17/2015 08:40:40 AM,OVERDUE,Closed,Case Closed Case Noted,Space Savers,Public Works Department,Sanitation,Space Savers,PWDx_District 05: South Boston,PWDx,,,INTERSECTION of E Fourth St & K St  South Boston  MA,6.0,05,2.0,C6,South Boston / South Boston Waterfront,5.0,Ward 6,606.0,,INTERSECTION E Fourth St & K St,,Intersection,5047.0,42.3347,-71.0374,Constituent Call,"(42.3347, -71.0374)"
497852,101001281567,02/07/2015 11:51:46 AM,02/10/2015 08:30:00 AM,02/08/2015 01:45:31 PM,ONTIME,Closed,Case Closed Case Noted,Space Savers,Public Works Department,Sanitation,Space Savers,PWDx_District 09: East Boston,PWDx,,,200 Bennington St  East Boston  MA  02128,1.0,09,1.0,A7,East Boston,1.0,Ward 1,106.0,RC,200 Bennington St,2128.0,Address,14657.0,42.3777,-71.0318,Constituent Call,"(42.3777, -71.0318)"
497931,101001281702,02/07/2015 01:29:00 PM,02/10/2015 08:30:00 AM,02/20/2015 08:12:33 PM,OVERDUE,Closed,Case Closed Case Noted noted,Space Savers,Public Works Department,Sanitation,Space Savers,PWDx_District 02: Jamaica Plain,PWDx,,,8 Parkton Rd  Jamaica Plain  MA  02130,9.0,02,6.0,E13,Jamaica Plain,11.0,Ward 10,1009.0,R3,8 Parkton Rd,2130.0,Address,108209.0,42.3216,-71.1141,Constituent Call,"(42.3216, -71.1141)"
497976,101001281780,02/07/2015 02:25:16 PM,02/10/2015 08:30:00 AM,03/01/2015 11:22:34 PM,OVERDUE,Closed,Case Closed Case Noted,Space Savers,Public Works Department,Sanitation,Space Savers,PWDx_District 1A: Charlestown,PWDx,,,30 Cross St  Charlestown  MA  02129,3.0,1A,1.0,A15,Charlestown,2.0,Ward 2,203.0,R2,30 Cross St,2129.0,Address,44528.0,42.3772,-71.0625,Constituent Call,"(42.3772, -71.0625)"
498004,101001281819,02/07/2015 02:51:42 PM,02/10/2015 08:30:00 AM,03/02/2015 05:51:49 AM,OVERDUE,Closed,Case Closed Case Noted  space savers will be collected on trash day beginning March 2  2015,Space Savers,Public Works Department,Sanitation,Space Savers,PWDx_District 1B: North End,PWDx,,,INTERSECTION of Fleet St & Garden Court St  Boston  MA,3.0,1B,1.0,A1,Downtown / Financial District,3.0,Ward 3,301.0,,INTERSECTION Fleet St & Garden Court St,,Intersection,4944.0,42.3647,-71.0532,Constituent Call,"(42.3647, -71.0532)"
498017,101001281857,02/07/2015 03:23:04 PM,02/10/2015 08:30:00 AM,02/17/2015 07:54:07 AM,OVERDUE,Closed,Case Closed Case Noted,Space Savers,Public Works Department,Sanitation,Space Savers,PWDx_District 05: South Boston,PWDx,,,INTERSECTION of Columbia Rd & N St  South Boston  MA,6.0,05,2.0,C6,South Boston / South Boston Waterfront,5.0,Ward 7,701.0,,INTERSECTION Columbia Rd & N St,,Intersection,3265.0,42.3309,-71.0311,Constituent Call,"(42.3309, -71.0311)"
498021,101001281867,02/07/2015 03:28:32 PM,02/10/2015 08:30:00 AM,03/01/2015 11:22:18 PM,OVERDUE,Closed,Case Closed Case Noted,Space Savers,Public Works Department,Sanitation,Space Savers,PWDx_District 1A: Charlestown,PWDx,,,28 Auburn St  Charlestown  MA  02129,3.0,1A,1.0,A15,Charlestown,2.0,Ward 2,207.0,R1,28 Auburn St,2129.0,Address,6475.0,42.3812,-71.0693,Constituent Call,"(42.3812, -71.0693)"
498027,101001281877,02/07/2015 03:42:22 PM,02/10/2015 08:30:00 AM,02/08/2015 01:42:53 PM,ONTIME,Closed,Case Closed Case Noted,Space Savers,Public Works Department,Sanitation,Space Savers,PWDx_District 09: East Boston,PWDx,,,303 Saratoga St  East Boston  MA  02128,1.0,09,1.0,A7,East Boston,1.0,Ward 1,110.0,R3,303 Saratoga St,2128.0,Address,122593.0,42.3782,-71.0317,Constituent Call,"(42.3782, -71.0317)"
498422,101001282446,02/08/2015 01:57:17 PM,02/10/2015 08:30:00 AM,03/02/2015 05:52:22 AM,OVERDUE,Closed,Case Closed Case Noted  Space savers will be collected on trash day beginning March 2  2105,Space Savers,Public Works Department,Sanitation,Space Savers,PWDx_District 1B: North End,PWDx,,,INTERSECTION of Commercial St & Richmond St  Boston  MA,3.0,1B,1.0,A1,Downtown / Financial District,3.0,Ward 3,301.0,,INTERSECTION Commercial St & Richmond St,,Intersection,3318.0,42.362,-71.0526,Constituent Call,"(42.362, -71.0526)"
502187,101001287361,02/11/2015 08:12:45 AM,02/12/2015 08:30:00 AM,03/24/2015 07:53:24 AM,OVERDUE,Closed,Case Closed Case Resolved,Space Savers,Public Works Department,Sanitation,Space Savers,PWDx_District 1C: Downtown,PWDx,,https://cityworker.cityofboston.gov:8443/attachments/report/54db55a7d052d9e62c32ebfa/closed_photo/Report.jpg,344 Shawmut Ave  Roxbury  MA  02118,4.0,1C,2.0,D4,South End,4.0,Ward 3,307.0,EA,344 Shawmut Ave,2118.0,Address,309946.0,42.3415,-71.0713,Constituent Call,"(42.3415, -71.0713)"
502363,101001287676,02/11/2015 09:15:54 AM,02/12/2015 09:15:54 AM,03/24/2015 08:02:07 AM,OVERDUE,Closed,Case Closed Case Resolved,Space Savers,Public Works Department,Sanitation,Space Savers,PWDx_District 1C: Downtown,PWDx,,https://cityworker.cityofboston.gov:8443/attachments/report/54db6567d052d9e62c32f394/closed_photo/Report.jpg,INTERSECTION of Shawmut Ave & Worcester St  Roxbury  MA,4.0,1C,7.0,D4,South End,6.0,Ward 9,902.0,,INTERSECTION Shawmut Ave & Worcester St,,Intersection,8348.0,42.3383,-71.0766,Constituent Call,"(42.3383, -71.0766)"
502689,101001288174,02/11/2015 11:15:35 AM,02/12/2015 11:15:35 AM,02/11/2015 12:07:37 PM,ONTIME,Closed,Case Closed Case Resolved we will get to the space savers as soon as we can,Space Savers,Public Works Department,Sanitation,Space Savers,PWDx_District 09: East Boston,PWDx,,,424 Chelsea St  East Boston  MA  02128,1.0,09,1.0,A7,East Boston,1.0,Ward 1,110.0,RC,424 Chelsea St,2128.0,Address,30558.0,42.3804,-71.0268,Constituent Call,"(42.3804, -71.0268)"
503546,101001289405,02/11/2015 06:12:39 PM,02/13/2015 08:30:00 AM,03/24/2015 08:35:18 AM,OVERDUE,Closed,Case Closed Case Resolved,Space Savers,Public Works Department,Sanitation,Space Savers,PWDx_District 1C: Downtown,PWDx,,https://cityworker.cityofboston.gov:8443/attachments/report/54dbe30dd052d9e62c331c94/closed_photo/Report.jpg,90 W Newton St  Roxbury  MA  02118,4.0,1C,2.0,D4,South End,6.0,09,901.0,E,90 W Newton St,2118.0,Address,174059.0,42.3407,-71.076,Constituent Call,"(42.3407, -71.076)"
503858,101001289917,02/11/2015 11:02:41 PM,02/13/2015 08:30:00 AM,03/02/2015 05:52:51 AM,OVERDUE,Closed,Case Closed Case Noted  Space savers will be collected on trash day  beginning March 2  2105,Space Savers,Public Works Department,Sanitation,Space Savers,PWDx_District 1B: North End,PWDx,,,4 Garden Court St  Boston  MA  02113,3.0,1B,1.0,A1,Downtown / Financial District,3.0,Ward 3,303.0,RC,4 Garden Court St,2113.0,Address,62543.0,42.3642,-71.0532,Constituent Call,"(42.3642, -71.0532)"
504612,101001291059,02/12/2015 11:40:54 AM,02/13/2015 11:40:54 AM,02/17/2015 10:09:08 AM,OVERDUE,Closed,Case Closed Case Noted  code enforcement 617-6353740,Space Savers,Public Works Department,Sanitation,Space Savers,PWDx_District 1A: Charlestown,PWDx,,,0 Union St  Charlestown  MA  02129,3.0,1A,1.0,A15,Charlestown,2.0,Ward 2,201.0,RL,0 Union St,2129.0,Address,139295.0,42.374,-71.0647,Constituent Call,"(42.374, -71.0647)"
505259,101001292099,02/12/2015 06:06:43 PM,02/17/2015 08:30:00 AM,04/14/2015 06:48:02 AM,OVERDUE,Closed,Case Closed Case Resolved,Space Savers,Public Works Department,Sanitation,Space Savers,PWDx_District 1C: Downtown,PWDx,,,520 Shawmut Ave  Roxbury  MA  02118,4.0,1C,7.0,D4,South End,6.0,Ward 9,902.0,CM,520 Shawmut Ave,2118.0,Address,126425.0,42.3376,-71.0774,Constituent Call,"(42.3376, -71.0774)"
505429,101001292360,02/12/2015 08:43:18 PM,02/17/2015 08:30:00 AM,03/24/2015 08:39:16 AM,OVERDUE,Closed,Case Closed Case Resolved,Space Savers,Public Works Department,Sanitation,Space Savers,PWDx_District 1C: Downtown,PWDx,,https://cityworker.cityofboston.gov:8443/attachments/report/54dd56efd052d9e62c3386ad/closed_photo/Report.jpg,5 Monsignor Reynolds Way  Roxbury  MA  02118,4.0,1C,2.0,D4,Roxbury,6.0,8,801.0,,5 Monsignor Reynolds Way,2118.0,Address,342528.0,42.3594,-71.0587,Constituent Call,"(0, 0)"
505431,101001292362,02/12/2015 08:44:25 PM,02/17/2015 08:30:00 AM,03/24/2015 08:05:16 AM,OVERDUE,Closed,Case Closed Case Resolved,Space Savers,Public Works Department,Sanitation,Space Savers,PWDx_District 1C: Downtown,PWDx,,https://cityworker.cityofboston.gov:8443/attachments/report/54dd582ad052d9e62c3386f6/closed_photo/Report.jpg,38-44 Aguadilla St  Roxbury  MA  02118,4.0,1C,2.0,D4,South End,6.0,09,901.0,,38-44 Aguadilla St,2118.0,Address,350991.0,42.3594,-71.0587,Constituent Call,"(0, 0)"
505912,101001293037,02/13/2015 09:58:59 AM,02/17/2015 09:58:59 AM,02/17/2015 09:46:27 AM,ONTIME,Closed,Case Closed Case Resolved,Space Savers,Public Works Department,Sanitation,Space Savers,PWDx_District 06: West Roxbury and Roslindale,PWDx,,,580-582 Lagrange St  West Roxbury  MA  02132,12.0,06,6.0,E5,West Roxbury,12.0,Ward 20,2012.0,R2,580-582 Lagrange St,2132.0,Address,82832.0,42.2858,-71.1641,Constituent Call,"(42.2858, -71.1641)"
506093,101001293287,02/13/2015 11:13:50 AM,02/17/2015 11:13:50 AM,02/17/2015 10:12:14 AM,ONTIME,Closed,Case Closed Case Noted  code enforcemnt 617-635-4896,Space Savers,Public Works Department,Sanitation,Space Savers,PWDx_District 1A: Charlestown,PWDx,,,9-15 Green St  Charlestown  MA  02129,3.0,1A,1.0,A15,Charlestown,2.0,02,201.0,E,9-15 Green St,2129.0,Address,165758.0,42.3762,-71.064,Constituent Call,"(42.3762, -71.064)"
506341,101001293644,02/13/2015 01:35:30 PM,02/17/2015 01:35:29 PM,03/18/2015 12:52:52 PM,OVERDUE,Closed,Case Closed Case Resolved savers removed,Space Savers,Public Works Department,Sanitation,Space Savers,PWDx_District 05: South Boston,PWDx,,,8-10 Silver St  South Boston  MA  02127,6.0,05,2.0,C6,South Boston / South Boston Waterfront,5.0,Ward 6,601.0,C,8-10 Silver St,2127.0,Address,127469.0,42.3421,-71.0568,Constituent Call,"(42.3421, -71.0568)"
506365,101001293685,02/13/2015 01:52:49 PM,02/17/2015 01:52:49 PM,02/17/2015 03:34:43 PM,OVERDUE,Closed,Case Closed Case Noted will get there as soon as possible,Space Savers,Public Works Department,Sanitation,Space Savers,PWDx_District 09: East Boston,PWDx,,,376 Sumner St  East Boston  MA  02128,1.0,09,1.0,A7,East Boston,1.0,Ward 1,101.0,R1,376 Sumner St,2128.0,Address,132446.0,42.3667,-71.0343,Constituent Call,"(42.3667, -71.0343)"
506421,101001293764,02/13/2015 02:31:35 PM,02/17/2015 02:31:35 PM,02/17/2015 03:40:17 PM,OVERDUE,Closed,Case Closed Case Resolved will get to it as soon as possible,Space Savers,Public Works Department,Sanitation,Space Savers,PWDx_District 09: East Boston,PWDx,,,850 Saratoga St  East Boston  MA  02128,1.0,09,1.0,A7,East Boston,1.0,Ward 1,111.0,R2,850 Saratoga St,2128.0,Address,122841.0,42.3852,-71.0138,Constituent Call,"(42.3852, -71.0138)"
506422,101001293767,02/13/2015 02:31:47 PM,02/17/2015 02:31:45 PM,02/17/2015 03:43:46 PM,OVERDUE,Closed,Case Closed Case Resolved will get to them as soon as possible,Space Savers,Public Works Department,Sanitation,Space Savers,PWDx_District 09: East Boston,PWDx,,,850 Saratoga St  East Boston  MA  02128,1.0,09,1.0,A7,East Boston,1.0,Ward 1,111.0,R2,850 Saratoga St,2128.0,Address,122841.0,42.3852,-71.0138,Constituent Call,"(42.3852, -71.0138)"
506436,101001293790,02/13/2015 02:45:25 PM,02/17/2015 02:45:24 PM,02/17/2015 06:17:19 AM,ONTIME,Closed,Case Closed Case Noted,Space Savers,Public Works Department,Sanitation,Space Savers,PWDx_District 07: South Dorchester,PWDx,,,7 Balsam St  Dorchester  MA  02124,8.0,07,4.0,B3,Greater Mattapan,9.0,Ward 14,1412.0,R1,7 Balsam St,2124.0,Address,8089.0,42.287,-71.0899,Constituent Call,"(42.287, -71.0899)"
506623,101001294066,02/13/2015 04:48:07 PM,02/17/2015 04:48:07 PM,03/24/2015 08:39:32 AM,OVERDUE,Closed,Case Closed Case Resolved,Space Savers,Public Works Department,Sanitation,Space Savers,PWDx_District 1C: Downtown,PWDx,,https://cityworker.cityofboston.gov:8443/attachments/report/54de711dd0525ada037e31cb/closed_photo/Report.jpg,5 Monsignor Reynolds Way  Roxbury  MA  02118,4.0,1C,2.0,D4,Roxbury,6.0,8,801.0,,5 Monsignor Reynolds Way,2118.0,Address,342528.0,42.3594,-71.0587,Constituent Call,"(0, 0)"
506988,101001294606,02/14/2015 09:09:13 AM,02/18/2015 08:30:00 AM,03/21/2015 09:40:59 AM,OVERDUE,Closed,Case Closed Case Resolved Buckets are gone,Space Savers,Public Works Department,Sanitation,Space Savers,PWDx_District 1C: Downtown,PWDx,,https://cityworker.cityofboston.gov:8443/attachments/report/54df7b82d05205735da3f357/closed_photo/Report.jpg,38-44 Aguadilla St  Roxbury  MA  02118,4.0,1C,2.0,D4,South End,6.0,09,901.0,,38-44 Aguadilla St,2118.0,Address,350991.0,42.3594,-71.0587,Constituent Call,"(0, 0)"
507126,101001294791,02/14/2015 11:20:25 AM,02/18/2015 08:30:00 AM,02/17/2015 04:12:36 PM,ONTIME,Closed,Case Closed Case Resolved will get there as soon as possible,Space Savers,Public Works Department,Sanitation,Space Savers,PWDx_District 09: East Boston,PWDx,,,210 Everett St  East Boston  MA  02128,1.0,09,1.0,A7,East Boston,1.0,Ward 1,101.0,R3,210 Everett St,2128.0,Address,231904.0,42.366,-71.0309,Constituent Call,"(42.366, -71.0309)"
507162,101001294840,02/14/2015 11:49:09 AM,02/18/2015 08:30:00 AM,02/17/2015 04:12:05 PM,ONTIME,Closed,Case Closed Case Resolved will get them removed as soon as possible,Space Savers,Public Works Department,Sanitation,Space Savers,PWDx_District 09: East Boston,PWDx,,,702 Saratoga St  East Boston  MA  02128,1.0,09,1.0,A7,East Boston,1.0,Ward 1,111.0,R1,702 Saratoga St,2128.0,Address,122766.0,42.3831,-71.0194,Constituent Call,"(42.3831, -71.0194)"
507452,101001295220,02/14/2015 04:40:24 PM,02/18/2015 08:30:00 AM,02/20/2015 01:12:01 AM,OVERDUE,Closed,Case Closed Case Resolved,Space Savers,Public Works Department,Sanitation,Space Savers,PWDx_District 08: Hyde Park,PWDx,,,62 Rosewood St  Mattapan  MA  02126,8.0,08,4.0,E18,Greater Mattapan,9.0,Ward 18,1804.0,R2,62 Rosewood St,2126.0,Address,118569.0,42.2673,-71.0986,Constituent Call,"(42.2673, -71.0986)"
508742,101001296780,02/15/2015 07:33:40 PM,02/18/2015 08:30:00 AM,04/14/2015 08:08:55 AM,OVERDUE,Closed,Case Closed Case Resolved,Space Savers,Public Works Department,Sanitation,Space Savers,PWDx_District 10A: Roxbury,PWDx,,,802 Parker St  Mission Hill  MA  02120,9.0,10A,8.0,B2,Mission Hill,14.0,Ward 10,1005.0,R3,802 Parker St,2120.0,Address,107872.0,42.3287,-71.0988,Constituent Call,"(42.3287, -71.0988)"
509617,101001297814,02/16/2015 11:17:01 AM,02/18/2015 08:30:00 AM,04/14/2015 08:01:19 AM,OVERDUE,Closed,Case Closed Case Resolved,Space Savers,Public Works Department,Sanitation,Space Savers,PWDx_District 10A: Roxbury,PWDx,,,798 Parker St  Mission Hill  MA  02120,9.0,10A,8.0,B2,Mission Hill,14.0,Ward 10,1005.0,RL,798 Parker St,2120.0,Address,107870.0,42.3288,-71.0988,Constituent Call,"(42.3288, -71.0988)"
509708,101001297932,02/16/2015 11:53:21 AM,02/18/2015 08:30:00 AM,03/18/2015 05:15:20 AM,OVERDUE,Closed,Case Closed Case Noted There is no space saver at this location.,Space Savers,Public Works Department,Sanitation,Space Savers,PWDx_District 04: Allston/Brighton,PWDx,,,19-21 Farrington Ave  Allston  MA  02134,11.0,04,9.0,D14,Allston / Brighton,15.0,Ward 21,2104.0,C,19-21 Farrington Ave,2134.0,Address,56626.0,42.3542,-71.1311,Constituent Call,"(42.3542, -71.1311)"
509821,101001298073,02/16/2015 12:27:12 PM,02/18/2015 08:30:00 AM,03/02/2015 07:25:02 AM,OVERDUE,Closed,Case Closed Case Noted  Space savers will be collected on trash day beginnig March 2  2015,Space Savers,Public Works Department,Sanitation,Space Savers,PWDx_District 03: North Dorchester,PWDx,,,20 Cushing Ave  Dorchester  MA  02125,7.0,03,7.0,C11,Dorchester,13.0,Ward 13,1305.0,C,20 Cushing Ave,2125.0,Address,45145.0,42.3158,-71.0641,Constituent Call,"(42.3158, -71.0641)"
511381,101001300039,02/17/2015 08:01:59 AM,04/15/2015 08:30:00 AM,04/14/2015 08:06:05 AM,ONTIME,Closed,Case Closed Case Resolved,Space Savers,Public Works Department,Sanitation,Space Savers,PWDx_District 10B: Roxbury,PWDx,,,95-97 Harrishof St  Dorchester  MA  02121,9.0,10B,7.0,B2,Roxbury,13.0,Ward 12,1202.0,R4,95-97 Harrishof St,2121.0,Address,69737.0,42.3168,-71.0879,Constituent Call,"(42.3168, -71.0879)"
511589,101001300371,02/17/2015 09:20:14 AM,02/18/2015 09:20:14 AM,02/17/2015 09:29:11 AM,ONTIME,Closed,Case Closed Case Noted no removal yet,Space Savers,Public Works Department,Sanitation,Space Savers,PWDx_District 09: East Boston,PWDx,,,163-165 Byron St  East Boston  MA  02128,1.0,09,1.0,A7,East Boston,1.0,Ward 1,111.0,R4,163-165 Byron St,2128.0,Address,24585.0,42.3823,-71.0157,Constituent Call,"(42.3823, -71.0157)"
511827,101001300710,02/17/2015 10:38:41 AM,04/15/2015 10:38:00 AM,04/14/2015 08:01:17 AM,ONTIME,Closed,Case Closed Case Resolved,Space Savers,Public Works Department,Sanitation,Space Savers,PWDx_District 10B: Roxbury,PWDx,,,353 Dudley St  Roxbury  MA  02119,7.0,10B,7.0,B2,Roxbury,13.0,Ward 8,807.0,E,353 Dudley St,2119.0,Address,49708.0,42.3266,-71.0763,Constituent Call,"(42.3266, -71.0763)"
511845,101001300733,02/17/2015 10:43:09 AM,02/18/2015 10:43:09 AM,03/04/2015 02:01:47 PM,OVERDUE,Closed,Case Closed Case Resolved Space savers removed along entire street all set.,Space Savers,Public Works Department,Sanitation,Space Savers,PWDx_District 07: South Dorchester,PWDx,,,282-292 Talbot Ave  Dorchester  MA  02124,8.0,07,4.0,B3,Dorchester,9.0,17,1705.0,EA,282-292 Talbot Ave,2124.0,Address,133693.0,42.2911,-71.0747,Constituent Call,"(42.2911, -71.0747)"
512119,101001301120,02/17/2015 12:16:03 PM,02/18/2015 12:16:03 PM,02/17/2015 01:18:36 PM,ONTIME,Closed,Case Closed Case Resolved will get there as soon as possible,Space Savers,Public Works Department,Sanitation,Space Savers,PWDx_District 09: East Boston,PWDx,,,163-165 Byron St  East Boston  MA  02128,1.0,09,1.0,A7,East Boston,1.0,Ward 1,111.0,R4,163-165 Byron St,2128.0,Address,24585.0,42.3823,-71.0157,Constituent Call,"(42.3823, -71.0157)"
512164,101001301182,02/17/2015 12:30:44 PM,02/18/2015 12:30:44 PM,02/17/2015 12:58:18 PM,ONTIME,Closed,Case Closed Case Resolved Thank you we will get to it as soon as we can,Space Savers,Public Works Department,Sanitation,Space Savers,PWDx_District 09: East Boston,PWDx,,,163-165 Byron St  East Boston  MA  02128,1.0,09,1.0,A7,East Boston,1.0,Ward 1,111.0,R4,163-165 Byron St,2128.0,Address,24585.0,42.3823,-71.0157,Constituent Call,"(42.3823, -71.0157)"
512209,101001301255,02/17/2015 12:48:25 PM,02/18/2015 12:48:25 PM,04/14/2015 07:32:35 AM,OVERDUE,Closed,Case Closed Case Resolved,Space Savers,Public Works Department,Sanitation,Space Savers,PWDx_District 10A: Roxbury,PWDx,,,12 Sunnyside St  Jamaica Plain  MA  02130,9.0,10A,6.0,E13,Jamaica Plain,11.0,Ward 10,1009.0,R1,12 Sunnyside St,2130.0,Address,132674.0,42.3236,-71.1062,Constituent Call,"(42.3236, -71.1062)"
512218,101001301264,02/17/2015 12:50:53 PM,02/18/2015 12:50:53 PM,02/17/2015 01:00:30 PM,ONTIME,Closed,Case Closed Case Resolved we will get there as soon as possible,Space Savers,Public Works Department,Sanitation,Space Savers,PWDx_District 09: East Boston,PWDx,,,14 Maverick St  East Boston  MA  02128,1.0,09,1.0,A7,East Boston,1.0,Ward 1,103.0,C,14 Maverick St,2128.0,Address,156090.0,42.3694,-71.0398,Constituent Call,"(42.3694, -71.0398)"
512235,101001301283,02/17/2015 12:55:35 PM,02/18/2015 12:55:34 PM,04/14/2015 07:31:51 AM,OVERDUE,Closed,Case Closed Case Resolved,Space Savers,Public Works Department,Sanitation,Space Savers,PWDx_District 10A: Roxbury,PWDx,,,800 Parker St  Mission Hill  MA  02120,9.0,10A,8.0,B2,Mission Hill,14.0,Ward 10,1005.0,R3,800 Parker St,2120.0,Address,107871.0,42.3287,-71.0988,Constituent Call,"(42.3287, -71.0988)"
512236,101001301286,02/17/2015 12:56:16 PM,02/18/2015 12:56:16 PM,04/14/2015 07:31:04 AM,OVERDUE,Closed,Case Closed Case Resolved,Space Savers,Public Works Department,Sanitation,Space Savers,PWDx_District 10A: Roxbury,PWDx,,,800 Parker St  Mission Hill  MA  02120,9.0,10A,8.0,B2,Mission Hill,14.0,Ward 10,1005.0,R3,800 Parker St,2120.0,Address,107871.0,42.3287,-71.0988,Constituent Call,"(42.3287, -71.0988)"
512340,101001301436,02/17/2015 01:43:43 PM,02/18/2015 01:43:42 PM,02/17/2015 02:13:38 PM,ONTIME,Closed,Case Closed Case Resolved we will get to it as soon as possible,Space Savers,Public Works Department,Sanitation,Space Savers,PWDx_District 09: East Boston,PWDx,,,150 Byron St  East Boston  MA  02128,1.0,09,1.0,A7,East Boston,1.0,01,112.0,E,150 Byron St,2128.0,Address,24584.0,42.3832,-71.0151,Constituent Call,"(42.3832, -71.0151)"
512577,101001301764,02/17/2015 03:27:42 PM,02/18/2015 03:27:42 PM,03/10/2015 08:28:45 PM,OVERDUE,Closed,Case Closed Case Noted CASE NOTED,Space Savers,Public Works Department,Sanitation,Space Savers,PWDx_District 02: Jamaica Plain,PWDx,,,48 Hall St  Jamaica Plain  MA  02130,9.0,02,6.0,E13,Jamaica Plain,11.0,Ward 11,1110.0,CM,48 Hall St,2130.0,Address,68149.0,42.3049,-71.1128,Constituent Call,"(42.3049, -71.1128)"
512750,101001301999,02/17/2015 04:20:50 PM,02/18/2015 04:20:50 PM,03/01/2015 11:22:06 PM,OVERDUE,Closed,Case Closed Case Noted,Space Savers,Public Works Department,Sanitation,Space Savers,PWDx_District 1A: Charlestown,PWDx,,,29-35 Bunker Hill St  Charlestown  MA  02129,3.0,1A,1.0,A15,Charlestown,2.0,02,202.0,CL,29-35 Bunker Hill St,2129.0,Address,23505.0,42.3767,-71.0565,Constituent Call,"(42.3767, -71.0565)"
513812,101001303521,02/18/2015 09:28:02 AM,02/19/2015 09:28:02 AM,04/14/2015 07:46:04 AM,OVERDUE,Closed,Case Closed Case Resolved,Space Savers,Public Works Department,Sanitation,Space Savers,PWDx_District 10B: Roxbury,PWDx,,,353 Dudley St  Roxbury  MA  02119,7.0,10B,7.0,B2,Roxbury,13.0,Ward 8,807.0,E,353 Dudley St,2119.0,Address,49708.0,42.3266,-71.0763,Constituent Call,"(42.3266, -71.0763)"
513864,101001303594,02/18/2015 09:43:30 AM,02/19/2015 09:43:28 AM,03/01/2015 11:21:54 PM,OVERDUE,Closed,Case Closed Case Noted,Space Savers,Public Works Department,Sanitation,Space Savers,PWDx_District 1A: Charlestown,PWDx,,,28 Auburn St  Charlestown  MA  02129,3.0,1A,1.0,A15,Charlestown,2.0,Ward 2,207.0,R1,28 Auburn St,2129.0,Address,6475.0,42.3812,-71.0693,Constituent Call,"(42.3812, -71.0693)"
513901,101001303639,02/18/2015 09:55:14 AM,02/19/2015 09:55:14 AM,02/18/2015 10:08:45 AM,ONTIME,Closed,Case Closed Case Noted,Space Savers,Public Works Department,Sanitation,Space Savers,PWDx_Space Saver Removal,PWDx,,,10 Millet St  Dorchester  MA  02124,8.0,03,4.0,B3,Dorchester,9.0,Ward 17,1701.0,R3,10 Millet St,2124.0,Address,95496.0,42.2965,-71.0774,Constituent Call,"(42.2965, -71.0774)"
513939,101001303686,02/18/2015 10:06:07 AM,02/19/2015 10:06:07 AM,02/20/2015 07:20:08 AM,OVERDUE,Closed,Case Closed Case Noted,Space Savers,Public Works Department,Sanitation,Space Savers,PWDx_Space Saver Removal,PWDx,,,10 Millet St  Dorchester  MA  02124,8.0,03,4.0,B3,Dorchester,9.0,Ward 17,1701.0,R3,10 Millet St,2124.0,Address,95496.0,42.2965,-71.0774,Constituent Call,"(42.2965, -71.0774)"
514133,101001303953,02/18/2015 11:15:20 AM,02/19/2015 11:15:20 AM,03/30/2015 05:12:36 AM,OVERDUE,Closed,Case Closed Case Resolved Space saver removed.,Space Savers,Public Works Department,Sanitation,Space Savers,PWDx_District 04: Allston/Brighton,PWDx,,,48 Cummings Rd  Brighton  MA  02135,11.0,04,9.0,D14,Allston / Brighton,15.0,Ward 21,2112.0,R4,48 Cummings Rd,2135.0,Address,44720.0,42.3409,-71.1451,Constituent Call,"(42.3409, -71.1451)"
514203,101001304049,02/18/2015 11:41:11 AM,02/19/2015 11:41:11 AM,03/12/2015 09:10:18 AM,OVERDUE,Closed,Case Closed Case Noted NOTED,Space Savers,Public Works Department,Sanitation,Space Savers,PWDx_District 02: Jamaica Plain,PWDx,,,7 Oakview Ter  Jamaica Plain  MA  02130,9.0,02,6.0,E13,Jamaica Plain,11.0,Ward 19,1901.0,R3,7 Oakview Ter,2130.0,Address,104963.0,42.3198,-71.1108,Constituent Call,"(42.3198, -71.1108)"
514251,101001304114,02/18/2015 12:04:25 PM,02/19/2015 12:04:23 PM,02/18/2015 12:43:13 PM,ONTIME,Closed,Case Closed Case Noted NO REMOVAL AT THIS TIME,Space Savers,Public Works Department,Sanitation,Space Savers,PWDx_District 03: North Dorchester,PWDx,,,7 Mayfield St  Dorchester  MA  02125,7.0,03,3.0,C11,Dorchester,7.0,Ward 13,1308.0,R3,7 Mayfield St,2125.0,Address,93236.0,42.3165,-71.057,Constituent Call,"(42.3165, -71.057)"
514343,101001304225,02/18/2015 12:44:55 PM,02/19/2015 12:44:54 PM,02/20/2015 07:20:14 AM,OVERDUE,Closed,Case Closed Case Noted,Space Savers,Public Works Department,Sanitation,Space Savers,PWDx_Space Saver Removal,PWDx,,,31 Oakland St  Brighton  MA  02135,11.0,04,9.0,D14,Allston / Brighton,15.0,Ward 22,2210.0,R2,31 Oakland St,2135.0,Address,104754.0,42.3503,-71.1577,Constituent Call,"(42.3503, -71.1577)"
514649,101001304696,02/18/2015 03:19:06 PM,02/19/2015 03:19:06 PM,02/18/2015 03:47:28 PM,ONTIME,Closed,Case Closed Case Noted no removal at this time,Space Savers,Public Works Department,Sanitation,Space Savers,PWDx_District 03: North Dorchester,PWDx,,,INTERSECTION of Savin Hill Ave & Savin Hill Ln  Dorchester  MA,7.0,03,3.0,C11,Dorchester,7.0,Ward 13,1310.0,,INTERSECTION Savin Hill Ave & Savin Hill Ln,,Intersection,8302.0,42.3101,-71.0469,Constituent Call,"(42.3101, -71.0469)"
515604,101001306226,02/19/2015 10:07:54 AM,02/20/2015 10:07:54 AM,02/19/2015 10:12:36 AM,ONTIME,Closed,Case Closed Case Invalid,Space Savers,Public Works Department,Sanitation,Space Savers,PWDx_Space Saver Removal,PWDx,,,4 Romar Ter  Roxbury  MA  02119,9.0,10B,7.0,B2,Roxbury,13.0,Ward 11,1101.0,R3,4 Romar Ter,2119.0,Address,301008.0,42.327,-71.0946,Constituent Call,"(42.327, -71.0946)"
516052,101001306873,02/19/2015 01:40:35 PM,02/20/2015 01:40:35 PM,02/21/2015 01:59:32 PM,OVERDUE,Closed,Case Closed Case Resolved gone,Space Savers,Public Works Department,Sanitation,Space Savers,PWDx_District 06: West Roxbury and Roslindale,PWDx,,,5018 Washington St  West Roxbury  MA  02132,12.0,06,6.0,E5,West Roxbury,10.0,Ward 20,2003.0,R3,5018 Washington St,2132.0,Address,145498.0,42.2658,-71.1517,Constituent Call,"(42.2658, -71.1517)"
516598,101001307640,02/19/2015 07:47:05 PM,02/23/2015 08:30:00 AM,03/02/2015 05:53:05 AM,OVERDUE,Closed,Case Closed Case Noted,Space Savers,Public Works Department,Sanitation,Space Savers,PWDx_District 1B: North End,PWDx,,,40-42 Fleet St  Boston  MA  02113,3.0,1B,1.0,A1,Downtown / Financial District,3.0,Ward 3,301.0,CM,40-42 Fleet St,2113.0,Address,58665.0,42.3644,-71.0521,Constituent Call,"(42.3644, -71.0521)"
516683,101001307757,02/19/2015 09:43:41 PM,02/23/2015 08:30:00 AM,03/02/2015 05:53:43 AM,OVERDUE,Closed,Case Closed Case Noted  Space savers will be collected on trash day beginning MArch 2  2015,Space Savers,Public Works Department,Sanitation,Space Savers,PWDx_District 1B: North End,PWDx,,,40-42 Fleet St  Boston  MA  02113,3.0,1B,1.0,A1,Downtown / Financial District,3.0,Ward 3,301.0,CM,40-42 Fleet St,2113.0,Address,58665.0,42.3644,-71.0521,Constituent Call,"(42.3644, -71.0521)"
517344,101001308719,02/20/2015 12:57:43 PM,02/23/2015 12:57:43 PM,02/26/2015 09:59:57 AM,OVERDUE,Closed,Case Closed Case Resolved WE CAN'T PICK THEM UP YET UNTIL MONDAY SORRY.,Space Savers,Public Works Department,Sanitation,Space Savers,PWDx_District 07: South Dorchester,PWDx,,,12 Roseland St  Dorchester  MA  02124,8.0,07,3.0,C11,Dorchester,8.0,Ward 16,1603.0,R1,12 Roseland St,2124.0,Address,118389.0,42.2912,-71.064,Constituent Call,"(42.2912, -71.064)"
517359,101001308736,02/20/2015 01:06:30 PM,02/23/2015 01:06:30 PM,03/17/2015 01:57:13 PM,OVERDUE,Closed,Case Closed Case Resolved,Space Savers,Public Works Department,Sanitation,Space Savers,PWDx_District 10B: Roxbury,PWDx,,,177 Northampton St  Roxbury  MA  02118,7.0,10B,7.0,D4,Roxbury,13.0,Ward 9,903.0,CM,177 Northampton St,2118.0,Address,103690.0,42.3374,-71.079,Constituent Call,"(42.3374, -71.079)"
517626,101001309114,02/20/2015 03:59:24 PM,02/23/2015 03:59:24 PM,04/01/2015 05:13:58 AM,OVERDUE,Closed,Case Closed Case Resolved No space savers there at this time.,Space Savers,Public Works Department,Sanitation,Space Savers,PWDx_District 04: Allston/Brighton,PWDx,,,12 Braemore Rd  Brighton  MA  02135,11.0,04,9.0,D14,Allston / Brighton,15.0,Ward 21,2115.0,R1,12 Braemore Rd,2135.0,Address,19207.0,42.3386,-71.1517,Constituent Call,"(42.3386, -71.1517)"
517680,101001309188,02/20/2015 04:32:22 PM,02/23/2015 04:32:22 PM,02/21/2015 01:47:44 AM,ONTIME,Closed,Case Closed Case Noted we will get to the space savers as soon as we can,Space Savers,Public Works Department,Sanitation,Space Savers,PWDx_District 09: East Boston,PWDx,,,156 Falcon St  East Boston  MA  02128,1.0,09,1.0,A7,East Boston,1.0,Ward 1,109.0,R3,156 Falcon St,2128.0,Address,55999.0,42.3821,-71.0324,Constituent Call,"(42.3821, -71.0324)"
517709,101001309222,02/20/2015 04:46:23 PM,02/23/2015 04:46:22 PM,03/02/2015 05:54:11 AM,OVERDUE,Closed,Case Closed Case Noted  space savers will be collected on trash day beginning March 2  2015,Space Savers,Public Works Department,Sanitation,Space Savers,PWDx_District 1B: North End,PWDx,,,40-42 Fleet St  Boston  MA  02113,3.0,1B,1.0,A1,Downtown / Financial District,3.0,Ward 3,301.0,CM,40-42 Fleet St,2113.0,Address,58665.0,42.3644,-71.0521,Constituent Call,"(42.3644, -71.0521)"
517712,101001309225,02/20/2015 04:47:19 PM,02/23/2015 04:47:18 PM,03/02/2015 05:54:38 AM,OVERDUE,Closed,Case Closed Case Noted  Space savers will be collected on trash day beginning March 2  2015,Space Savers,Public Works Department,Sanitation,Space Savers,PWDx_District 1B: North End,PWDx,,,INTERSECTION of Fleet St & Garden Court St  Boston  MA,3.0,1B,1.0,A1,Downtown / Financial District,3.0,Ward 3,301.0,,INTERSECTION Fleet St & Garden Court St,,Intersection,4944.0,42.3647,-71.0532,Constituent Call,"(42.3647, -71.0532)"
517804,101001309365,02/20/2015 06:19:12 PM,02/24/2015 08:30:00 AM,03/18/2015 12:53:28 PM,OVERDUE,Closed,Case Closed Case Resolved savers removed,Space Savers,Public Works Department,Sanitation,Space Savers,PWDx_District 05: South Boston,PWDx,,,INTERSECTION of Medallion Ave & Iron St  Boston  MA,6.0,05,2.0,C6,South Boston / South Boston Waterfront,5.0,Ward 6,601.0,,INTERSECTION Medallion Ave & Iron St,,Intersection,8765.0,42.3446,-71.0516,Constituent Call,"(42.3446, -71.0516)"
517918,101001309522,02/20/2015 08:57:58 PM,03/13/2015 08:30:00 AM,03/12/2015 07:57:08 AM,ONTIME,Closed,Case Closed Case Resolved,Space Savers,Public Works Department,Sanitation,Space Savers,PWDx_District 10B: Roxbury,PWDx,,,34 Wyoming St  Dorchester  MA  02121,9.0,10B,7.0,B2,Roxbury,13.0,Ward 12,1202.0,R4,34 Wyoming St,2121.0,Address,339812.0,42.3154,-71.0868,Constituent Call,"(42.3154, -71.0868)"
518059,101001309728,02/21/2015 08:58:54 AM,02/24/2015 08:30:00 AM,02/22/2015 03:18:38 AM,ONTIME,Closed,Case Closed Case Noted  Space savers not being removed at this time.,Space Savers,Public Works Department,Sanitation,Space Savers,PWDx_District 06: West Roxbury and Roslindale,PWDx,,,154 Poplar St  Roslindale  MA  02131,12.0,06,5.0,E5,Roslindale,10.0,Ward 19,1910.0,R2,154 Poplar St,2131.0,Address,111783.0,42.283,-71.1279,Constituent Call,"(42.283, -71.1279)"
518221,101001309980,02/21/2015 12:09:56 PM,02/24/2015 08:30:00 AM,03/02/2015 05:49:23 AM,OVERDUE,Closed,Case Closed Case Noted  Space savers will be collected on trash day beginning March 2  2015,Space Savers,Public Works Department,Sanitation,Space Savers,PWDx_District 1C: Downtown,PWDx,,,10-54 W Newton St  Roxbury  MA  02118,4.0,1C,2.0,D4,South End,6.0,09,901.0,E,10-54 W Newton St,2118.0,Address,102372.0,42.3399,-71.0751,Constituent Call,"(42.3399, -71.0751)"
518280,101001310067,02/21/2015 12:56:20 PM,02/24/2015 08:30:00 AM,04/14/2015 07:28:20 AM,OVERDUE,Closed,Case Closed Case Resolved,Space Savers,Public Works Department,Sanitation,Space Savers,PWDx_District 10A: Roxbury,PWDx,,,4 Mark St  Jamaica Plain  MA  02130,9.0,10A,6.0,E13,Jamaica Plain,11.0,Ward 10,1009.0,R4,4 Mark St,2130.0,Address,90157.0,42.3226,-71.1094,Constituent Call,"(42.3226, -71.1094)"
518286,101001310074,02/21/2015 01:02:42 PM,02/24/2015 08:30:00 AM,03/02/2015 07:25:39 AM,OVERDUE,Closed,Case Closed Case Noted  Space savers will be collected on trash day  beginning March 2  2015,Space Savers,Public Works Department,Sanitation,Space Savers,PWDx_District 03: North Dorchester,PWDx,,,19 Hartford St  Dorchester  MA  02125,7.0,03,7.0,B2,Roxbury,13.0,Ward 13,1304.0,R2,19 Hartford St,2125.0,Address,70207.0,42.3171,-71.0733,Constituent Call,"(42.3171, -71.0733)"
518849,101001310957,02/22/2015 01:17:50 PM,02/24/2015 08:30:00 AM,04/01/2015 05:12:41 AM,OVERDUE,Closed,Case Closed Case Resolved No space savers there at this time.,Space Savers,Public Works Department,Sanitation,Space Savers,PWDx_District 04: Allston/Brighton,PWDx,,,12 Tip Top St  Brighton  MA  02135,11.0,04,9.0,D14,Allston / Brighton,15.0,Ward 22,2204.0,R1,12 Tip Top St,2135.0,Address,136065.0,42.3508,-71.17,Constituent Call,"(42.3508, -71.17)"
518935,101001311093,02/22/2015 03:41:43 PM,02/24/2015 08:30:00 AM,03/02/2015 07:26:10 AM,OVERDUE,Closed,Case Closed Case Noted  Space savers will be collected on trash day  beginning March 2  2105,Space Savers,Public Works Department,Sanitation,Space Savers,PWDx_District 03: North Dorchester,PWDx,,,25 Harbor View St  Dorchester  MA  02125,7.0,03,3.0,C11,Dorchester,7.0,Ward 13,1308.0,R3,25 Harbor View St,2125.0,Address,69351.0,42.3172,-71.0554,Constituent Call,"(42.3172, -71.0554)"
519175,101001311496,02/23/2015 07:54:04 AM,02/24/2015 08:30:00 AM,03/01/2015 11:21:39 PM,OVERDUE,Closed,Case Closed Case Noted,Space Savers,Public Works Department,Sanitation,Space Savers,PWDx_District 1A: Charlestown,PWDx,,,INTERSECTION of Bolton Pl & High St  Charlestown  MA,3.0,1A,1.0,A15,Charlestown,2.0,Ward 2,206.0,,INTERSECTION Bolton Pl & High St,,Intersection,1628.0,42.3786,-71.0666,Constituent Call,"(42.3786, -71.0666)"
519597,101001312121,02/23/2015 11:11:56 AM,02/24/2015 11:11:55 AM,03/02/2015 05:50:07 AM,OVERDUE,Closed,Case Closed Case Noted  Space savers will be collected.,Space Savers,Public Works Department,Sanitation,Space Savers,PWDx_District 1C: Downtown,PWDx,,,2 Aguadilla St  Roxbury  MA  02118,4.0,1C,2.0,D4,South End,6.0,Ward 9,901.0,EA,2 Aguadilla St,2118.0,Address,1217.0,42.3422,-71.0742,Constituent Call,"(42.3422, -71.0742)"
519887,101001312552,02/23/2015 02:35:23 PM,02/24/2015 02:35:22 PM,03/02/2015 07:14:38 AM,OVERDUE,Closed,Case Closed Case Noted,Space Savers,Public Works Department,Sanitation,Space Savers,PWDx_District 1C: Downtown,PWDx,,,137 W Canton St  Roxbury  MA  02118,4.0,1C,2.0,D4,South End,6.0,Ward 4,401.0,R2,137 W Canton St,2118.0,Address,25553.0,42.3428,-71.0747,Constituent Call,"(42.3428, -71.0747)"
520061,101001312842,02/23/2015 04:27:35 PM,02/24/2015 04:27:35 PM,02/23/2015 07:00:51 PM,ONTIME,Closed,Case Closed Case Resolved it is all set,Space Savers,Public Works Department,Sanitation,Space Savers,PWDx_District 1A: Charlestown,PWDx,,https://cityworker.cityofboston.gov:8443/attachments/report/54eb9bcbd05299a9de4dae54/closed_photo/Report.jpg,30 Tibbett's Town Way  Charlestown  MA  02129,3.0,1A,1.0,A15,Charlestown,2.0,02,206.0,,30 Tibbett's Town Way,2129.0,Address,342185.0,42.3594,-71.0587,Constituent Call,"(0, 0)"
520220,101001313064,02/23/2015 06:52:47 PM,02/25/2015 08:30:00 AM,03/01/2015 11:21:22 PM,OVERDUE,Closed,Case Closed Case Noted,Space Savers,Public Works Department,Sanitation,Space Savers,PWDx_District 1A: Charlestown,PWDx,,,INTERSECTION of Harvard Sq & Harvard St  Charlestown  MA,3.0,1A,1.0,A15,Charlestown,2.0,Ward 2,201.0,,INTERSECTION Harvard Sq & Harvard St,,Intersection,5738.0,42.3726,-71.0632,Constituent Call,"(42.3726, -71.0632)"
520417,101001313362,02/24/2015 07:57:12 AM,02/25/2015 08:30:00 AM,03/19/2015 10:21:10 AM,OVERDUE,Closed,Case Closed Case Resolved,Space Savers,Public Works Department,Sanitation,Space Savers,PWDx_District 10B: Roxbury,PWDx,,,INTERSECTION of Northampton St & Reed St  Roxbury  MA,7.0,10B,7.0,D4,Roxbury,13.0,Ward 8,803.0,,INTERSECTION Northampton St & Reed St,,Intersection,7638.0,42.3349,-71.0763,Constituent Call,"(42.3349, -71.0763)"
520680,101001313756,02/24/2015 09:42:22 AM,02/25/2015 09:42:21 AM,02/24/2015 10:30:56 AM,ONTIME,Closed,Case Closed Case Noted we will get to the space savers as soon as we can. we are aware that they are everywhere and will get to them,Space Savers,Public Works Department,Sanitation,Space Savers,PWDx_District 09: East Boston,PWDx,,,87 White St  East Boston  MA  02128,1.0,09,1.0,A7,East Boston,1.0,Ward 1,108.0,R1,87 White St,2128.0,Address,149257.0,42.3804,-71.0339,Constituent Call,"(42.3804, -71.0339)"
521151,101001314397,02/24/2015 12:54:38 PM,02/25/2015 12:54:38 PM,03/24/2015 08:25:15 AM,OVERDUE,Closed,Case Closed Case Resolved,Space Savers,Public Works Department,Sanitation,Space Savers,PWDx_District 1C: Downtown,PWDx,,https://cityworker.cityofboston.gov:8443/attachments/report/54ecbae6d0526698d8cb4bdb/closed_photo/Report.jpg,INTERSECTION of W Newton St & Shawmut Ave  Roxbury  MA,4.0,1C,2.0,D4,South End,6.0,Ward 9,901.0,,INTERSECTION W Newton St & Shawmut Ave,,Intersection,7579.0,42.3397,-71.0746,Constituent Call,"(42.3397, -71.0746)"
