,CASE_ENQUIRY_ID,OPEN_DT,TARGET_DT,CLOSED_DT,OnTime_Status,CASE_STATUS,CLOSURE_REASON,CASE_TITLE,SUBJECT,REASON,TYPE,QUEUE,Department,SubmittedPhoto,ClosedPhoto,Location,fire_district,pwd_district,city_council_district,police_district,neighborhood,neighborhood_services_district,ward,precinct,land_usage,LOCATION_STREET_NAME,LOCATION_ZIPCODE,Property_Type,Property_ID,LATITUDE,LONGITUDE,Source,Geocoded_Location
469798,101001241234,01/02/2015 11:35:42 AM,01/03/2015 11:35:42 AM,01/14/2015 09:51:57 AM,OVERDUE,Closed,Case Closed ADCLSD: Administratively Closed,Unsafe/Dangerous Conditions,Inspectional Services,Building,Unsafe Dangerous Conditions,ISD_Building (INTERNAL),ISD,,,135 W Seventh St  South Boston  MA  02127,6.0,05,2.0,C6,South Boston / South Boston Waterfront,5.0,Ward 6,602.0,R3,135 W Seventh St,2127.0,Address,309236.0,42.3355,-71.053,Constituent Call,"(42.3355, -71.053)"
469873,101001241345,01/02/2015 01:32:57 PM,01/03/2015 01:32:57 PM,01/05/2015 03:19:17 PM,OVERDUE,Closed,Case Closed VIOISS: Violation Filed,Unsafe/Dangerous Conditions,Inspectional Services,Building,Unsafe Dangerous Conditions,ISD_Building (INTERNAL),ISD,,,100-102 Warren St  Roxbury  MA  02119,7.0,10B,7.0,B2,Roxbury,13.0,Ward 12,1201.0,RC,100-102 Warren St,2119.0,Address,143203.0,42.327,-71.0829,Constituent Call,"(42.327, -71.0829)"
469938,101001241457,01/02/2015 03:17:27 PM,01/03/2015 03:17:27 PM,03/02/2015 11:14:30 AM,OVERDUE,Closed,Case Closed NOBASE: No Basis,Unsafe/Dangerous Conditions,Inspectional Services,Building,Unsafe Dangerous Conditions,ISD_Building (INTERNAL),ISD,,,5 Euclid St  Dorchester  MA  02124,8.0,07,4.0,B3,Dorchester,9.0,Ward 17,1708.0,R1,5 Euclid St,2124.0,Address,54510.0,42.2887,-71.0717,Constituent Call,"(42.2887, -71.0717)"
470795,101001242681,01/05/2015 06:58:58 PM,01/06/2015 06:58:58 PM,01/07/2015 03:55:11 PM,OVERDUE,Closed,Case Closed VIOISS: Violation Filed,Unsafe/Dangerous Conditions,Inspectional Services,Building,Unsafe Dangerous Conditions,ISD_Building (INTERNAL),ISD,,,16 Greenwich St  Dorchester  MA  02122,7.0,03,3.0,C11,Dorchester,8.0,Ward 15,1506.0,R2,16 Greenwich St,2122.0,Address,66848.0,42.3035,-71.0587,Self Service,"(42.3035, -71.0587)"
471013,101001242987,01/06/2015 10:46:16 AM,01/07/2015 10:46:16 AM,03/20/2015 03:00:36 PM,OVERDUE,Closed,Case Closed NOVIO: No Violation Found/No Cause,Unsafe/Dangerous Conditions,Inspectional Services,Building,Unsafe Dangerous Conditions,ISD_Building (INTERNAL),ISD,,,159 Dorchester St  South Boston  MA  02127,6.0,05,2.0,C6,South Boston / South Boston Waterfront,5.0,Ward 7,704.0,CM,159 Dorchester St,2127.0,Address,48895.0,42.3344,-71.0486,Constituent Call,"(42.3344, -71.0486)"
471142,101001243191,01/06/2015 02:47:35 PM,01/07/2015 02:47:35 PM,01/07/2015 03:51:13 PM,OVERDUE,Closed,Case Closed VIOLFND: Violation Found,Unsafe/Dangerous Conditions,Inspectional Services,Building,Unsafe Dangerous Conditions,ISD_Building (INTERNAL),ISD,,,22 Marion St  East Boston  MA  02128,1.0,09,1.0,A7,East Boston,1.0,Ward 1,108.0,R2,22 Marion St,2128.0,Address,90018.0,42.3802,-71.0385,Constituent Call,"(42.3802, -71.0385)"
471144,101001243194,01/06/2015 02:50:38 PM,01/07/2015 02:50:37 PM,02/03/2015 09:07:49 AM,OVERDUE,Closed,Case Closed VIOISS: Violation Filed,Unsafe/Dangerous Conditions,Inspectional Services,Building,Unsafe Dangerous Conditions,ISD_Building (INTERNAL),ISD,,,17-19 Newhall St  Dorchester  MA  02122,8.0,07,3.0,C11,Dorchester,7.0,Ward 16,1609.0,R2,17-19 Newhall St,2122.0,Address,102117.0,42.2886,-71.0513,Constituent Call,"(42.2886, -71.0513)"
471146,101001243196,01/06/2015 02:51:26 PM,01/07/2015 02:51:26 PM,01/07/2015 02:52:54 PM,OVERDUE,Closed,Case Closed VIOISS: Violation Filed,Unsafe/Dangerous Conditions,Inspectional Services,Building,Unsafe Dangerous Conditions,ISD_Building (INTERNAL),ISD,,,34-38 Prince St  Boston  MA  02113,3.0,1B,1.0,A1,Downtown / Financial District,3.0,Ward 3,303.0,RC,34-38 Prince St,2113.0,Address,112888.0,42.3645,-71.0545,Constituent Call,"(42.3645, -71.0545)"
471149,101001243199,01/06/2015 02:54:23 PM,01/07/2015 02:54:23 PM,01/20/2015 03:02:32 PM,OVERDUE,Closed,Case Closed PERMIS: Permit Issued,Unsafe/Dangerous Conditions,Inspectional Services,Building,Unsafe Dangerous Conditions,ISD_Building (INTERNAL),ISD,,,12 Boyd St  Dorchester  MA  02124,7.0,03,4.0,C11,Dorchester,8.0,Ward 15,1505.0,R3,12 Boyd St,2124.0,Address,17910.0,42.3002,-71.0681,Constituent Call,"(42.3002, -71.0681)"
471152,101001243202,01/06/2015 02:56:40 PM,01/07/2015 02:56:40 PM,01/07/2015 02:57:07 PM,OVERDUE,Closed,Case Closed NOBASE: No Basis,Unsafe/Dangerous Conditions,Inspectional Services,Building,Unsafe Dangerous Conditions,ISD_Building (INTERNAL),ISD,,,280 Friend St  Boston  MA  02114,3.0,1B,1.0,A1,Downtown / Financial District,3.0,03,306.0,,280 Friend St,2114.0,Address,344155.0,42.3594,-71.0587,Constituent Call,"(0, 0)"
471155,101001243205,01/06/2015 03:00:16 PM,01/07/2015 03:00:16 PM,01/20/2015 10:01:00 AM,OVERDUE,Closed,Case Closed VIOISS: Violation Filed,Unsafe/Dangerous Conditions,Inspectional Services,Building,Unsafe Dangerous Conditions,ISD_Building (INTERNAL),ISD,,,22 Inwood St  Dorchester  MA  02125,7.0,03,4.0,C11,Dorchester,8.0,Ward 15,1502.0,R3,22 Inwood St,2125.0,Address,78806.0,42.3065,-71.0697,Constituent Call,"(42.3065, -71.0697)"
471157,101001243207,01/06/2015 03:02:49 PM,01/07/2015 03:02:49 PM,06/29/2015 08:02:58 AM,OVERDUE,Closed,Case Closed. Closed date : 2015-06-29 08:02:58.973 NOBASE: No Basis,Unsafe/Dangerous Conditions,Inspectional Services,Building,Unsafe Dangerous Conditions,ISD_Building (INTERNAL),ISD,,,568 Cummins Hwy  Mattapan  MA  02126,8.0,07,5.0,B3,Greater Mattapan,9.0,Ward 18,1803.0,R2,568 Cummins Hwy,2126.0,Address,44897.0,42.2737,-71.1083,Constituent Call,"(42.2737, -71.1083)"
471158,101001243211,01/06/2015 03:07:10 PM,01/07/2015 03:07:10 PM,02/04/2015 10:49:31 AM,OVERDUE,Closed,Case Closed VIOISS: Violation Filed,Unsafe/Dangerous Conditions,Inspectional Services,Building,Unsafe Dangerous Conditions,ISD_Building (INTERNAL),ISD,,,135 W Seventh St  South Boston  MA  02127,6.0,05,2.0,C6,South Boston / South Boston Waterfront,5.0,Ward 6,602.0,R3,135 W Seventh St,2127.0,Address,125658.0,42.3355,-71.053,Constituent Call,"(42.3355, -71.053)"
471164,101001243218,01/06/2015 03:12:22 PM,01/07/2015 03:12:22 PM,01/08/2015 03:32:59 PM,OVERDUE,Closed,Case Closed TFA: Tenant Failed Apt\Was Not Home,Unsafe/Dangerous Conditions,Inspectional Services,Building,Unsafe Dangerous Conditions,ISD_Building (INTERNAL),ISD,,,14 Charlesview St  Brighton  MA  02135,11.0,04,9.0,D14,Allston / Brighton,15.0,Ward 22,2213.0,R1,14 Charlesview St,2135.0,Address,29862.0,42.3566,-71.1668,Constituent Call,"(42.3566, -71.1668)"
471166,101001243222,01/06/2015 03:15:33 PM,01/07/2015 03:15:33 PM,03/18/2015 03:25:10 PM,OVERDUE,Closed,Case Closed REINSP: Issues Found  Re-Inspection,Unsafe/Dangerous Conditions,Inspectional Services,Building,Unsafe Dangerous Conditions,ISD_Building (INTERNAL),ISD,,,960 Massachusetts Ave  Roxbury  MA  02118,6.0,1C,7.0,C6,South Boston / South Boston Waterfront,13.0,Ward 8,806.0,I,960 Massachusetts Ave,2118.0,Address,92677.0,42.3298,-71.0689,Constituent Call,"(42.3298, -71.0689)"
471171,101001243228,01/06/2015 03:19:45 PM,01/07/2015 03:19:45 PM,02/03/2015 09:10:46 AM,OVERDUE,Closed,Case Closed ADCLSD: Administratively Closed,Unsafe/Dangerous Conditions,Inspectional Services,Building,Unsafe Dangerous Conditions,ISD_Building (INTERNAL),ISD,,,75 Federal St  Boston  MA  02110,3.0,1C,1.0,A1,Downtown / Financial District,3.0,Ward 3,306.0,C,75 Federal St,2110.0,Address,234510.0,42.3553,-71.0567,Constituent Call,"(42.3553, -71.0567)"
471172,101001243229,01/06/2015 03:21:15 PM,01/07/2015 03:21:15 PM,02/06/2015 09:10:31 AM,OVERDUE,Closed,Case Closed VIOISS: Violation Filed,Unsafe/Dangerous Conditions,Inspectional Services,Building,Unsafe Dangerous Conditions,ISD_Building (INTERNAL),ISD,,,50 Lyon St  Dorchester  MA  02122,7.0,03,3.0,C11,Dorchester,8.0,Ward 15,1509.0,R4,50 Lyon St,2122.0,Address,87958.0,42.306,-71.0612,Constituent Call,"(42.306, -71.0612)"
471174,101001243232,01/06/2015 03:23:46 PM,01/07/2015 03:23:46 PM,02/26/2015 10:27:19 AM,OVERDUE,Closed,Case Closed ROA: Refer to Other Agency/Division,Unsafe/Dangerous Conditions,Inspectional Services,Building,Unsafe Dangerous Conditions,ISD_Building (INTERNAL),ISD,,,10 Brenton St  Dorchester  MA  02121,7.0,03,4.0,B3,Greater Mattapan,8.0,Ward 14,1402.0,R3,10 Brenton St,2121.0,Address,19949.0,42.2977,-71.0804,Constituent Call,"(42.2977, -71.0804)"
471179,101001243238,01/06/2015 03:26:48 PM,01/07/2015 03:26:48 PM,02/17/2015 03:48:11 PM,OVERDUE,Closed,Case Closed ADCLSD: Administratively Closed,Unsafe/Dangerous Conditions,Inspectional Services,Building,Unsafe Dangerous Conditions,ISD_Building (INTERNAL),ISD,,,155 Federal St  Boston  MA  02110,3.0,1C,1.0,A1,Downtown / Financial District,3.0,Ward 3,306.0,C,155 Federal St,2110.0,Address,57186.0,42.3537,-71.0565,Constituent Call,"(42.3537, -71.0565)"
471185,101001243244,01/06/2015 03:30:48 PM,01/07/2015 03:30:47 PM,01/12/2015 07:57:37 AM,OVERDUE,Closed,Case Closed ADCLSD: Administratively Closed,Unsafe/Dangerous Conditions,Inspectional Services,Building,Unsafe Dangerous Conditions,ISD_Building (INTERNAL),ISD,,,231 Shawmut Ave  Roxbury  MA  02118,4.0,1C,2.0,D4,South End,4.0,Ward 3,307.0,RC,231 Shawmut Ave,2118.0,Address,156734.0,42.3438,-71.0679,Constituent Call,"(42.3438, -71.0679)"
471204,101001243273,01/06/2015 03:57:09 PM,01/07/2015 03:57:09 PM,01/09/2015 09:02:58 AM,OVERDUE,Closed,Case Closed NOVIO: No Violation Found/No Cause,Unsafe/Dangerous Conditions,Inspectional Services,Building,Unsafe Dangerous Conditions,ISD_Building (INTERNAL),ISD,,,53 Wellington Hill St  Mattapan  MA  02126,8.0,07,4.0,B3,Greater Mattapan,9.0,Ward 14,1408.0,R2,53 Wellington Hill St,2126.0,Address,147530.0,42.2809,-71.0951,Constituent Call,"(42.2809, -71.0951)"
471246,101001243324,01/06/2015 05:27:07 PM,01/07/2015 05:27:07 PM,02/03/2015 03:40:56 PM,OVERDUE,Closed,Case Closed ROA: Refer to Other Agency/Division,Unsafe/Dangerous Conditions,Inspectional Services,Building,Unsafe Dangerous Conditions,ISD_Building (INTERNAL),ISD,,,62 Torrey St  Dorchester  MA  02124,8.0,07,4.0,B3,Dorchester,9.0,Ward 17,1708.0,R3,62 Torrey St,2124.0,Address,136310.0,42.287,-71.0741,Self Service,"(42.287, -71.0741)"
471338,101001243441,01/07/2015 08:09:02 AM,01/08/2015 08:09:02 AM,01/12/2015 11:17:02 AM,OVERDUE,Closed,Case Closed PERMIS: Permit Issued,Unsafe/Dangerous Conditions,Inspectional Services,Building,Unsafe Dangerous Conditions,ISD_Building (INTERNAL),ISD,,,84 Bay State Rd  Boston  MA  02215,4.0,10A,8.0,D4,Fenway / Kenmore / Audubon Circle / Longwood,14.0,Ward 5,510.0,E,84 Bay State Rd,2215.0,Address,9172.0,42.3498,-71.0967,Constituent Call,"(42.3498, -71.0967)"
471430,101001243579,01/07/2015 11:17:42 AM,01/08/2015 11:17:41 AM,01/07/2015 11:28:44 AM,ONTIME,Closed,Case Closed Case Invalid Duplicate,Unsafe/Dangerous Conditions,Inspectional Services,Building,Unsafe Dangerous Conditions,ISD_Building (INTERNAL),ISD,,,215 Talbot Ave  Dorchester  MA  02124,8.0,07,4.0,B3,Greater Mattapan,9.0,Ward 17,1705.0,C,215 Talbot Ave,2124.0,Address,133678.0,42.2917,-71.0776,Constituent Call,"(42.2917, -71.0776)"
471470,101001243639,01/07/2015 12:12:04 PM,01/08/2015 12:12:04 PM,07/08/2015 10:50:28 AM,OVERDUE,Closed,Case Closed. Closed date : 2015-07-08 10:50:28.397 ADCLSD: Administratively Closed,Unsafe/Dangerous Conditions,Inspectional Services,Building,Unsafe Dangerous Conditions,ISD_Building (INTERNAL),ISD,,,159-161 Sutherland Rd  Brighton  MA  02135,11.0,04,9.0,D14,Allston / Brighton,15.0,Ward 21,2112.0,C,159-161 Sutherland Rd,2135.0,Address,132962.0,42.3412,-71.1467,Constituent Call,"(42.3412, -71.1467)"
471472,101001243643,01/07/2015 12:16:07 PM,01/08/2015 12:16:07 PM,03/06/2015 07:58:22 AM,OVERDUE,Closed,Case Closed CORR: Corrected,Unsafe/Dangerous Conditions,Inspectional Services,Building,Unsafe Dangerous Conditions,ISD_Building (INTERNAL),ISD,,,900 William T Morrissey Blvd  Dorchester  MA  02122,8.0,07,3.0,C11,Dorchester,7.0,16,1607.0,,900 William T Morrissey Blvd,2122.0,Address,156285.0,42.2927,-71.0472,Constituent Call,"(42.2927, -71.0472)"
471505,101001243695,01/07/2015 01:17:38 PM,01/08/2015 01:17:38 PM,03/12/2015 08:43:05 AM,OVERDUE,Closed,Case Closed NOVIO: No Violation Found/No Cause,Unsafe/Dangerous Conditions,Inspectional Services,Building,Unsafe Dangerous Conditions,ISD_Building (INTERNAL),ISD,,,47 Prescott St  East Boston  MA  02128,1.0,09,1.0,A7,East Boston,1.0,Ward 1,110.0,R2,47 Prescott St,2128.0,Address,112616.0,42.3794,-71.0302,Constituent Call,"(42.3794, -71.0302)"
471514,101001243712,01/07/2015 01:38:15 PM,01/08/2015 01:38:15 PM,03/31/2015 03:50:25 PM,OVERDUE,Closed,Case Closed NOVIO: No Violation Found/No Cause,Unsafe/Dangerous Conditions,Inspectional Services,Building,Unsafe Dangerous Conditions,ISD_Building (INTERNAL),ISD,,,45 Elder St  Dorchester  MA  02125,7.0,03,7.0,B2,Dorchester,13.0,Ward 7,710.0,C,45 Elder St,2125.0,Address,52600.0,42.3207,-71.0651,Constituent Call,"(42.3207, -71.0651)"
471666,101001243933,01/08/2015 08:23:34 AM,01/09/2015 08:23:34 AM,01/12/2015 07:56:51 AM,OVERDUE,Closed,Case Closed ADCLSD: Administratively Closed,Unsafe/Dangerous Conditions,Inspectional Services,Building,Unsafe Dangerous Conditions,ISD_Building (INTERNAL),ISD,,,231 Shawmut Ave  Roxbury  MA  02118,4.0,1C,2.0,D4,South End,4.0,Ward 3,307.0,RC,231 Shawmut Ave,2118.0,Address,156734.0,42.3438,-71.0679,Constituent Call,"(42.3438, -71.0679)"
471934,101001244300,01/08/2015 01:31:40 PM,01/09/2015 01:31:40 PM,01/21/2015 03:47:09 PM,OVERDUE,Closed,Case Closed VIOCOR: Violation Corrected,Unsafe/Dangerous Conditions,Inspectional Services,Building,Unsafe Dangerous Conditions,ISD_Building (INTERNAL),ISD,,,10 Donald Rd  Dorchester  MA  02124,8.0,07,4.0,B3,Greater Mattapan,9.0,Ward 14,1411.0,R3,10 Donald Rd,2124.0,Address,48007.0,42.2907,-71.0901,Self Service,"(42.2907, -71.0901)"
472088,101001244512,01/08/2015 06:47:17 PM,01/09/2015 06:47:17 PM,,OVERDUE,Open,,Unsafe/Dangerous Conditions,Inspectional Services,Building,Unsafe Dangerous Conditions,ISD_Building (INTERNAL),ISD,,,58 Clarkson St  Dorchester  MA  02125,7.0,03,3.0,C11,Dorchester,8.0,Ward 15,1503.0,R3,58 Clarkson St,2125.0,Address,208433.0,42.3082,-71.0673,Constituent Call,"(42.3082, -71.0673)"
472571,101001245216,01/09/2015 10:27:20 PM,01/10/2015 10:27:20 PM,03/05/2015 07:58:53 AM,OVERDUE,Closed,Case Closed ADCLSD: Administratively Closed,Unsafe/Dangerous Conditions,Inspectional Services,Building,Unsafe Dangerous Conditions,ISD_Building (INTERNAL),ISD,,,122 South St  Boston  MA  02111,4.0,1C,2.0,A1,Downtown / Financial District,4.0,Ward 3,308.0,CC,122 South St,2111.0,Address,128517.0,42.3507,-71.0573,Constituent Call,"(42.3507, -71.0573)"
472855,101001245660,01/12/2015 08:18:13 AM,01/13/2015 08:18:13 AM,03/11/2015 08:53:20 AM,OVERDUE,Closed,Case Closed PERMIS: Permit Issued,Unsafe/Dangerous Conditions,Inspectional Services,Building,Unsafe Dangerous Conditions,ISD_Building (INTERNAL),ISD,,,65 Frankfort St  East Boston  MA  02128,1.0,09,1.0,A7,East Boston,1.0,Ward 1,102.0,R4,65 Frankfort St,2128.0,Address,60565.0,42.3705,-71.0341,Constituent Call,"(42.3705, -71.0341)"
473093,101001246008,01/12/2015 12:28:41 PM,01/13/2015 12:28:41 PM,04/08/2015 08:09:02 AM,OVERDUE,Closed,Case Closed ROA: Refer to Other Agency/Division,Unsafe/Dangerous Conditions,Inspectional Services,Building,Unsafe Dangerous Conditions,ISD_Building (INTERNAL),ISD,,,65 Anderson St  Boston  MA  02114,3.0,1B,8.0,A1,Beacon Hill,14.0,Ward 5,504.0,CM,65 Anderson St,2114.0,Address,3552.0,42.359,-71.0679,Constituent Call,"(42.359, -71.0679)"
473142,101001246099,01/12/2015 01:50:58 PM,01/13/2015 01:50:58 PM,01/12/2015 01:56:00 PM,ONTIME,Closed,Case Closed Case Invalid Invalid.,Unsafe/Dangerous Conditions,Inspectional Services,Building,Unsafe Dangerous Conditions,ISD_Building (INTERNAL),ISD,,,20 Lawrence St  Boston  MA  02116,4.0,1C,2.0,D4,South End,6.0,Ward 5,501.0,R1,20 Lawrence St,2116.0,Address,84609.0,42.3462,-71.0723,Constituent Call,"(42.3462, -71.0723)"
473157,101001246122,01/12/2015 02:37:03 PM,01/13/2015 02:37:02 PM,03/02/2015 08:18:05 AM,OVERDUE,Closed,Case Closed NOVIO: No Violation Found/No Cause,Unsafe/Dangerous Conditions,Inspectional Services,Building,Unsafe Dangerous Conditions,ISD_Building (INTERNAL),ISD,,,10 Wordsworth St  East Boston  MA  02128,1.0,09,1.0,A7,East Boston,1.0,Ward 1,111.0,R1,10 Wordsworth St,2128.0,Address,152593.0,42.3855,-71.0193,Constituent Call,"(42.3855, -71.0193)"
473469,101001246590,01/13/2015 11:47:24 AM,01/14/2015 11:47:24 AM,04/06/2015 02:34:16 PM,OVERDUE,Closed,Case Closed VIOISS: Violation Filed,Unsafe/Dangerous Conditions,Inspectional Services,Building,Unsafe Dangerous Conditions,ISD_Building (INTERNAL),ISD,,,178 W Fourth St  South Boston  MA  02127,6.0,05,2.0,C6,South Boston / South Boston Waterfront,5.0,06,601.0,,178 W Fourth St,2127.0,Address,345925.0,42.3594,-71.0587,Constituent Call,"(0, 0)"
473506,101001246644,01/13/2015 01:01:40 PM,01/14/2015 01:01:40 PM,03/02/2015 01:16:39 PM,OVERDUE,Closed,Case Closed NOVIO: No Violation Found/No Cause,Unsafe/Dangerous Conditions,Inspectional Services,Building,Unsafe Dangerous Conditions,ISD_Building (INTERNAL),ISD,,,416-418 W Broadway  South Boston  MA  02127,6.0,05,2.0,C6,South Boston / South Boston Waterfront,5.0,Ward 6,604.0,I,416-418 W Broadway,2127.0,Address,21498.0,42.3369,-71.0474,Constituent Call,"(42.3369, -71.0474)"
473551,101001246713,01/13/2015 02:19:14 PM,01/14/2015 02:19:14 PM,03/05/2015 08:03:27 AM,OVERDUE,Closed,Case Closed TFA: Tenant Failed Apt\Was Not Home,Unsafe/Dangerous Conditions,Inspectional Services,Building,Unsafe Dangerous Conditions,ISD_Building (INTERNAL),ISD,,,324 Cornell St  Roslindale  MA  02131,12.0,06,5.0,E5,Roslindale,10.0,Ward 20,2009.0,R2,324 Cornell St,2131.0,Address,43019.0,42.2819,-71.1394,Constituent Call,"(42.2819, -71.1394)"
473595,101001246790,01/13/2015 04:03:34 PM,01/14/2015 04:03:34 PM,02/20/2015 02:24:39 PM,OVERDUE,Closed,Case Closed NOACC: Closed-No Access,Unsafe/Dangerous Conditions,Inspectional Services,Building,Unsafe Dangerous Conditions,ISD_Building (INTERNAL),ISD,,,409 Marlborough St  Boston  MA  02115,4.0,1C,8.0,D4,Back Bay,14.0,Ward 5,509.0,RC,409 Marlborough St,2115.0,Address,91297.0,42.3503,-71.0889,Constituent Call,"(42.3503, -71.0889)"
473728,101001246957,01/14/2015 08:09:36 AM,01/15/2015 08:09:36 AM,01/15/2015 08:28:48 AM,OVERDUE,Closed,Case Closed NOVIO: No Violation Found/No Cause,Unsafe/Dangerous Conditions,Inspectional Services,Building,Unsafe Dangerous Conditions,ISD_Building (INTERNAL),ISD,,,1 O'Neil Pl  Brighton  MA  02135,11.0,04,9.0,D14,Allston / Brighton,15.0,Ward 22,2203.0,R2,1 O'Neil Pl,2135.0,Address,104537.0,42.3469,-71.1513,Constituent Call,"(42.3469, -71.1513)"
474481,101001248065,01/15/2015 03:53:56 PM,01/16/2015 03:53:56 PM,01/16/2015 03:07:58 PM,ONTIME,Closed,Case Closed ADCLSD: Administratively Closed,Unsafe/Dangerous Conditions,Inspectional Services,Building,Unsafe Dangerous Conditions,ISD_Building (INTERNAL),ISD,,,403 W Fourth St  South Boston  MA  02127,6.0,05,2.0,C6,South Boston / South Boston Waterfront,5.0,Ward 6,603.0,CM,403 W Fourth St,2127.0,Address,60275.0,42.3361,-71.0488,Constituent Call,"(42.3361, -71.0488)"
474657,101001248325,01/16/2015 09:46:53 AM,01/17/2015 09:46:53 AM,04/14/2015 09:33:27 AM,OVERDUE,Closed,Case Closed NOBASE: No Basis,Unsafe/Dangerous Conditions,Inspectional Services,Building,Unsafe Dangerous Conditions,ISD_Building (INTERNAL),ISD,,,171 Messinger St  Mattapan  MA  02126,8.0,07,5.0,B3,Greater Mattapan,9.0,Ward 18,1803.0,R1,171 Messinger St,2126.0,Address,94719.0,42.2753,-71.1025,Constituent Call,"(42.2753, -71.1025)"
475114,101001248999,01/17/2015 01:42:26 PM,01/18/2015 01:42:26 PM,02/03/2015 10:40:18 AM,OVERDUE,Closed,Case Closed VIOISS: Violation Filed,Unsafe/Dangerous Conditions,Inspectional Services,Building,Unsafe Dangerous Conditions,ISD_Building (INTERNAL),ISD,,,133 Peterborough St  Boston  MA  02215,4.0,10A,8.0,D4,Fenway / Kenmore / Audubon Circle / Longwood,14.0,Ward 21,2101.0,A,133 Peterborough St,2215.0,Address,109779.0,42.3429,-71.101,Self Service,"(42.3429, -71.101)"
475938,101001249966,01/20/2015 08:27:40 AM,01/21/2015 08:27:39 AM,02/20/2015 02:26:45 PM,OVERDUE,Closed,Case Closed NOACC: Closed-No Access,Unsafe/Dangerous Conditions,Inspectional Services,Building,Unsafe Dangerous Conditions,ISD_Building (INTERNAL),ISD,,,356 Marlborough St  Boston  MA  02115,4.0,1C,8.0,D4,Back Bay,14.0,Ward 5,509.0,CM,356 Marlborough St,2115.0,Address,91056.0,42.3506,-71.0861,Constituent Call,"(42.3506, -71.0861)"
476148,101001250295,01/20/2015 12:08:18 PM,01/21/2015 12:08:17 PM,04/27/2015 08:24:44 AM,OVERDUE,Closed,Case Closed VIOLFND: Violation Found,Unsafe/Dangerous Conditions,Inspectional Services,Building,Unsafe Dangerous Conditions,ISD_Building (INTERNAL),ISD,,,16 Marmion St  Jamaica Plain  MA  02130,9.0,02,6.0,E13,Jamaica Plain,11.0,Ward 11,1106.0,R1,16 Marmion St,2130.0,Address,91648.0,42.3126,-71.1034,Constituent Call,"(42.3126, -71.1034)"
476231,101001250437,01/20/2015 01:52:09 PM,01/21/2015 01:52:09 PM,01/21/2015 08:22:04 AM,ONTIME,Closed,Case Closed NEWOWN: Closed-New Owner,Unsafe/Dangerous Conditions,Inspectional Services,Building,Unsafe Dangerous Conditions,ISD_Building (INTERNAL),ISD,,,14 Essex St  Charlestown  MA  02129,3.0,1A,1.0,A15,Charlestown,2.0,Ward 2,206.0,R1,14 Essex St,2129.0,Address,54348.0,42.3792,-71.07,Constituent Call,"(42.3792, -71.07)"
476332,101001250582,01/20/2015 03:33:50 PM,01/21/2015 03:33:50 PM,02/06/2015 11:34:11 AM,OVERDUE,Closed,Case Closed NOBASE: No Basis,Unsafe/Dangerous Conditions,Inspectional Services,Building,Unsafe Dangerous Conditions,ISD_Building (INTERNAL),ISD,,,44 Arbutus St  Dorchester  MA  02124,8.0,07,4.0,B3,Greater Mattapan,9.0,Ward 14,1412.0,R3,44 Arbutus St,2124.0,Address,4500.0,42.2875,-71.0876,Constituent Call,"(42.2875, -71.0876)"
476498,101001250850,01/21/2015 09:11:02 AM,01/22/2015 09:11:02 AM,03/30/2015 09:10:02 AM,OVERDUE,Closed,Case Closed VIOISS: Violation Filed,Unsafe/Dangerous Conditions,Inspectional Services,Building,Unsafe Dangerous Conditions,ISD_Building (INTERNAL),ISD,,,157 Cottage St  East Boston  MA  02128,1.0,09,1.0,A7,East Boston,1.0,Ward 1,102.0,R3,157 Cottage St,2128.0,Address,43371.0,42.3697,-71.0328,Constituent Call,"(42.3697, -71.0328)"
476500,101001250856,01/21/2015 09:16:41 AM,01/22/2015 09:16:41 AM,01/23/2015 03:35:33 PM,OVERDUE,Closed,Case Closed TFA: Tenant Failed Apt\Was Not Home,Unsafe/Dangerous Conditions,Inspectional Services,Building,Unsafe Dangerous Conditions,ISD_Building (INTERNAL),ISD,,,50 Undine Rd  Brighton  MA  02135,11.0,04,9.0,D14,Brighton,15.0,22,2208.0,CM,50 Undine Rd,2135.0,Address,138986.0,42.342,-71.1681,Constituent Call,"(42.342, -71.1681)"
476502,101001250859,01/21/2015 09:18:01 AM,01/22/2015 09:18:01 AM,01/26/2015 09:34:19 AM,OVERDUE,Closed,Case Closed NOVIO: No Violation Found/No Cause,Unsafe/Dangerous Conditions,Inspectional Services,Building,Unsafe Dangerous Conditions,ISD_Building (INTERNAL),ISD,,,220 Fisher Ave  Mission Hill  MA  02120,9.0,10A,8.0,B2,Mission Hill,11.0,Ward 10,1008.0,A,220 Fisher Ave,2120.0,Address,165283.0,42.3303,-71.1089,Constituent Call,"(42.3303, -71.1089)"
476505,101001250862,01/21/2015 09:19:23 AM,01/22/2015 09:19:23 AM,03/03/2015 02:44:26 PM,OVERDUE,Closed,Case Closed CORR: Corrected,Unsafe/Dangerous Conditions,Inspectional Services,Building,Unsafe Dangerous Conditions,ISD_Building (INTERNAL),ISD,,,82 Julian St  Dorchester  MA  02125,7.0,03,7.0,B2,Roxbury,13.0,Ward 13,1301.0,R1,82 Julian St,2125.0,Address,80336.0,42.3188,-71.074,Constituent Call,"(42.3188, -71.074)"
476515,101001250875,01/21/2015 09:24:14 AM,01/22/2015 09:24:14 AM,02/20/2015 02:41:52 PM,OVERDUE,Closed,Case Closed NOACC: Closed-No Access,Unsafe/Dangerous Conditions,Inspectional Services,Building,Unsafe Dangerous Conditions,ISD_Building (INTERNAL),ISD,,,47 Garden St  Boston  MA  02114,3.0,1B,8.0,A1,Beacon Hill,14.0,Ward 5,504.0,A,47 Garden St,2114.0,Address,62519.0,42.3599,-71.067,Constituent Call,"(42.3599, -71.067)"
476518,101001250879,01/21/2015 09:28:07 AM,01/22/2015 09:28:07 AM,02/04/2015 10:41:53 AM,OVERDUE,Closed,Case Closed VIOISS: Violation Filed,Unsafe/Dangerous Conditions,Inspectional Services,Building,Unsafe Dangerous Conditions,ISD_Building (INTERNAL),ISD,,,120 W Broadway  South Boston  MA  02127,6.0,05,2.0,C6,South Boston / South Boston Waterfront,5.0,Ward 6,601.0,RC,120 W Broadway,2127.0,Address,172138.0,42.3414,-71.0544,Constituent Call,"(42.3414, -71.0544)"
476523,101001250885,01/21/2015 09:32:18 AM,01/22/2015 09:32:18 AM,02/04/2015 09:45:14 AM,OVERDUE,Closed,Case Closed ROA: Refer to Other Agency/Division,Unsafe/Dangerous Conditions,Inspectional Services,Building,Unsafe Dangerous Conditions,ISD_Building (INTERNAL),ISD,,,2971 Washington St  Roxbury  MA  02119,9.0,10B,6.0,B2,Roxbury,11.0,11,1104.0,A,2971 Washington St,2119.0,Address,171115.0,42.3181,-71.0964,Constituent Call,"(42.3181, -71.0964)"
476525,101001250887,01/21/2015 09:35:28 AM,01/22/2015 09:35:28 AM,02/04/2015 09:44:30 AM,OVERDUE,Closed,Case Closed ROA: Refer to Other Agency/Division,Unsafe/Dangerous Conditions,Inspectional Services,Building,Unsafe Dangerous Conditions,ISD_Building (INTERNAL),ISD,,,2973 Washington St  Roxbury  MA  02119,9.0,10B,6.0,B2,Roxbury,11.0,11,1104.0,,2973 Washington St,2119.0,Address,346905.0,42.3594,-71.0587,Constituent Call,"(0, 0)"
476527,101001250889,01/21/2015 09:36:27 AM,01/22/2015 09:36:27 AM,02/04/2015 09:43:23 AM,OVERDUE,Closed,Case Closed ROA: Refer to Other Agency/Division,Unsafe/Dangerous Conditions,Inspectional Services,Building,Unsafe Dangerous Conditions,ISD_Building (INTERNAL),ISD,,,2975 Washington St  Roxbury  MA  02119,9.0,10B,6.0,B2,Roxbury,11.0,11,1104.0,A,2975 Washington St,2119.0,Address,171116.0,42.3181,-71.0964,Constituent Call,"(42.3181, -71.0964)"
476528,101001250892,01/21/2015 09:38:41 AM,01/22/2015 09:38:41 AM,01/30/2015 03:32:35 PM,OVERDUE,Closed,Case Closed CORR: Corrected,Unsafe/Dangerous Conditions,Inspectional Services,Building,Unsafe Dangerous Conditions,ISD_Building (INTERNAL),ISD,,,181 Endicott St  Boston  MA  02113,3.0,1B,1.0,A1,Downtown / Financial District,3.0,Ward 3,304.0,R4,181 Endicott St,2113.0,Address,53842.0,42.3661,-71.0575,Constituent Call,"(42.3661, -71.0575)"
476591,101001250978,01/21/2015 10:43:59 AM,01/22/2015 10:43:58 AM,03/20/2015 08:51:40 AM,OVERDUE,Closed,Case Closed VIOISS: Violation Filed,Unsafe/Dangerous Conditions,Inspectional Services,Building,Unsafe Dangerous Conditions,ISD_Building (INTERNAL),ISD,,,209 D St  South Boston  MA  02127,6.0,05,2.0,C6,South Boston / South Boston Waterfront,5.0,Ward 6,603.0,CM,209 D St,2127.0,Address,45453.0,42.3376,-71.052,Constituent Call,"(42.3376, -71.052)"
476648,101001251073,01/21/2015 11:38:03 AM,01/22/2015 11:38:03 AM,03/11/2015 09:25:37 AM,OVERDUE,Closed,Case Closed ADCLSD: Administratively Closed,Unsafe/Dangerous Conditions,Inspectional Services,Building,Unsafe Dangerous Conditions,ISD_Building (INTERNAL),ISD,,,1 Old Morton St  Mattapan  MA  02126,8.0,07,3.0,B3,Dorchester,7.0,Ward 17,1714.0,R2,1 Old Morton St,2126.0,Address,168369.0,42.2748,-71.0722,Constituent Call,"(42.2748, -71.0722)"
477078,101001251758,01/22/2015 10:27:48 AM,01/23/2015 10:27:48 AM,01/22/2015 10:39:48 AM,ONTIME,Closed,Case Closed ADCLSD: Administratively Closed,Unsafe/Dangerous Conditions,Inspectional Services,Building,Unsafe Dangerous Conditions,ISD_Building (INTERNAL),ISD,,,1187 Morton St  Mattapan  MA  02126,8.0,07,3.0,B3,Dorchester,7.0,Ward 17,1714.0,R2,1187 Morton St,2126.0,Address,97668.0,42.2748,-71.0723,Constituent Call,"(42.2748, -71.0723)"
477090,101001251775,01/22/2015 10:42:11 AM,01/23/2015 10:42:11 AM,03/02/2015 11:21:05 AM,OVERDUE,Closed,Case Closed NOBASE: No Basis,Unsafe/Dangerous Conditions,Inspectional Services,Building,Unsafe Dangerous Conditions,ISD_Building (INTERNAL),ISD,,,1187 Morton St  Mattapan  MA  02126,8.0,07,3.0,B3,Dorchester,7.0,Ward 17,1714.0,R2,1187 Morton St,2126.0,Address,97668.0,42.2748,-71.0723,Constituent Call,"(42.2748, -71.0723)"
477138,101001251857,01/22/2015 11:49:55 AM,01/23/2015 11:49:55 AM,02/03/2015 09:15:07 AM,OVERDUE,Closed,Case Closed VIOISS: Violation Filed,Unsafe/Dangerous Conditions,Inspectional Services,Building,Unsafe Dangerous Conditions,ISD_Building (INTERNAL),ISD,,,97 Waldeck St  Dorchester  MA  02124,7.0,03,4.0,C11,Dorchester,8.0,Ward 17,1702.0,R4,97 Waldeck St,2124.0,Address,141455.0,42.2991,-71.065,Constituent Call,"(42.2991, -71.065)"
477477,101001252419,01/23/2015 09:53:01 AM,01/24/2015 09:53:00 AM,03/02/2015 11:18:54 AM,OVERDUE,Closed,Case Closed VIOISS: Violation Filed,Unsafe/Dangerous Conditions,Inspectional Services,Building,Unsafe Dangerous Conditions,ISD_Building (INTERNAL),ISD,,,540 Gallivan Blvd  Dorchester  MA  02122,8.0,07,3.0,C11,Dorchester,7.0,Ward 16,1609.0,C,540 Gallivan Blvd,2122.0,Address,62343.0,42.283,-71.0547,Constituent Call,"(42.283, -71.0547)"
477484,101001252430,01/23/2015 09:59:41 AM,01/24/2015 09:59:41 AM,03/12/2015 10:48:59 AM,OVERDUE,Closed,Case Closed ROA: Refer to Other Agency/Division,Unsafe/Dangerous Conditions,Inspectional Services,Building,Unsafe Dangerous Conditions,ISD_Building (INTERNAL),ISD,,,2 Neptune Rd  East Boston  MA  02128,1.0,09,1.0,A7,East Boston,1.0,01,110.0,,2 Neptune Rd,2128.0,Address,355333.0,42.3594,-71.0587,Constituent Call,"(0, 0)"
477594,101001252596,01/23/2015 11:54:41 AM,01/24/2015 11:54:41 AM,04/02/2015 12:19:15 PM,OVERDUE,Closed,Case Closed ADCLSD: Administratively Closed,Unsafe/Dangerous Conditions,Inspectional Services,Building,Unsafe Dangerous Conditions,ISD_Building (INTERNAL),ISD,,,103 W Third St  South Boston  MA  02127,6.0,05,2.0,C6,South Boston / South Boston Waterfront,5.0,Ward 6,601.0,R2,103 W Third St,2127.0,Address,135203.0,42.3412,-71.0527,Constituent Call,"(42.3412, -71.0527)"
477658,101001252720,01/23/2015 01:41:48 PM,01/24/2015 01:41:48 PM,04/03/2015 10:07:24 AM,OVERDUE,Closed,Case Closed VIOISS: Violation Filed,Unsafe/Dangerous Conditions,Inspectional Services,Building,Unsafe Dangerous Conditions,ISD_Building (INTERNAL),ISD,,,23 Decatur St  East Boston  MA  02128,1.0,09,1.0,A7,East Boston,1.0,Ward 1,104.0,RC,23 Decatur St,2128.0,Address,222808.0,42.3725,-71.0404,Constituent Call,"(42.3725, -71.0404)"
477734,101001252842,01/23/2015 03:49:46 PM,01/24/2015 03:49:45 PM,,OVERDUE,Open,,Unsafe/Dangerous Conditions,Inspectional Services,Building,Unsafe Dangerous Conditions,ISD_Building (INTERNAL),ISD,,,21 Esmond St  Dorchester  MA  02121,7.0,03,4.0,B3,Greater Mattapan,8.0,Ward 14,1407.0,R3,21 Esmond St,2121.0,Address,230837.0,42.2987,-71.0856,Constituent Call,"(42.2987, -71.0856)"
477907,101001253067,01/24/2015 10:57:36 AM,01/25/2015 10:57:36 AM,03/06/2015 08:45:51 AM,OVERDUE,Closed,Case Closed NOVIO: No Violation Found/No Cause,Unsafe/Dangerous Conditions,Inspectional Services,Building,Unsafe Dangerous Conditions,ISD_Building (INTERNAL),ISD,,,28 Whitman St  Dorchester  MA  02124,8.0,07,4.0,B3,Dorchester,9.0,Ward 17,1708.0,R3,28 Whitman St,2124.0,Address,149434.0,42.2863,-71.0766,Constituent Call,"(42.2863, -71.0766)"
478355,101001253901,01/26/2015 08:44:24 AM,01/27/2015 08:44:23 AM,02/27/2015 03:43:54 PM,OVERDUE,Closed,Case Closed ADCLSD: Administratively Closed,Unsafe/Dangerous Conditions,Inspectional Services,Building,Unsafe Dangerous Conditions,ISD_Building (INTERNAL),ISD,,,5 Springer St  South Boston  MA  02127,6.0,05,2.0,C6,South Boston / South Boston Waterfront,5.0,Ward 7,702.0,R1,5 Springer St,2127.0,Address,129762.0,42.3318,-71.0409,Constituent Call,"(42.3318, -71.0409)"
478391,101001253993,01/26/2015 09:35:36 AM,01/27/2015 09:35:36 AM,,OVERDUE,Open,,Unsafe/Dangerous Conditions,Inspectional Services,Building,Unsafe Dangerous Conditions,ISD_Building (INTERNAL),ISD,,,94 Walnut Ave  Roxbury  MA  02119,7.0,10B,7.0,B2,Roxbury,13.0,Ward 12,1203.0,R2,94 Walnut Ave,2119.0,Address,327611.0,42.3216,-71.0852,Constituent Call,"(42.3216, -71.0852)"
478463,101001254162,01/26/2015 11:24:51 AM,01/27/2015 11:24:51 AM,02/03/2015 03:48:26 PM,OVERDUE,Closed,Case Closed ADCLSD: Administratively Closed,Unsafe/Dangerous Conditions,Inspectional Services,Building,Unsafe Dangerous Conditions,ISD_Building (INTERNAL),ISD,,,58 Birchwood St  West Roxbury  MA  02132,12.0,06,6.0,E5,West Roxbury,12.0,Ward 20,2015.0,R1,58 Birchwood St,2132.0,Address,15690.0,42.258,-71.157,Constituent Call,"(42.258, -71.157)"
478465,101001254166,01/26/2015 11:27:01 AM,01/27/2015 11:27:01 AM,02/03/2015 03:38:58 PM,OVERDUE,Closed,Case Closed ADCLSD: Administratively Closed,Unsafe/Dangerous Conditions,Inspectional Services,Building,Unsafe Dangerous Conditions,ISD_Building (INTERNAL),ISD,,,30 Worcester Sq  Roxbury  MA  02118,4.0,1C,2.0,D4,South End,6.0,Ward 8,802.0,CM,30 Worcester Sq,2118.0,Address,152274.0,42.3365,-71.0741,Constituent Call,"(42.3365, -71.0741)"
481104,101001257422,01/28/2015 09:55:17 AM,01/29/2015 09:55:17 AM,01/29/2015 10:29:02 AM,OVERDUE,Closed,Case Closed :,Unsafe/Dangerous Conditions,Inspectional Services,Building,Unsafe Dangerous Conditions,ISD_Building (INTERNAL),ISD,,,119 Needham Rd  Hyde Park  MA  02136,12.0,08,5.0,E18,Hyde Park,10.0,Ward 18,1817.0,R2,119 Needham Rd,2136.0,Address,100498.0,42.2418,-71.1228,Constituent Call,"(42.2418, -71.1228)"
481243,101001257589,01/28/2015 10:31:03 AM,01/29/2015 10:31:02 AM,01/28/2015 10:41:31 AM,ONTIME,Closed,Case Closed Duplicate of Existing Case,Unsafe/Dangerous Conditions,Inspectional Services,Building,Unsafe Dangerous Conditions,ISD_Building (INTERNAL),ISD,,,190 Hillside St  Mission Hill  MA  02120,9.0,10A,8.0,B2,Mission Hill,14.0,Ward 10,1004.0,R3,190 Hillside St,2120.0,Address,252142.0,42.3318,-71.1086,Constituent Call,"(42.3318, -71.1086)"
483728,101001260680,01/29/2015 08:46:12 AM,01/30/2015 08:46:12 AM,02/06/2015 07:53:25 AM,OVERDUE,Closed,Case Closed REINSP: Issues Found  Re-Inspection,Unsafe/Dangerous Conditions,Inspectional Services,Building,Unsafe Dangerous Conditions,ISD_Building (INTERNAL),ISD,,,13 Auburn St  Charlestown  MA  02129,3.0,1A,1.0,A15,Charlestown,2.0,Ward 2,206.0,CM,13 Auburn St,2129.0,Address,6453.0,42.3808,-71.0694,Constituent Call,"(42.3808, -71.0694)"
484091,101001261200,01/29/2015 10:25:05 AM,01/30/2015 10:25:05 AM,03/02/2015 01:17:58 PM,OVERDUE,Closed,Case Closed CORR: Corrected,Unsafe/Dangerous Conditions,Inspectional Services,Building,Unsafe Dangerous Conditions,ISD_Building (INTERNAL),ISD,,,INTERSECTION of Carpenter St & Preble St  South Boston  MA,6.0,05,2.0,C6,South Boston / South Boston Waterfront,5.0,Ward 7,706.0,,INTERSECTION Carpenter St & Preble St,,Intersection,2466.0,42.3294,-71.0563,Constituent Call,"(42.3294, -71.0563)"
484108,101001261221,01/29/2015 10:29:22 AM,01/30/2015 10:29:21 AM,01/30/2015 11:50:33 AM,OVERDUE,Closed,Case Closed ADCLSD: Administratively Closed,Unsafe/Dangerous Conditions,Inspectional Services,Building,Unsafe Dangerous Conditions,ISD_Building (INTERNAL),ISD,,,31 Greenwich St  Dorchester  MA  02122,7.0,03,3.0,C11,Dorchester,8.0,Ward 15,1506.0,R1,31 Greenwich St,2122.0,Address,66854.0,42.3036,-71.0579,Constituent Call,"(42.3036, -71.0579)"
484339,101001261546,01/29/2015 11:40:48 AM,01/30/2015 11:40:48 AM,01/30/2015 11:51:52 AM,OVERDUE,Closed,Case Closed ADCLSD: Administratively Closed,Unsafe/Dangerous Conditions,Inspectional Services,Building,Unsafe Dangerous Conditions,ISD_Building (INTERNAL),ISD,,,31 Greenwich St  Dorchester  MA  02122,7.0,03,3.0,C11,Dorchester,8.0,Ward 15,1506.0,R1,31 Greenwich St,2122.0,Address,66854.0,42.3036,-71.0579,Constituent Call,"(42.3036, -71.0579)"
485888,101001263964,01/30/2015 09:23:19 AM,01/31/2015 09:23:19 AM,,OVERDUE,Open,,Unsafe/Dangerous Conditions,Inspectional Services,Building,Unsafe Dangerous Conditions,ISD_Building (INTERNAL),ISD,,,170 Morton St  Jamaica Plain  MA  02130,9.0,02,7.0,B2,Jamaica Plain,13.0,12,1207.0,E,170 Morton St,2130.0,Address,341854.0,42.2995,-71.1018,Constituent Call,"(42.2995, -71.1018)"
486413,101001264828,01/30/2015 02:22:51 PM,01/31/2015 02:22:50 PM,04/09/2015 03:34:25 PM,OVERDUE,Closed,Case Closed NOBASE: No Basis,Unsafe/Dangerous Conditions,Inspectional Services,Building,Unsafe Dangerous Conditions,ISD_Building (INTERNAL),ISD,,,1150 Hyde Park Ave  Hyde Park  MA  02136,12.0,08,5.0,E18,Hyde Park,10.0,Ward 18,1813.0,R2,1150 Hyde Park Ave,2136.0,Address,77059.0,42.26,-71.1228,Constituent Call,"(42.26, -71.1228)"
487856,101001267090,02/02/2015 10:14:14 AM,02/03/2015 10:14:14 AM,03/02/2015 01:20:13 PM,OVERDUE,Closed,Case Closed ADCLSD: Administratively Closed,Unsafe/Dangerous Conditions,Inspectional Services,Building,Unsafe Dangerous Conditions,ISD_Building (INTERNAL),ISD,,,347-351 Congress St  Boston  MA  02210,6.0,05,2.0,C6,South Boston / South Boston Waterfront,5.0,Ward 6,601.0,C,347-351 Congress St,2210.0,Address,42105.0,42.3503,-71.0489,Constituent Call,"(42.3503, -71.0489)"
487896,101001267156,02/02/2015 10:47:24 AM,02/03/2015 10:47:23 AM,02/03/2015 10:39:22 AM,ONTIME,Closed,Case Closed VIOISS: Violation Filed,Unsafe/Dangerous Conditions,Inspectional Services,Building,Unsafe Dangerous Conditions,ISD_Building (INTERNAL),ISD,,,77 Brighton Ave  Allston  MA  02134,11.0,04,9.0,D14,Allston / Brighton,15.0,Ward 21,2104.0,A,77 Brighton Ave,2134.0,Address,20175.0,42.3529,-71.129,Constituent Call,"(42.3529, -71.129)"
488978,101001268443,02/02/2015 07:20:03 PM,02/03/2015 07:20:03 PM,02/05/2015 03:53:15 PM,OVERDUE,Closed,Case Closed NOVIO: No Violation Found/No Cause,Unsafe/Dangerous Conditions,Inspectional Services,Building,Unsafe Dangerous Conditions,ISD_Building (INTERNAL),ISD,,,232 Leyden St  East Boston  MA  02128,1.0,09,1.0,A7,East Boston,1.0,Ward 1,113.0,R1,232 Leyden St,2128.0,Address,85799.0,42.3887,-71.0022,Self Service,"(42.3887, -71.0022)"
489805,101001269433,02/03/2015 09:26:20 AM,02/04/2015 09:26:20 AM,03/02/2015 11:28:48 AM,OVERDUE,Closed,Case Closed ROA: Refer to Other Agency/Division,Unsafe/Dangerous Conditions,Inspectional Services,Building,Unsafe Dangerous Conditions,ISD_Building (INTERNAL),ISD,,,16 Ely Rd  Dorchester  MA  02124,8.0,07,3.0,C11,Dorchester,7.0,Ward 16,1611.0,R1,16 Ely Rd,2124.0,Address,53479.0,42.283,-71.0581,Constituent Call,"(42.283, -71.0581)"
490836,101001270969,02/03/2015 02:54:29 PM,02/04/2015 02:54:28 PM,02/23/2015 08:25:11 AM,OVERDUE,Closed,Case Closed NOACC: Closed-No Access,Unsafe/Dangerous Conditions,Inspectional Services,Building,Unsafe Dangerous Conditions,ISD_Building (INTERNAL),ISD,,,35 Patten St  Jamaica Plain  MA  02130,12.0,02,6.0,E13,Jamaica Plain,10.0,Ward 19,1907.0,R3,35 Patten St,2130.0,Address,108453.0,42.2938,-71.116,Constituent Call,"(42.2938, -71.116)"
492829,101001273785,02/04/2015 09:59:20 AM,02/05/2015 09:59:20 AM,03/11/2015 08:38:58 AM,OVERDUE,Closed,Case Closed ADCLSD: Administratively Closed,Unsafe/Dangerous Conditions,Inspectional Services,Building,Unsafe Dangerous Conditions,ISD_Building (INTERNAL),ISD,,,25 Worcester Sq  Roxbury  MA  02118,4.0,1C,2.0,D4,South End,6.0,Ward 8,802.0,CM,25 Worcester Sq,2118.0,Address,152241.0,42.3363,-71.0747,Constituent Call,"(42.3363, -71.0747)"
492889,101001273879,02/04/2015 10:16:24 AM,02/05/2015 10:16:24 AM,03/12/2015 09:58:21 AM,OVERDUE,Closed,Case Closed NOVIO: No Violation Found/No Cause,Unsafe/Dangerous Conditions,Inspectional Services,Building,Unsafe Dangerous Conditions,ISD_Building (INTERNAL),ISD,,,114 Everett St  East Boston  MA  02128,1.0,09,1.0,A7,East Boston,1.0,Ward 1,102.0,R3,114 Everett St,2128.0,Address,55028.0,42.3672,-71.0337,Constituent Call,"(42.3672, -71.0337)"
493151,101001274271,02/04/2015 11:21:00 AM,02/05/2015 11:21:00 AM,04/02/2015 02:17:45 PM,OVERDUE,Closed,Case Closed NOACC: Closed-No Access,Unsafe/Dangerous Conditions,Inspectional Services,Building,Unsafe Dangerous Conditions,ISD_Building (INTERNAL),ISD,,,18-20 Wrentham St  Dorchester  MA  02124,8.0,07,3.0,C11,Dorchester,7.0,Ward 16,1606.0,R2,18-20 Wrentham St,2124.0,Address,152982.0,42.2878,-71.063,Constituent Call,"(42.2878, -71.063)"
493198,101001274330,02/04/2015 11:32:51 AM,02/05/2015 11:32:51 AM,04/07/2015 09:47:40 AM,OVERDUE,Closed,Case Closed ADCLSD: Administratively Closed,Unsafe/Dangerous Conditions,Inspectional Services,Building,Unsafe Dangerous Conditions,ISD_Building (INTERNAL),ISD,,,60 Clarkson St  Dorchester  MA  02125,7.0,03,3.0,C11,Dorchester,8.0,Ward 15,1503.0,R3,60 Clarkson St,2125.0,Address,33524.0,42.3081,-71.0674,Constituent Call,"(42.3081, -71.0674)"
493213,101001274355,02/04/2015 11:37:17 AM,02/05/2015 11:37:17 AM,02/25/2015 09:45:21 AM,OVERDUE,Closed,Case Closed NOVIO: No Violation Found/No Cause,Unsafe/Dangerous Conditions,Inspectional Services,Building,Unsafe Dangerous Conditions,ISD_Building (INTERNAL),ISD,,,90-90B Bynner St  Jamaica Plain  MA  02130,9.0,02,6.0,E13,Jamaica Plain,11.0,10,1009.0,CM,90-90B Bynner St,2130.0,Address,24524.0,42.3238,-71.1126,Constituent Call,"(42.3238, -71.1126)"
493389,101001274610,02/04/2015 12:34:29 PM,02/05/2015 12:34:29 PM,02/12/2015 08:45:56 AM,OVERDUE,Closed,Case Closed ROA: Refer to Other Agency/Division,Unsafe/Dangerous Conditions,Inspectional Services,Building,Unsafe Dangerous Conditions,ISD_Building (INTERNAL),ISD,,,129-131 Paul Gore St  Jamaica Plain  MA  02130,9.0,02,6.0,E13,Jamaica Plain,11.0,Ward 19,1901.0,R4,129-131 Paul Gore St,2130.0,Address,108531.0,42.3182,-71.1056,Self Service,"(42.3182, -71.1056)"
495189,101001277399,02/05/2015 09:56:35 AM,02/06/2015 09:56:35 AM,02/17/2015 08:12:52 AM,OVERDUE,Closed,Case Closed VIOISS: Violation Filed,Unsafe/Dangerous Conditions,Inspectional Services,Building,Unsafe Dangerous Conditions,ISD_Building (INTERNAL),ISD,,,265-271 Purchase St  Boston  MA  02110,3.0,1C,1.0,A1,Downtown / Financial District,3.0,Ward 3,306.0,C,265-271 Purchase St,2110.0,Address,168960.0,42.3535,-71.0558,Constituent Call,"(42.3535, -71.0558)"
495293,101001277546,02/05/2015 10:34:45 AM,02/06/2015 10:34:45 AM,04/15/2015 09:14:36 AM,OVERDUE,Closed,Case Closed NOBASE: No Basis,Unsafe/Dangerous Conditions,Inspectional Services,Building,Unsafe Dangerous Conditions,ISD_Building (INTERNAL),ISD,,,9 Mount Everett St  Dorchester  MA  02125,7.0,03,3.0,C11,Dorchester,8.0,Ward 15,1501.0,R1,9 Mount Everett St,2125.0,Address,98176.0,42.3108,-71.07,Constituent Call,"(42.3108, -71.07)"
495778,101001278316,02/05/2015 02:36:23 PM,02/06/2015 02:36:23 PM,02/23/2015 09:47:40 AM,OVERDUE,Closed,Case Closed VIOISS: Violation Filed,Unsafe/Dangerous Conditions,Inspectional Services,Building,Unsafe Dangerous Conditions,ISD_Building (INTERNAL),ISD,,,31 Harold St  Roxbury  MA  02119,9.0,10B,7.0,B2,Roxbury,13.0,Ward 12,1205.0,R3,31 Harold St,2119.0,Address,69613.0,42.3195,-71.0885,Constituent Call,"(42.3195, -71.0885)"
496585,101001279556,02/06/2015 09:08:06 AM,02/07/2015 09:08:05 AM,03/04/2015 01:35:29 PM,OVERDUE,Closed,Case Closed NOBASE: No Basis,Unsafe/Dangerous Conditions,Inspectional Services,Building,Unsafe Dangerous Conditions,ISD_Building (INTERNAL),ISD,,,27 Winthrop St  Charlestown  MA  02129,3.0,1A,1.0,A15,Charlestown,2.0,Ward 2,201.0,C,27 Winthrop St,2129.0,Address,340644.0,42.3739,-71.0611,Constituent Call,"(42.3739, -71.0611)"
496928,101001280057,02/06/2015 11:37:50 AM,02/07/2015 11:37:50 AM,02/19/2015 08:26:12 AM,OVERDUE,Closed,Case Closed NOVIO: No Violation Found/No Cause,Unsafe/Dangerous Conditions,Inspectional Services,Building,Unsafe Dangerous Conditions,ISD_Building (INTERNAL),ISD,,,INTERSECTION of Huntington Ave & S Huntington Ave  Mission Hill  MA,9.0,10A,8.0,B2,Mission Hill,11.0,Ward 10,1008.0,,INTERSECTION Huntington Ave & S Huntington Ave,,Intersection,6417.0,42.332,-71.1121,Constituent Call,"(42.332, -71.1121)"
497675,101001281295,02/07/2015 08:18:49 AM,02/08/2015 08:18:49 AM,02/13/2015 06:58:20 PM,OVERDUE,Closed,Case Closed TICKET: Ticket Issued,Unsafe/Dangerous Conditions,Inspectional Services,Building,Unsafe Dangerous Conditions,ISD_Building (INTERNAL),ISD,,,122 Seaver St  Dorchester  MA  02121,9.0,10B,7.0,B2,Roxbury,13.0,Ward 12,1207.0,C,122 Seaver St,2121.0,Address,124142.0,42.3099,-71.0915,Self Service,"(42.3099, -71.0915)"
499330,101001283622,02/09/2015 03:08:45 PM,02/10/2015 03:08:45 PM,03/12/2015 10:00:12 AM,OVERDUE,Closed,Case Closed NOVIO: No Violation Found/No Cause,Unsafe/Dangerous Conditions,Inspectional Services,Building,Unsafe Dangerous Conditions,ISD_Building (INTERNAL),ISD,,,345 Meridian St  East Boston  MA  02128,1.0,09,1.0,A7,East Boston,1.0,Ward 1,107.0,R3,345 Meridian St,2128.0,Address,274495.0,42.3784,-71.039,Self Service,"(42.3784, -71.039)"
499341,101001283633,02/09/2015 03:13:40 PM,02/10/2015 03:13:39 PM,03/12/2015 10:02:58 AM,OVERDUE,Closed,Case Closed NOVIO: No Violation Found/No Cause,Unsafe/Dangerous Conditions,Inspectional Services,Building,Unsafe Dangerous Conditions,ISD_Building (INTERNAL),ISD,,,349H-349 Meridian St  East Boston  MA  02128,1.0,09,1.0,A7,East Boston,1.0,Ward 1,107.0,R3,349H-349 Meridian St,2128.0,Address,167635.0,42.3785,-71.0389,Self Service,"(42.3785, -71.0389)"
499725,101001284086,02/09/2015 05:50:08 PM,02/10/2015 05:50:08 PM,03/05/2015 02:50:04 PM,OVERDUE,Closed,Case Closed CORR: Corrected,Unsafe/Dangerous Conditions,Inspectional Services,Building,Unsafe Dangerous Conditions,ISD_Building (INTERNAL),ISD,,,705 Massachusetts Ave  Roxbury  MA  02118,7.0,10B,2.0,D4,Roxbury,6.0,Ward 8,802.0,CM,705 Massachusetts Ave,2118.0,Address,92645.0,42.3349,-71.0755,Constituent Call,"(42.3349, -71.0755)"
500309,101001284813,02/10/2015 09:34:29 AM,02/11/2015 09:34:29 AM,04/14/2015 02:52:04 PM,OVERDUE,Closed,Case Closed NOBASE: No Basis,Unsafe/Dangerous Conditions,Inspectional Services,Building,Unsafe Dangerous Conditions,ISD_Building (INTERNAL),ISD,,,INTERSECTION of Stuart St & Clarendon Sq  Boston  MA,4.0,1C,2.0,D4,Back Bay,6.0,Ward 4,402.0,,INTERSECTION Stuart St & Clarendon Sq,,Intersection,8449.0,42.3479,-71.0781,Constituent Call,"(42.3479, -71.0781)"
501458,101001286331,02/10/2015 04:36:14 PM,02/11/2015 04:36:14 PM,,OVERDUE,Open,,Unsafe/Dangerous Conditions,Inspectional Services,Building,Unsafe Dangerous Conditions,ISD_Building (INTERNAL),ISD,,,3430 Washington St  Jamaica Plain  MA  02130,9.0,02,6.0,E13,Jamaica Plain,11.0,Ward 11,1107.0,C,3430 Washington St,2130.0,Address,144927.0,42.3077,-71.1057,Constituent Call,"(42.3077, -71.1057)"
502170,101001287336,02/11/2015 08:08:21 AM,02/12/2015 08:08:20 AM,03/20/2015 09:59:15 AM,OVERDUE,Closed,Case Closed NOVIO: No Violation Found/No Cause,Unsafe/Dangerous Conditions,Inspectional Services,Building,Unsafe Dangerous Conditions,ISD_Building (INTERNAL),ISD,,,199 Strathmore Rd  Brighton  MA  02135,11.0,04,9.0,D14,Allston / Brighton,15.0,Ward 21,2115.0,A,199 Strathmore Rd,2135.0,Address,131371.0,42.3405,-71.1547,Constituent Call,"(42.3405, -71.1547)"
502716,101001288212,02/11/2015 11:28:18 AM,02/12/2015 11:28:18 AM,03/23/2015 08:36:46 AM,OVERDUE,Closed,Case Closed CORR: Corrected,Unsafe/Dangerous Conditions,Inspectional Services,Building,Unsafe Dangerous Conditions,ISD_Building (INTERNAL),ISD,,,83A-91 Grew Ave  Roslindale  MA  02131,12.0,08,5.0,E18,Roslindale,10.0,18,1809.0,,83A-91 Grew Ave,2131.0,Address,354754.0,42.3594,-71.0587,Constituent Call,"(0, 0)"
502732,101001288237,02/11/2015 11:35:41 AM,02/12/2015 11:35:41 AM,03/09/2015 08:50:24 AM,OVERDUE,Closed,Case Closed NOVIO: No Violation Found/No Cause,Unsafe/Dangerous Conditions,Inspectional Services,Building,Unsafe Dangerous Conditions,ISD_Building (INTERNAL),ISD,,,66R Cambridge St  Charlestown  MA  02129,3.0,1A,1.0,A15,Charlestown,2.0,02,,C,66R Cambridge St,2129.0,Address,162832.0,42.3823,-71.0758,Constituent Call,"(42.3823, -71.0758)"
502861,101001288420,02/11/2015 12:39:43 PM,02/12/2015 12:39:43 PM,03/20/2015 10:00:54 AM,OVERDUE,Closed,Case Closed NOVIO: No Violation Found/No Cause,Unsafe/Dangerous Conditions,Inspectional Services,Building,Unsafe Dangerous Conditions,ISD_Building (INTERNAL),ISD,,,375 Dorchester St  South Boston  MA  02127,6.0,05,2.0,C6,South Boston / South Boston Waterfront,5.0,Ward 7,706.0,R3,375 Dorchester St,2127.0,Address,49051.0,42.3304,-71.0559,Constituent Call,"(42.3304, -71.0559)"
502959,101001288559,02/11/2015 01:30:13 PM,02/12/2015 01:30:13 PM,02/23/2015 03:00:49 PM,OVERDUE,Closed,Case Closed CLOSED: Closed/No Permit,Unsafe/Dangerous Conditions,Inspectional Services,Building,Unsafe Dangerous Conditions,ISD_Building (INTERNAL),ISD,,,1 Washington Mall  Boston  MA  02108,3.0,1B,1.0,A1,Downtown / Financial District,3.0,Ward 3,306.0,C,1 Washington Mall,2108.0,Address,171349.0,42.3594,-71.058,Constituent Call,"(42.3594, -71.058)"
503208,101001288923,02/11/2015 03:33:50 PM,02/12/2015 03:33:50 PM,02/11/2015 03:36:27 PM,ONTIME,Closed,Case Closed Case Invalid,Unsafe/Dangerous Conditions,Inspectional Services,Building,Unsafe Dangerous Conditions,ISD_Building (INTERNAL),ISD,,,107 Third Ave  Charlestown  MA  02129,3.0,1A,1.0,A15,Charlestown,2.0,Ward 2,202.0,E,107 Third Ave,2129.0,Address,170338.0,42.3761,-71.0545,Constituent Call,"(42.3761, -71.0545)"
503273,101001289012,02/11/2015 04:02:30 PM,02/12/2015 04:02:30 PM,03/04/2015 01:52:57 PM,OVERDUE,Closed,Case Closed VIOISS: Violation Filed,Unsafe/Dangerous Conditions,Inspectional Services,Building,Unsafe Dangerous Conditions,ISD_Building (INTERNAL),ISD,,,243-245 Main St  Charlestown  MA  02129,3.0,1A,1.0,A15,Charlestown,2.0,Ward 2,206.0,C,243-245 Main St,2129.0,Address,88467.0,42.3768,-71.0658,Constituent Call,"(42.3768, -71.0658)"
503484,101001289319,02/11/2015 05:37:54 PM,02/12/2015 05:37:54 PM,03/31/2015 08:40:19 AM,OVERDUE,Closed,Case Closed VIOISS: Violation Filed,Unsafe/Dangerous Conditions,Inspectional Services,Building,Unsafe Dangerous Conditions,ISD_Building (INTERNAL),ISD,,,113 Appleton St  Boston  MA  02116,4.0,1C,2.0,D4,South End,6.0,Ward 4,401.0,R3,113 Appleton St,2116.0,Address,3856.0,42.3454,-71.0743,Self Service,"(42.3454, -71.0743)"
504401,101001290767,02/12/2015 10:17:30 AM,02/13/2015 10:17:30 AM,03/06/2015 08:55:52 AM,OVERDUE,Closed,Case Closed NOVIO: No Violation Found/No Cause,Unsafe/Dangerous Conditions,Inspectional Services,Building,Unsafe Dangerous Conditions,ISD_Building (INTERNAL),ISD,,,INTERSECTION of Adams St & Nahant Ave  Dorchester  MA,8.0,07,3.0,C11,Dorchester,7.0,Ward 16,1609.0,,INTERSECTION Adams St & Nahant Ave,,Intersection,124.0,42.2875,-71.0548,Constituent Call,"(42.2875, -71.0548)"
504548,101001290973,02/12/2015 11:13:10 AM,02/13/2015 11:13:10 AM,03/13/2015 08:52:03 AM,OVERDUE,Closed,Case Closed NOBASE: No Basis,Unsafe/Dangerous Conditions,Inspectional Services,Building,Unsafe Dangerous Conditions,ISD_Building (INTERNAL),ISD,,,757 Gallivan Blvd  Dorchester  MA  02122,8.0,07,3.0,C11,Dorchester,7.0,Ward 16,1612.0,C,757 Gallivan Blvd,2122.0,Address,239227.0,42.2839,-71.0448,Constituent Call,"(42.2839, -71.0448)"
504683,101001291172,02/12/2015 12:15:39 PM,02/13/2015 12:15:39 PM,02/18/2015 02:11:06 PM,OVERDUE,Closed,Case Closed NOVIO: No Violation Found/No Cause,Unsafe/Dangerous Conditions,Inspectional Services,Building,Unsafe Dangerous Conditions,ISD_Building (INTERNAL),ISD,,,108-116 Richmond St  Boston  MA  02109,3.0,1B,1.0,A1,Downtown / Financial District,3.0,Ward 3,301.0,A,108-116 Richmond St,2109.0,Address,115740.0,42.3629,-71.0539,Constituent Call,"(42.3629, -71.0539)"
505869,101001292972,02/13/2015 09:43:59 AM,02/14/2015 09:43:59 AM,02/19/2015 06:14:07 PM,OVERDUE,Closed,Case Closed NOVIO: No Violation Found/No Cause,Unsafe/Dangerous Conditions,Inspectional Services,Building,Unsafe Dangerous Conditions,ISD_Building (INTERNAL),ISD,,,1954 Commonwealth Ave  Brighton  MA  02135,11.0,04,9.0,D14,Allston / Brighton,15.0,Ward 21,2116.0,R3,1954 Commonwealth Ave,2135.0,Address,39104.0,42.3386,-71.1562,Self Service,"(42.3386, -71.1562)"
505935,101001293067,02/13/2015 10:09:54 AM,02/14/2015 10:09:54 AM,02/13/2015 10:13:36 AM,ONTIME,Closed,Case Closed Case Noted new case will be made under different request type.,Unsafe/Dangerous Conditions,Inspectional Services,Building,Unsafe Dangerous Conditions,ISD_Building (INTERNAL),ISD,,,1039-1045 Commonwealth Ave  Boston  MA  02215,11.0,04,9.0,D14,Allston / Brighton,14.0,Ward 21,2103.0,RC,1039-1045 Commonwealth Ave,2215.0,Address,36981.0,42.3523,-71.1222,Constituent Call,"(42.3523, -71.1222)"
505949,101001293085,02/13/2015 10:14:36 AM,02/14/2015 10:14:36 AM,02/19/2015 02:15:48 PM,OVERDUE,Closed,Case Closed CORR: Corrected,Unsafe/Dangerous Conditions,Inspectional Services,Building,Unsafe Dangerous Conditions,ISD_Building (INTERNAL),ISD,,,1039-1045 Commonwealth Ave  Boston  MA  02215,11.0,04,9.0,D14,Allston / Brighton,14.0,Ward 21,2103.0,RC,1039-1045 Commonwealth Ave,2215.0,Address,36981.0,42.3523,-71.1222,Constituent Call,"(42.3523, -71.1222)"
506417,101001293759,02/13/2015 02:27:48 PM,02/14/2015 02:27:48 PM,02/19/2015 02:17:55 PM,OVERDUE,Closed,Case Closed ROA: Refer to Other Agency/Division,Unsafe/Dangerous Conditions,Inspectional Services,Building,Unsafe Dangerous Conditions,ISD_Building (INTERNAL),ISD,,,305 Hancock St  Dorchester  MA  02122,7.0,03,3.0,C11,Dorchester,8.0,15,1504.0,RC,305 Hancock St,2122.0,Address,165967.0,42.3081,-71.0588,Constituent Call,"(42.3081, -71.0588)"
506848,101001294396,02/13/2015 08:53:14 PM,02/14/2015 08:53:14 PM,03/03/2015 09:26:02 AM,OVERDUE,Closed,Case Closed NOBASE: No Basis,Unsafe/Dangerous Conditions,Inspectional Services,Building,Unsafe Dangerous Conditions,ISD_Building (INTERNAL),ISD,,,1520 Dorchester Ave  Dorchester  MA  02122,7.0,07,3.0,C11,Dorchester,7.0,16,1601.0,,1520 Dorchester Ave,2122.0,Address,344261.0,42.2989,-71.0604,Constituent Call,"(42.2989, -71.0604)"
511254,101001299870,02/17/2015 05:11:45 AM,02/18/2015 05:11:45 AM,03/18/2015 04:16:10 PM,OVERDUE,Closed,Case Closed :,Unsafe/Dangerous Conditions,Inspectional Services,Building,Unsafe Dangerous Conditions,ISD_Building (INTERNAL),ISD,,,62 Adams St  Dorchester  MA  02122,7.0,03,3.0,C11,Dorchester,8.0,Ward 15,1504.0,R3,62 Adams St,2122.0,Address,175821.0,42.3067,-71.0619,Self Service,"(42.3067, -71.0619)"
512376,101001301491,02/17/2015 02:01:04 PM,02/18/2015 02:01:04 PM,03/20/2015 10:05:03 AM,OVERDUE,Closed,Case Closed NOVIO: No Violation Found/No Cause,Unsafe/Dangerous Conditions,Inspectional Services,Building,Unsafe Dangerous Conditions,ISD_Building (INTERNAL),ISD,,,1344 Hyde Park Ave  Hyde Park  MA  02136,12.0,08,5.0,E18,Hyde Park,10.0,Ward 18,1818.0,EA,1344 Hyde Park Ave,2136.0,Address,77108.0,42.2517,-71.1248,Constituent Call,"(42.2517, -71.1248)"
512412,101001301538,02/17/2015 02:20:34 PM,02/18/2015 02:20:33 PM,03/17/2015 02:23:02 PM,OVERDUE,Closed,Case Closed :,Unsafe/Dangerous Conditions,Inspectional Services,Building,Unsafe Dangerous Conditions,ISD_Building (INTERNAL),ISD,,,1057-1059 Washington St  Dorchester  MA  02124,8.0,07,3.0,C11,Dorchester,7.0,Ward 17,1713.0,R2,1057-1059 Washington St,2124.0,Address,145910.0,42.2752,-71.07,Constituent Call,"(42.2752, -71.07)"
512433,101001301565,02/17/2015 02:29:37 PM,02/18/2015 02:29:37 PM,,OVERDUE,Open,,Unsafe/Dangerous Conditions,Inspectional Services,Building,Unsafe Dangerous Conditions,ISD_Building (INTERNAL),ISD,,,14 Palace Rd  Boston  MA  02115,4.0,10A,8.0,B2,Fenway / Kenmore / Audubon Circle / Longwood,14.0,Ward 4,410.0,A,14 Palace Rd,2115.0,Address,288209.0,42.3379,-71.0995,Constituent Call,"(42.3379, -71.0995)"
512855,101001302140,02/17/2015 04:57:14 PM,02/18/2015 04:57:14 PM,02/27/2015 02:59:24 PM,OVERDUE,Closed,Case Closed VIOISS: Violation Filed,Unsafe/Dangerous Conditions,Inspectional Services,Building,Unsafe Dangerous Conditions,ISD_Building (INTERNAL),ISD,,,135 W Seventh St  South Boston  MA  02127,6.0,05,2.0,C6,South Boston / South Boston Waterfront,5.0,Ward 6,602.0,R3,135 W Seventh St,2127.0,Address,125658.0,42.3355,-71.053,Constituent Call,"(42.3355, -71.053)"
513145,101001302531,02/17/2015 06:48:01 PM,02/18/2015 06:48:01 PM,03/20/2015 10:06:41 AM,OVERDUE,Closed,Case Closed NOVIO: No Violation Found/No Cause,Unsafe/Dangerous Conditions,Inspectional Services,Building,Unsafe Dangerous Conditions,ISD_Building (INTERNAL),ISD,,,22 Branchfield St  Dorchester  MA  02124,8.0,07,3.0,C11,Dorchester,7.0,Ward 17,1713.0,CM,22 Branchfield St,2124.0,Address,19568.0,42.2719,-71.0639,Constituent Call,"(42.2719, -71.0639)"
513711,101001303370,02/18/2015 08:54:57 AM,02/19/2015 08:54:57 AM,03/23/2015 08:24:45 AM,OVERDUE,Closed,Case Closed CORR: Corrected,Unsafe/Dangerous Conditions,Inspectional Services,Building,Unsafe Dangerous Conditions,ISD_Building (INTERNAL),ISD,,,65 Sprague St  Hyde Park  MA  02136,12.0,08,5.0,E18,Hyde Park,10.0,Ward 18,1820.0,I,65 Sprague St,2136.0,Address,129444.0,42.2357,-71.1399,Constituent Call,"(42.2357, -71.1399)"
513776,101001303463,02/18/2015 09:15:18 AM,02/19/2015 09:15:18 AM,02/27/2015 03:00:01 PM,OVERDUE,Closed,Case Closed ADCLSD: Administratively Closed,Unsafe/Dangerous Conditions,Inspectional Services,Building,Unsafe Dangerous Conditions,ISD_Building (INTERNAL),ISD,,,15 1/2 Boston Fish Pier   Boston  MA  02210,6.0,05,2.0,C6,South Boston / South Boston Waterfront,5.0,06,601.0,,15 1/2 Boston Fish Pier,2210.0,Address,351483.0,42.3594,-71.0587,Constituent Call,"(0, 0)"
513810,101001303518,02/18/2015 09:27:09 AM,02/19/2015 09:27:09 AM,04/03/2015 03:33:41 PM,OVERDUE,Closed,Case Closed ADCLSD: Administratively Closed,Unsafe/Dangerous Conditions,Inspectional Services,Building,Unsafe Dangerous Conditions,ISD_Building (INTERNAL),ISD,,,10 Post Office Sq  Boston  MA  02109,3.0,1C,1.0,A1,Boston,3.0,03,306.0,C,10 Post Office Sq,2109.0,Address,112362.0,42.3575,-71.056,Constituent Call,"(42.3575, -71.056)"
513890,101001303624,02/18/2015 09:52:03 AM,02/19/2015 09:52:03 AM,03/03/2015 09:27:49 AM,OVERDUE,Closed,Case Closed NOBASE: No Basis,Unsafe/Dangerous Conditions,Inspectional Services,Building,Unsafe Dangerous Conditions,ISD_Building (INTERNAL),ISD,,,INTERSECTION of Adams St & Nahant Ave  Dorchester  MA,8.0,07,3.0,C11,Dorchester,7.0,Ward 16,1609.0,,INTERSECTION Adams St & Nahant Ave,,Intersection,124.0,42.2875,-71.0548,Constituent Call,"(42.2875, -71.0548)"
514060,101001303856,02/18/2015 10:44:04 AM,02/19/2015 10:44:04 AM,03/16/2015 08:08:41 AM,OVERDUE,Closed,Case Closed ADCLSD: Administratively Closed,Unsafe/Dangerous Conditions,Inspectional Services,Building,Unsafe Dangerous Conditions,ISD_Building (INTERNAL),ISD,,,INTERSECTION of Beach St & Tyler St  Boston  MA,4.0,1C,2.0,A1,Downtown / Financial District,4.0,Ward 3,308.0,,INTERSECTION Beach St & Tyler St,,Intersection,1057.0,42.3514,-71.0605,Constituent Call,"(42.3514, -71.0605)"
514093,101001303897,02/18/2015 10:56:29 AM,02/19/2015 10:56:29 AM,03/13/2015 08:55:10 AM,OVERDUE,Closed,Case Closed NOVIO: No Violation Found/No Cause,Unsafe/Dangerous Conditions,Inspectional Services,Building,Unsafe Dangerous Conditions,ISD_Building (INTERNAL),ISD,,,10 Alvan Ter  Dorchester  MA  02125,7.0,03,7.0,C11,Dorchester,13.0,Ward 7,710.0,R3,10 Alvan Ter,2125.0,Address,177314.0,42.3172,-71.063,Constituent Call,"(42.3172, -71.063)"
514106,101001303912,02/18/2015 11:01:25 AM,02/19/2015 11:01:25 AM,03/12/2015 10:05:30 AM,OVERDUE,Closed,Case Closed NOVIO: No Violation Found/No Cause,Unsafe/Dangerous Conditions,Inspectional Services,Building,Unsafe Dangerous Conditions,ISD_Building (INTERNAL),ISD,,,146 Gove St  East Boston  MA  02128,1.0,09,1.0,A7,East Boston,1.0,Ward 1,102.0,R4,146 Gove St,2128.0,Address,65605.0,42.3699,-71.0336,Constituent Call,"(42.3699, -71.0336)"
514118,101001303930,02/18/2015 11:07:51 AM,02/19/2015 11:07:51 AM,02/24/2015 08:03:57 AM,OVERDUE,Closed,Case Closed ADCLSD: Administratively Closed,Unsafe/Dangerous Conditions,Inspectional Services,Building,Unsafe Dangerous Conditions,ISD_Building (INTERNAL),ISD,,,73 Chestnut St  Boston  MA  02108,3.0,1B,8.0,A1,Beacon Hill,14.0,Ward 5,505.0,RC,73 Chestnut St,2108.0,Address,31469.0,42.3569,-71.0708,Constituent Call,"(42.3569, -71.0708)"
514595,101001304621,02/18/2015 02:57:25 PM,02/19/2015 02:57:24 PM,04/08/2015 08:02:14 AM,OVERDUE,Closed,Case Closed NOBASE: No Basis,Unsafe/Dangerous Conditions,Inspectional Services,Building,Unsafe Dangerous Conditions,ISD_Building (INTERNAL),ISD,,,17 Cazenove St  Boston  MA  02116,4.0,1C,2.0,D4,South End,6.0,Ward 5,501.0,CM,17 Cazenove St,2116.0,Address,26643.0,42.3472,-71.0729,Constituent Call,"(42.3472, -71.0729)"
514610,101001304643,02/18/2015 03:03:12 PM,02/19/2015 03:03:12 PM,02/19/2015 03:47:10 PM,OVERDUE,Closed,Case Closed VIOISS: Violation Filed,Unsafe/Dangerous Conditions,Inspectional Services,Building,Unsafe Dangerous Conditions,ISD_Building (INTERNAL),ISD,,,30 Longfellow St  Dorchester  MA  02122,7.0,03,3.0,C11,Dorchester,8.0,Ward 15,1507.0,R1,30 Longfellow St,2122.0,Address,87129.0,42.303,-71.0657,Constituent Call,"(42.303, -71.0657)"
514857,101001304993,02/18/2015 05:07:41 PM,02/19/2015 05:07:41 PM,03/11/2015 09:16:56 AM,OVERDUE,Closed,Case Closed ADCLSD: Administratively Closed,Unsafe/Dangerous Conditions,Inspectional Services,Building,Unsafe Dangerous Conditions,ISD_Building (INTERNAL),ISD,,,35 Old Morton St  Mattapan  MA  02126,8.0,07,3.0,B3,Dorchester,7.0,Ward 17,1714.0,R3,35 Old Morton St,2126.0,Address,105180.0,42.2736,-71.072,Constituent Call,"(42.2736, -71.072)"
514920,101001305095,02/18/2015 05:44:50 PM,02/19/2015 05:44:50 PM,02/20/2015 08:33:20 AM,OVERDUE,Closed,Case Closed ADCLSD: Administratively Closed,Unsafe/Dangerous Conditions,Inspectional Services,Building,Unsafe Dangerous Conditions,ISD_Building (INTERNAL),ISD,,,1980 Centre St  West Roxbury  MA  02132,12.0,06,6.0,E5,West Roxbury,12.0,Ward 20,2014.0,E,1980 Centre St,2132.0,Address,27770.0,42.2825,-71.1572,Constituent Call,"(42.2825, -71.1572)"
515421,101001305932,02/19/2015 08:55:29 AM,02/20/2015 08:55:29 AM,03/20/2015 10:09:06 AM,OVERDUE,Closed,Case Closed NOVIO: No Violation Found/No Cause,Unsafe/Dangerous Conditions,Inspectional Services,Building,Unsafe Dangerous Conditions,ISD_Building (INTERNAL),ISD,,,INTERSECTION of E Brookline St & Harrison Ave  Roxbury  MA,4.0,1C,2.0,D4,South End,6.0,Ward 8,801.0,,INTERSECTION E Brookline St & Harrison Ave,,Intersection,2081.0,42.3383,-71.0709,Constituent Call,"(42.3383, -71.0709)"
515555,101001306156,02/19/2015 09:48:29 AM,02/20/2015 09:48:28 AM,,OVERDUE,Open,,Unsafe/Dangerous Conditions,Inspectional Services,Building,Unsafe Dangerous Conditions,ISD_Building (INTERNAL),ISD,,,630 Atlantic Ave  Boston  MA  02111,4.0,1C,2.0,A1,Downtown / Financial District,4.0,03,308.0,C,630 Atlantic Ave,2111.0,Address,157660.0,42.352,-71.055,Constituent Call,"(42.352, -71.055)"
515743,101001306418,02/19/2015 11:00:57 AM,02/20/2015 11:00:57 AM,03/20/2015 10:11:35 AM,OVERDUE,Closed,Case Closed NOVIO: No Violation Found/No Cause,Unsafe/Dangerous Conditions,Inspectional Services,Building,Unsafe Dangerous Conditions,ISD_Building (INTERNAL),ISD,,,995 Blue Hill Ave  Dorchester  MA  02124,8.0,07,4.0,B3,Dorchester,9.0,14,1411.0,RC,995 Blue Hill Ave,2124.0,Address,16619.0,42.2903,-71.0898,Constituent Call,"(42.2903, -71.0898)"
515755,101001306432,02/19/2015 11:06:59 AM,02/20/2015 11:06:59 AM,02/19/2015 11:09:53 AM,ONTIME,Closed,Case Closed Case Invalid wrong address,Unsafe/Dangerous Conditions,Inspectional Services,Building,Unsafe Dangerous Conditions,ISD_Building (INTERNAL),ISD,,,377-379 W Broadway  South Boston  MA  02127,6.0,05,2.0,C6,South Boston / South Boston Waterfront,5.0,Ward 6,603.0,RC,377-379 W Broadway,2127.0,Address,21460.0,42.3375,-71.0493,Constituent Call,"(42.3375, -71.0493)"
515790,101001306486,02/19/2015 11:19:14 AM,02/20/2015 11:19:14 AM,03/20/2015 10:13:50 AM,OVERDUE,Closed,Case Closed NOVIO: No Violation Found/No Cause,Unsafe/Dangerous Conditions,Inspectional Services,Building,Unsafe Dangerous Conditions,ISD_Building (INTERNAL),ISD,,,381 W Broadway  South Boston  MA  02127,6.0,05,2.0,C6,South Boston / South Boston Waterfront,5.0,Ward 6,603.0,CM,381 W Broadway,2127.0,Address,21462.0,42.3375,-71.0492,Constituent Call,"(42.3375, -71.0492)"
515918,101001306673,02/19/2015 12:20:13 PM,02/20/2015 12:20:13 PM,02/19/2015 03:09:42 PM,ONTIME,Closed,Case Closed ADCLSD: Administratively Closed,Unsafe/Dangerous Conditions,Inspectional Services,Building,Unsafe Dangerous Conditions,ISD_Building (INTERNAL),ISD,,,45 Alpha Rd  Dorchester  MA  02124,8.0,07,4.0,C11,Dorchester,9.0,Ward 17,1703.0,R3,45 Alpha Rd,2124.0,Address,2854.0,42.2958,-71.0695,Constituent Call,"(42.2958, -71.0695)"
515975,101001306761,02/19/2015 12:56:45 PM,02/20/2015 12:56:45 PM,03/20/2015 10:18:12 AM,OVERDUE,Closed,Case Closed NOVIO: No Violation Found/No Cause,Unsafe/Dangerous Conditions,Inspectional Services,Building,Unsafe Dangerous Conditions,ISD_Building (INTERNAL),ISD,,,1 Andria Rd  Mattapan  MA  02126,8.0,08,5.0,E18,Hyde Park,10.0,Ward 18,1806.0,R1,1 Andria Rd,2126.0,Address,3580.0,42.2653,-71.1087,Self Service,"(42.2653, -71.1087)"
516001,101001306797,02/19/2015 01:10:47 PM,02/20/2015 01:10:47 PM,02/20/2015 08:42:49 AM,ONTIME,Closed,Case Closed CORR: Corrected,Unsafe/Dangerous Conditions,Inspectional Services,Building,Unsafe Dangerous Conditions,ISD_Building (INTERNAL),ISD,,,21 Concord Sq  Roxbury  MA  02118,4.0,1C,7.0,D4,South End,6.0,Ward 4,404.0,A,21 Concord Sq,2118.0,Address,41610.0,42.3414,-71.0787,Constituent Call,"(42.3414, -71.0787)"
516115,101001306972,02/19/2015 02:21:01 PM,02/20/2015 02:21:01 PM,02/20/2015 12:46:18 PM,ONTIME,Closed,Case Closed ADCLSD: Administratively Closed,Unsafe/Dangerous Conditions,Inspectional Services,Building,Unsafe Dangerous Conditions,ISD_Building (INTERNAL),ISD,,,103 Ninth St  Charlestown  MA  02129,3.0,1A,1.0,A15,Charlestown,2.0,02,202.0,,103 Ninth St,2129.0,Address,343904.0,42.3756,-71.0517,Constituent Call,"(42.3756, -71.0517)"
516123,101001306986,02/19/2015 02:27:57 PM,02/20/2015 02:27:56 PM,03/20/2015 10:20:14 AM,OVERDUE,Closed,Case Closed NOVIO: No Violation Found/No Cause,Unsafe/Dangerous Conditions,Inspectional Services,Building,Unsafe Dangerous Conditions,ISD_Building (INTERNAL),ISD,,,53 Chestnut St  Boston  MA  02108,3.0,1B,8.0,A1,Beacon Hill,14.0,Ward 5,503.0,R1,53 Chestnut St,2108.0,Address,31436.0,42.3573,-71.0689,Constituent Call,"(42.3573, -71.0689)"
516331,101001307269,02/19/2015 04:26:14 PM,02/20/2015 04:26:14 PM,02/20/2015 08:48:55 AM,ONTIME,Closed,Case Closed ROA: Refer to Other Agency/Division,Unsafe/Dangerous Conditions,Inspectional Services,Building,Unsafe Dangerous Conditions,ISD_Building (INTERNAL),ISD,,,24 Burrwood Rd  Roslindale  MA  02132,9.0,06,6.0,E5,West Roxbury,12.0,Ward 20,2006.0,R1,24 Burrwood Rd,2132.0,Address,24087.0,42.2942,-71.1415,Self Service,"(42.2942, -71.1415)"
516363,101001307310,02/19/2015 04:41:35 PM,02/20/2015 04:41:35 PM,03/20/2015 10:23:31 AM,OVERDUE,Closed,Case Closed NOVIO: No Violation Found/No Cause,Unsafe/Dangerous Conditions,Inspectional Services,Building,Unsafe Dangerous Conditions,ISD_Building (INTERNAL),ISD,,,33 Mount Vernon St  Boston  MA  02114,3.0,1B,8.0,A1,Beacon Hill,14.0,Ward 5,503.0,C,33 Mount Vernon St,2114.0,Address,98559.0,42.3585,-71.0646,Constituent Call,"(42.3585, -71.0646)"
516410,101001307374,02/19/2015 05:11:10 PM,02/20/2015 05:11:09 PM,03/20/2015 10:28:59 AM,OVERDUE,Closed,Case Closed NOVIO: No Violation Found/No Cause,Unsafe/Dangerous Conditions,Inspectional Services,Building,Unsafe Dangerous Conditions,ISD_Building (INTERNAL),ISD,,,45 River St  Boston  MA  02114,3.0,1B,8.0,A1,Boston,14.0,05,505.0,RC,45 River St,2114.0,Address,298869.0,42.3573,-71.0704,Constituent Call,"(42.3573, -71.0704)"
516411,101001307375,02/19/2015 05:12:12 PM,02/20/2015 05:12:11 PM,03/20/2015 10:30:52 AM,OVERDUE,Closed,Case Closed NOVIO: No Violation Found/No Cause,Unsafe/Dangerous Conditions,Inspectional Services,Building,Unsafe Dangerous Conditions,ISD_Building (INTERNAL),ISD,,,1 Mount Vernon Sq  Boston  MA  02108,3.0,1B,8.0,A1,Back Bay,14.0,Ward 5,505.0,R1,1 Mount Vernon Sq,2108.0,Address,99065.0,42.358,-71.0711,Constituent Call,"(42.358, -71.0711)"
516414,101001307378,02/19/2015 05:13:31 PM,02/20/2015 05:13:30 PM,03/20/2015 10:32:04 AM,OVERDUE,Closed,Case Closed NOVIO: No Violation Found/No Cause,Unsafe/Dangerous Conditions,Inspectional Services,Building,Unsafe Dangerous Conditions,ISD_Building (INTERNAL),ISD,,,52 River St  Boston  MA  02108,3.0,1B,8.0,A1,Beacon Hill,14.0,Ward 5,505.0,R1,52 River St,2108.0,Address,116212.0,42.3575,-71.0708,Constituent Call,"(42.3575, -71.0708)"
516415,101001307379,02/19/2015 05:14:15 PM,02/20/2015 05:14:15 PM,03/20/2015 10:33:02 AM,OVERDUE,Closed,Case Closed NOVIO: No Violation Found/No Cause,Unsafe/Dangerous Conditions,Inspectional Services,Building,Unsafe Dangerous Conditions,ISD_Building (INTERNAL),ISD,,,95 Chestnut St  Boston  MA  02108,3.0,1B,8.0,A1,Back Bay,14.0,Ward 5,511.0,R1,95 Chestnut St,2108.0,Address,31517.0,42.3567,-71.0719,Constituent Call,"(42.3567, -71.0719)"
516428,101001307395,02/19/2015 05:20:06 PM,02/20/2015 05:20:06 PM,02/19/2015 05:23:32 PM,ONTIME,Closed,Case Closed Duplicate of Existing Case case closed,Unsafe/Dangerous Conditions,Inspectional Services,Building,Unsafe Dangerous Conditions,ISD_Building (INTERNAL),ISD,,,45 Clifford St  Roxbury  MA  02119,9.0,10B,7.0,B2,Roxbury,13.0,Ward 12,1204.0,R2,45 Clifford St,2119.0,Address,33959.0,42.3195,-71.0793,Constituent Call,"(42.3195, -71.0793)"
516431,101001307404,02/19/2015 05:24:37 PM,02/20/2015 05:24:37 PM,02/25/2015 03:36:20 PM,OVERDUE,Closed,Case Closed NOACC: Closed-No Access,Unsafe/Dangerous Conditions,Inspectional Services,Building,Unsafe Dangerous Conditions,ISD_Building (INTERNAL),ISD,,,588 E Fourth St  South Boston  MA  02127,6.0,05,2.0,C6,South Boston / South Boston Waterfront,5.0,Ward 6,604.0,R2,588 E Fourth St,2127.0,Address,59876.0,42.3348,-71.0412,Constituent Call,"(42.3348, -71.0412)"
516435,101001307410,02/19/2015 05:27:21 PM,02/20/2015 05:27:21 PM,03/20/2015 10:34:57 AM,OVERDUE,Closed,Case Closed NOVIO: No Violation Found/No Cause,Unsafe/Dangerous Conditions,Inspectional Services,Building,Unsafe Dangerous Conditions,ISD_Building (INTERNAL),ISD,,,133 Brookline Ave  Boston  MA  02215,4.0,10A,8.0,D4,Boston,14.0,21,2101.0,,133 Brookline Ave,2215.0,Address,352517.0,42.3594,-71.0587,Constituent Call,"(0, 0)"
516836,101001308000,02/20/2015 08:19:50 AM,02/21/2015 08:19:49 AM,03/20/2015 10:36:06 AM,OVERDUE,Closed,Case Closed NOVIO: No Violation Found/No Cause,Unsafe/Dangerous Conditions,Inspectional Services,Building,Unsafe Dangerous Conditions,ISD_Building (INTERNAL),ISD,,,98 Everett St  East Boston  MA  02128,1.0,09,1.0,A7,East Boston,1.0,Ward 1,102.0,R3,98 Everett St,2128.0,Address,55189.0,42.3674,-71.0341,Constituent Call,"(42.3674, -71.0341)"
517034,101001308293,02/20/2015 09:51:27 AM,02/21/2015 09:51:27 AM,03/20/2015 10:39:18 AM,OVERDUE,Closed,Case Closed NOVIO: No Violation Found/No Cause,Unsafe/Dangerous Conditions,Inspectional Services,Building,Unsafe Dangerous Conditions,ISD_Building (INTERNAL),ISD,,,653-653H E Broadway  South Boston  MA  02127,6.0,05,2.0,C6,South Boston / South Boston Waterfront,5.0,Ward 6,605.0,RC,653-653H E Broadway,2127.0,Address,21101.0,42.3354,-71.0385,Constituent Call,"(42.3354, -71.0385)"
517050,101001308315,02/20/2015 10:02:27 AM,02/21/2015 10:02:27 AM,02/20/2015 10:37:07 AM,ONTIME,Closed,Case Closed ADCLSD: Administratively Closed,Unsafe/Dangerous Conditions,Inspectional Services,Building,Unsafe Dangerous Conditions,ISD_Building (INTERNAL),ISD,,,26-28 Thane St  Dorchester  MA  02124,8.0,03,4.0,B3,Dorchester,9.0,Ward 17,1701.0,E,26-28 Thane St,2124.0,Address,134660.0,42.2968,-71.0764,Constituent Call,"(42.2968, -71.0764)"
517128,101001308427,02/20/2015 10:54:41 AM,02/21/2015 10:54:41 AM,04/07/2015 02:20:42 PM,OVERDUE,Closed,Case Closed NOBASE: No Basis,Unsafe/Dangerous Conditions,Inspectional Services,Building,Unsafe Dangerous Conditions,ISD_Building (INTERNAL),ISD,,,30 Mamelon Cir  Mattapan  MA  02126,8.0,07,4.0,B3,Greater Mattapan,9.0,Ward 18,1804.0,R2,30 Mamelon Cir,2126.0,Address,88855.0,42.2708,-71.0885,Constituent Call,"(42.2708, -71.0885)"
517184,101001308508,02/20/2015 11:27:46 AM,02/21/2015 11:27:46 AM,04/15/2015 09:16:47 AM,OVERDUE,Closed,Case Closed NOBASE: No Basis,Unsafe/Dangerous Conditions,Inspectional Services,Building,Unsafe Dangerous Conditions,ISD_Building (INTERNAL),ISD,,,8 Church St  Dorchester  MA  02122,7.0,03,3.0,C11,Dorchester,8.0,Ward 15,1504.0,E,8 Church St,2122.0,Address,32721.0,42.3087,-71.0638,Constituent Call,"(42.3087, -71.0638)"
517188,101001308512,02/20/2015 11:30:49 AM,02/21/2015 11:30:49 AM,03/20/2015 10:40:19 AM,OVERDUE,Closed,Case Closed NOVIO: No Violation Found/No Cause,Unsafe/Dangerous Conditions,Inspectional Services,Building,Unsafe Dangerous Conditions,ISD_Building (INTERNAL),ISD,,,107 Charter St  Boston  MA  02113,3.0,1B,1.0,A1,Downtown / Financial District,3.0,Ward 3,302.0,R1,107 Charter St,2113.0,Address,29936.0,42.3681,-71.0562,Constituent Call,"(42.3681, -71.0562)"
517215,101001308552,02/20/2015 11:45:25 AM,02/21/2015 11:45:25 AM,03/20/2015 10:41:24 AM,OVERDUE,Closed,Case Closed NOVIO: No Violation Found/No Cause,Unsafe/Dangerous Conditions,Inspectional Services,Building,Unsafe Dangerous Conditions,ISD_Building (INTERNAL),ISD,,,15 Wait St  Boston  MA  02115,9.0,10A,8.0,B2,Mission Hill,14.0,10,1003.0,EA,15 Wait St,2115.0,Address,141324.0,42.3327,-71.1064,Constituent Call,"(42.3327, -71.1064)"
517268,101001308622,02/20/2015 12:14:59 PM,02/21/2015 12:14:59 PM,03/20/2015 10:42:32 AM,OVERDUE,Closed,Case Closed NOVIO: No Violation Found/No Cause,Unsafe/Dangerous Conditions,Inspectional Services,Building,Unsafe Dangerous Conditions,ISD_Building (INTERNAL),ISD,,,138 W Eighth St  South Boston  MA  02127,6.0,05,2.0,C6,South Boston / South Boston Waterfront,5.0,Ward 6,602.0,R1,138 W Eighth St,2127.0,Address,52499.0,42.3349,-71.0536,Constituent Call,"(42.3349, -71.0536)"
517292,101001308651,02/20/2015 12:26:31 PM,02/21/2015 12:26:31 PM,03/20/2015 10:43:44 AM,OVERDUE,Closed,Case Closed NOVIO: No Violation Found/No Cause,Unsafe/Dangerous Conditions,Inspectional Services,Building,Unsafe Dangerous Conditions,ISD_Building (INTERNAL),ISD,,,138 W Eighth St  South Boston  MA  02127,6.0,05,2.0,C6,South Boston / South Boston Waterfront,5.0,Ward 6,602.0,R1,138 W Eighth St,2127.0,Address,52499.0,42.3349,-71.0536,Constituent Call,"(42.3349, -71.0536)"
517294,101001308658,02/20/2015 12:30:10 PM,02/21/2015 12:30:10 PM,03/20/2015 10:45:01 AM,OVERDUE,Closed,Case Closed NOVIO: No Violation Found/No Cause,Unsafe/Dangerous Conditions,Inspectional Services,Building,Unsafe Dangerous Conditions,ISD_Building (INTERNAL),ISD,,,57-67 Brookside Ave  Jamaica Plain  MA  02130,9.0,02,6.0,E13,Jamaica Plain,11.0,11,1106.0,,57-67 Brookside Ave,2130.0,Address,340667.0,42.3128,-71.1043,Constituent Call,"(42.3128, -71.1043)"
517305,101001308671,02/20/2015 12:33:32 PM,02/21/2015 12:33:32 PM,03/20/2015 10:46:27 AM,OVERDUE,Closed,Case Closed NOVIO: No Violation Found/No Cause,Unsafe/Dangerous Conditions,Inspectional Services,Building,Unsafe Dangerous Conditions,ISD_Building (INTERNAL),ISD,,,239 Moss Hill Rd  Jamaica Plain  MA  02130,9.0,02,6.0,E13,Jamaica Plain,11.0,Ward 19,1902.0,R1,239 Moss Hill Rd,2130.0,Address,97972.0,42.3085,-71.1285,Constituent Call,"(42.3085, -71.1285)"
517528,101001308984,02/20/2015 03:12:14 PM,02/21/2015 03:12:14 PM,03/31/2015 03:51:17 PM,OVERDUE,Closed,Case Closed ADCLSD: Administratively Closed,Unsafe/Dangerous Conditions,Inspectional Services,Building,Unsafe Dangerous Conditions,ISD_Building (INTERNAL),ISD,,,481-487 E Broadway  South Boston  MA  02127,6.0,05,2.0,C6,South Boston / South Boston Waterfront,5.0,Ward 6,604.0,RC,481-487 E Broadway,2127.0,Address,20898.0,42.3353,-71.0456,Constituent Call,"(42.3353, -71.0456)"
517570,101001309037,02/20/2015 03:32:12 PM,02/21/2015 03:32:12 PM,03/20/2015 10:54:18 AM,OVERDUE,Closed,Case Closed NOVIO: No Violation Found/No Cause,Unsafe/Dangerous Conditions,Inspectional Services,Building,Unsafe Dangerous Conditions,ISD_Building (INTERNAL),ISD,,,21 Dix St  Dorchester  MA  02122,7.0,07,3.0,C11,Dorchester,7.0,Ward 16,1604.0,CM,21 Dix St,2122.0,Address,47860.0,42.295,-71.0606,Constituent Call,"(42.295, -71.0606)"
517596,101001309074,02/20/2015 03:46:28 PM,02/21/2015 03:46:28 PM,02/25/2015 07:39:58 AM,OVERDUE,Closed,Case Closed TICKET: Ticket Issued,Unsafe/Dangerous Conditions,Inspectional Services,Building,Unsafe Dangerous Conditions,ISD_Building (INTERNAL),ISD,,,30 Hillis Rd  Hyde Park  MA  02136,12.0,08,5.0,E18,Hyde Park,10.0,Ward 18,1819.0,R4,30 Hillis Rd,2136.0,Address,252004.0,42.2496,-71.1323,Constituent Call,"(42.2496, -71.1323)"
517887,101001309480,02/20/2015 08:06:40 PM,02/21/2015 08:06:40 PM,03/20/2015 10:58:50 AM,OVERDUE,Closed,Case Closed NOVIO: No Violation Found/No Cause,Unsafe/Dangerous Conditions,Inspectional Services,Building,Unsafe Dangerous Conditions,ISD_Building (INTERNAL),ISD,,,26 Exeter St  Boston  MA  02116,4.0,1C,8.0,D4,Back Bay,14.0,Ward 5,507.0,C,26 Exeter St,2116.0,Address,55335.0,42.3506,-71.0797,Constituent Call,"(42.3506, -71.0797)"
517941,101001309551,02/20/2015 09:50:38 PM,02/21/2015 09:50:38 PM,03/20/2015 11:00:30 AM,OVERDUE,Closed,Case Closed NOVIO: No Violation Found/No Cause,Unsafe/Dangerous Conditions,Inspectional Services,Building,Unsafe Dangerous Conditions,ISD_Building (INTERNAL),ISD,,,1073-1075A Dorchester Ave  Dorchester  MA  02125,7.0,03,3.0,C11,Dorchester,7.0,Ward 13,1309.0,RC,1073-1075A Dorchester Ave,2125.0,Address,164433.0,42.3141,-71.0572,Constituent Call,"(42.3141, -71.0572)"
517990,101001309624,02/21/2015 06:37:48 AM,02/22/2015 06:37:48 AM,04/09/2015 03:40:13 PM,OVERDUE,Closed,Case Closed NOBASE: No Basis,Unsafe/Dangerous Conditions,Inspectional Services,Building,Unsafe Dangerous Conditions,ISD_Building (INTERNAL),ISD,,,80 Fairlawn Ave  Mattapan  MA  02126,8.0,08,5.0,E18,Greater Mattapan,9.0,Ward 18,1821.0,A,80 Fairlawn Ave,2126.0,Address,232684.0,42.2694,-71.1001,Constituent Call,"(42.2694, -71.1001)"
518156,101001309878,02/21/2015 11:02:41 AM,02/22/2015 11:02:41 AM,03/20/2015 11:02:11 AM,OVERDUE,Closed,Case Closed NOVIO: No Violation Found/No Cause,Unsafe/Dangerous Conditions,Inspectional Services,Building,Unsafe Dangerous Conditions,ISD_Building (INTERNAL),ISD,,,613-613A Tremont St  Roxbury  MA  02118,4.0,1C,2.0,D4,South End,6.0,Ward 4,401.0,CM,613-613A Tremont St,2118.0,Address,170432.0,42.3429,-71.0742,Constituent Call,"(42.3429, -71.0742)"
518200,101001309945,02/21/2015 11:55:21 AM,02/22/2015 11:55:20 AM,03/23/2015 08:32:45 AM,OVERDUE,Closed,Case Closed CORR: Corrected,Unsafe/Dangerous Conditions,Inspectional Services,Building,Unsafe Dangerous Conditions,ISD_Building (INTERNAL),ISD,,,480 Norfolk St  Mattapan  MA  02126,8.0,07,4.0,B3,Greater Mattapan,9.0,Ward 18,1802.0,A,480 Norfolk St,2126.0,Address,283823.0,42.2797,-71.0885,Constituent Call,"(42.2797, -71.0885)"
518630,101001310603,02/22/2015 12:40:49 AM,02/23/2015 12:40:48 AM,,OVERDUE,Open,,Unsafe/Dangerous Conditions,Inspectional Services,Building,Unsafe Dangerous Conditions,ISD_Building (INTERNAL),ISD,,,111 Atlantic Ave  Boston  MA  02109,3.0,1B,1.0,A1,Downtown / Financial District,3.0,Ward 3,301.0,EA,111 Atlantic Ave,2109.0,Address,180553.0,42.3614,-71.0527,Constituent Call,"(42.3614, -71.0527)"
518652,101001310634,02/22/2015 06:20:58 AM,02/23/2015 06:20:58 AM,04/15/2015 09:17:22 AM,OVERDUE,Closed,Case Closed NOBASE: No Basis,Unsafe/Dangerous Conditions,Inspectional Services,Building,Unsafe Dangerous Conditions,ISD_Building (INTERNAL),ISD,,,12 Danube St  Dorchester  MA  02125,7.0,03,7.0,B2,Roxbury,13.0,Ward 13,1301.0,R4,12 Danube St,2125.0,Address,46209.0,42.3177,-71.0751,Constituent Call,"(42.3177, -71.0751)"
518682,101001310676,02/22/2015 07:58:14 AM,02/23/2015 07:58:14 AM,02/27/2015 09:12:56 AM,OVERDUE,Closed,Case Closed ADCLSD: Administratively Closed,Unsafe/Dangerous Conditions,Inspectional Services,Building,Unsafe Dangerous Conditions,ISD_Building (INTERNAL),ISD,,,232 Seaver St  Dorchester  MA  02121,9.0,10B,7.0,B2,Dorchester,13.0,12,1207.0,A,232 Seaver St,2121.0,Address,307862.0,42.3072,-71.0875,Constituent Call,"(42.3072, -71.0875)"
518701,101001310704,02/22/2015 08:37:24 AM,02/23/2015 08:37:24 AM,03/20/2015 11:07:42 AM,OVERDUE,Closed,Case Closed NOVIO: No Violation Found/No Cause,Unsafe/Dangerous Conditions,Inspectional Services,Building,Unsafe Dangerous Conditions,ISD_Building (INTERNAL),ISD,,,308-310 Commonwealth Ave  Boston  MA  02115,4.0,1C,8.0,D4,Back Bay,14.0,Ward 5,509.0,CM,308-310 Commonwealth Ave,2115.0,Address,40091.0,42.3494,-71.0856,Constituent Call,"(42.3494, -71.0856)"
518713,101001310726,02/22/2015 09:17:52 AM,02/23/2015 09:17:52 AM,,OVERDUE,Open,,Unsafe/Dangerous Conditions,Inspectional Services,Building,Unsafe Dangerous Conditions,ISD_Building (INTERNAL),ISD,,,41 Forest St  Roxbury  MA  02119,7.0,10B,7.0,B2,Roxbury,13.0,Ward 8,803.0,R3,41 Forest St,2119.0,Address,236561.0,42.3265,-71.0776,Constituent Call,"(42.3265, -71.0776)"
518768,101001310838,02/22/2015 11:08:39 AM,02/23/2015 11:08:38 AM,03/10/2015 03:34:17 PM,OVERDUE,Closed,Case Closed ADCLSD: Administratively Closed,Unsafe/Dangerous Conditions,Inspectional Services,Building,Unsafe Dangerous Conditions,ISD_Building (INTERNAL),ISD,,,971 Tremont St  Mission Hill  MA  02120,9.0,10B,7.0,D4,Roxbury,13.0,Ward 9,904.0,RC,971 Tremont St,2120.0,Address,138054.0,42.3375,-71.0841,Constituent Call,"(42.3375, -71.0841)"
518902,101001311041,02/22/2015 02:47:52 PM,02/23/2015 02:47:51 PM,03/20/2015 11:09:56 AM,OVERDUE,Closed,Case Closed NOVIO: No Violation Found/No Cause,Unsafe/Dangerous Conditions,Inspectional Services,Building,Unsafe Dangerous Conditions,ISD_Building (INTERNAL),ISD,,,9 Appleton St  Boston  MA  02116,4.0,1C,2.0,D4,South End,6.0,Ward 5,501.0,CM,9 Appleton St,2116.0,Address,4154.0,42.3465,-71.0703,Constituent Call,"(42.3465, -71.0703)"
518980,101001311168,02/22/2015 05:15:52 PM,02/23/2015 05:15:52 PM,03/20/2015 11:13:07 AM,OVERDUE,Closed,Case Closed NOVIO: No Violation Found/No Cause,Unsafe/Dangerous Conditions,Inspectional Services,Building,Unsafe Dangerous Conditions,ISD_Building (INTERNAL),ISD,,,309 Chestnut Ave  Jamaica Plain  MA  02130,9.0,02,6.0,E13,Jamaica Plain,11.0,Ward 19,1904.0,A,309 Chestnut Ave,2130.0,Address,31218.0,42.3124,-71.1106,Self Service,"(42.3124, -71.1106)"
519386,101001311812,02/23/2015 09:30:51 AM,02/24/2015 09:30:51 AM,03/20/2015 11:14:13 AM,OVERDUE,Closed,Case Closed NOVIO: No Violation Found/No Cause,Unsafe/Dangerous Conditions,Inspectional Services,Building,Unsafe Dangerous Conditions,ISD_Building (INTERNAL),ISD,,,6 Grove St  Boston  MA  02114,3.0,1B,8.0,A1,Beacon Hill,14.0,Ward 5,504.0,CM,6 Grove St,2114.0,Address,67589.0,42.3608,-71.0686,Constituent Call,"(42.3608, -71.0686)"
519434,101001311872,02/23/2015 09:48:19 AM,02/24/2015 09:48:19 AM,03/20/2015 11:16:38 AM,OVERDUE,Closed,Case Closed NOVIO: No Violation Found/No Cause,Unsafe/Dangerous Conditions,Inspectional Services,Building,Unsafe Dangerous Conditions,ISD_Building (INTERNAL),ISD,,,111 Atlantic Ave  Boston  MA  02109,3.0,1B,1.0,A1,Boston,3.0,03,301.0,,111 Atlantic Ave,2109.0,Address,353198.0,42.3594,-71.0587,Constituent Call,"(0, 0)"
519513,101001311997,02/23/2015 10:26:13 AM,02/24/2015 10:26:12 AM,04/27/2015 08:23:17 AM,OVERDUE,Closed,Case Closed NOVIO: No Violation Found/No Cause,Unsafe/Dangerous Conditions,Inspectional Services,Building,Unsafe Dangerous Conditions,ISD_Building (INTERNAL),ISD,,,35 Patten St  Jamaica Plain  MA  02130,12.0,02,6.0,E13,Jamaica Plain,10.0,Ward 19,1907.0,R3,35 Patten St,2130.0,Address,108453.0,42.2938,-71.116,Constituent Call,"(42.2938, -71.116)"
519585,101001312105,02/23/2015 11:05:50 AM,02/24/2015 11:05:50 AM,03/20/2015 11:17:51 AM,OVERDUE,Closed,Case Closed NOVIO: No Violation Found/No Cause,Unsafe/Dangerous Conditions,Inspectional Services,Building,Unsafe Dangerous Conditions,ISD_Building (INTERNAL),ISD,,,51 Parkton Rd  Jamaica Plain  MA  02130,9.0,02,6.0,E13,Jamaica Plain,11.0,Ward 10,1009.0,R3,51 Parkton Rd,2130.0,Address,108169.0,42.3229,-71.1146,Constituent Call,"(42.3229, -71.1146)"
519611,101001312142,02/23/2015 11:20:10 AM,02/24/2015 11:20:10 AM,,OVERDUE,Open,,Unsafe/Dangerous Conditions,Inspectional Services,Building,Unsafe Dangerous Conditions,ISD_Building (INTERNAL),ISD,,,1726 Commonwealth Ave  Brighton  MA  02135,11.0,04,9.0,D14,Allston / Brighton,15.0,Ward 21,2113.0,CD,1726 Commonwealth Ave,2135.0,Address,38521.0,42.3412,-71.1483,Self Service,"(42.3412, -71.1483)"
519623,101001312157,02/23/2015 11:24:55 AM,02/24/2015 11:24:55 AM,02/27/2015 10:53:51 AM,OVERDUE,Closed,Case Closed ADCLSD: Administratively Closed,Unsafe/Dangerous Conditions,Inspectional Services,Building,Unsafe Dangerous Conditions,ISD_Building (INTERNAL),ISD,,,27 Deering Rd  Mattapan  MA  02126,8.0,07,4.0,B3,Greater Mattapan,9.0,Ward 14,1414.0,R3,27 Deering Rd,2126.0,Address,46949.0,42.2842,-71.0928,Constituent Call,"(42.2842, -71.0928)"
519658,101001312207,02/23/2015 11:42:29 AM,02/24/2015 11:42:29 AM,02/25/2015 09:43:24 AM,OVERDUE,Closed,Case Closed VIOISS: Violation Filed,Unsafe/Dangerous Conditions,Inspectional Services,Building,Unsafe Dangerous Conditions,ISD_Building (INTERNAL),ISD,,,2999 Washington St  Roxbury  MA  02119,9.0,10B,6.0,B2,Roxbury,11.0,Ward 11,1104.0,R4,2999 Washington St,2119.0,Address,144603.0,42.3176,-71.0968,Constituent Call,"(42.3176, -71.0968)"
519663,101001312216,02/23/2015 11:46:03 AM,02/24/2015 11:46:03 AM,04/23/2015 12:02:18 PM,OVERDUE,Closed,Case Closed CORR: Corrected,Unsafe/Dangerous Conditions,Inspectional Services,Building,Unsafe Dangerous Conditions,ISD_Building (INTERNAL),ISD,,,INTERSECTION of E India Row & Central Wharf  Boston  MA,3.0,1C,1.0,A1,Downtown / Financial District,3.0,Ward 3,306.0,,INTERSECTION E India Row & Central Wharf,,Intersection,6496.0,42.3589,-71.0506,Constituent Call,"(42.3589, -71.0506)"
519713,101001312288,02/23/2015 12:25:20 PM,02/24/2015 12:25:20 PM,03/11/2015 09:05:34 AM,OVERDUE,Closed,Case Closed ADCLSD: Administratively Closed,Unsafe/Dangerous Conditions,Inspectional Services,Building,Unsafe Dangerous Conditions,ISD_Building (INTERNAL),ISD,,,22 Marion St  East Boston  MA  02128,1.0,09,1.0,A7,East Boston,1.0,Ward 1,108.0,R2,22 Marion St,2128.0,Address,90018.0,42.3802,-71.0385,Constituent Call,"(42.3802, -71.0385)"
519718,101001312293,02/23/2015 12:28:20 PM,02/24/2015 12:28:20 PM,04/15/2015 09:18:00 AM,OVERDUE,Closed,Case Closed NOBASE: No Basis,Unsafe/Dangerous Conditions,Inspectional Services,Building,Unsafe Dangerous Conditions,ISD_Building (INTERNAL),ISD,,,50 Moseley St  Dorchester  MA  02125,7.0,03,3.0,C11,Dorchester,7.0,Ward 13,1307.0,R2,50 Moseley St,2125.0,Address,97910.0,42.3207,-71.0547,Constituent Call,"(42.3207, -71.0547)"
519731,101001312313,02/23/2015 12:41:15 PM,02/24/2015 12:41:15 PM,04/16/2015 03:33:21 PM,OVERDUE,Closed,Case Closed NOVIO: No Violation Found/No Cause,Unsafe/Dangerous Conditions,Inspectional Services,Building,Unsafe Dangerous Conditions,ISD_Building (INTERNAL),ISD,,,90 Safford St  Hyde Park  MA  02136,12.0,08,5.0,E18,Hyde Park,10.0,Ward 18,1808.0,R1,90 Safford St,2136.0,Address,120449.0,42.2669,-71.114,Constituent Call,"(42.2669, -71.114)"
519919,101001312601,02/23/2015 02:51:46 PM,02/24/2015 02:51:45 PM,02/27/2015 02:51:58 PM,OVERDUE,Closed,Case Closed NOVIO: No Violation Found/No Cause,Unsafe/Dangerous Conditions,Inspectional Services,Building,Unsafe Dangerous Conditions,ISD_Building (INTERNAL),ISD,,,236 Hanover St  Boston  MA  02113,3.0,1B,1.0,A1,Downtown / Financial District,3.0,03,303.0,,236 Hanover St,2113.0,Address,351601.0,42.3594,-71.0587,Constituent Call,"(0, 0)"
519924,101001312607,02/23/2015 02:52:50 PM,02/24/2015 02:52:50 PM,03/20/2015 11:18:52 AM,OVERDUE,Closed,Case Closed NOVIO: No Violation Found/No Cause,Unsafe/Dangerous Conditions,Inspectional Services,Building,Unsafe Dangerous Conditions,ISD_Building (INTERNAL),ISD,,,236 Hanover St  Boston  MA  02113,3.0,1B,1.0,A1,Downtown / Financial District,3.0,03,303.0,,236 Hanover St,2113.0,Address,351601.0,42.3594,-71.0587,Constituent Call,"(0, 0)"
520305,101001313194,02/23/2015 10:18:32 PM,02/24/2015 10:18:32 PM,03/20/2015 11:19:55 AM,OVERDUE,Closed,Case Closed NOVIO: No Violation Found/No Cause,Unsafe/Dangerous Conditions,Inspectional Services,Building,Unsafe Dangerous Conditions,ISD_Building (INTERNAL),ISD,,,31 Dunreath St  Roxbury  MA  02119,7.0,10B,7.0,B2,Roxbury,13.0,Ward 12,1201.0,R3,31 Dunreath St,2119.0,Address,50039.0,42.3232,-71.0802,Self Service,"(42.3232, -71.0802)"
520310,101001313204,02/23/2015 10:35:47 PM,02/24/2015 10:35:47 PM,03/20/2015 11:20:58 AM,OVERDUE,Closed,Case Closed NOVIO: No Violation Found/No Cause,Unsafe/Dangerous Conditions,Inspectional Services,Building,Unsafe Dangerous Conditions,ISD_Building (INTERNAL),ISD,,,31 Dunreath St  Roxbury  MA  02119,7.0,10B,7.0,B2,Roxbury,13.0,Ward 12,1201.0,R3,31 Dunreath St,2119.0,Address,50039.0,42.3232,-71.0802,Self Service,"(42.3232, -71.0802)"
521952,101001315597,02/25/2015 09:33:08 AM,02/26/2015 09:33:08 AM,03/20/2015 11:22:25 AM,OVERDUE,Closed,Case Closed NOVIO: No Violation Found/No Cause,Unsafe/Dangerous Conditions,Inspectional Services,Building,Unsafe Dangerous Conditions,ISD_Building (INTERNAL),ISD,,,INTERSECTION of Cemetery Rd & Morton St  Jamaica Plain  MA,9.0,02,6.0,B2,Jamaica Plain,10.0,Ward 19,1907.0,,INTERSECTION Cemetery Rd & Morton St,,Intersection,2582.0,42.3002,-71.1047,Constituent Call,"(42.3002, -71.1047)"
522108,101001315818,02/25/2015 11:04:31 AM,02/26/2015 11:04:30 AM,03/20/2015 11:27:53 AM,OVERDUE,Closed,Case Closed NOVIO: No Violation Found/No Cause,Unsafe/Dangerous Conditions,Inspectional Services,Building,Unsafe Dangerous Conditions,ISD_Building (INTERNAL),ISD,,,35 Old Morton St  Mattapan  MA  02126,8.0,07,3.0,B3,Dorchester,7.0,Ward 17,1714.0,R3,35 Old Morton St,2126.0,Address,105180.0,42.2736,-71.072,Constituent Call,"(42.2736, -71.072)"
522124,101001315837,02/25/2015 11:09:04 AM,02/26/2015 11:09:04 AM,03/03/2015 08:37:50 AM,OVERDUE,Closed,Case Closed REINSP: Issues Found  Re-Inspection,Unsafe/Dangerous Conditions,Inspectional Services,Building,Unsafe Dangerous Conditions,ISD_Building (INTERNAL),ISD,,,45 Bullard St  Dorchester  MA  02121,7.0,03,4.0,C11,Dorchester,8.0,Ward 14,1404.0,R3,45 Bullard St,2121.0,Address,23249.0,42.302,-71.0746,Constituent Call,"(42.302, -71.0746)"
522140,101001315858,02/25/2015 11:16:50 AM,02/26/2015 11:16:50 AM,05/11/2015 08:32:52 AM,OVERDUE,Closed,Case Closed. Closed date : 2015-05-11 08:32:52.777 NOVIO: No Violation Found/No Cause,Unsafe/Dangerous Conditions,Inspectional Services,Building,Unsafe Dangerous Conditions,ISD_Building (INTERNAL),ISD,,,129 Saint Botolph St  Boston  MA  02115,4.0,1C,7.0,D4,Back Bay,14.0,Ward 4,405.0,A,129 Saint Botolph St,2115.0,Address,120666.0,42.3441,-71.0821,Constituent Call,"(42.3441, -71.0821)"
522524,101001316371,02/25/2015 03:22:49 PM,02/26/2015 03:22:49 PM,03/20/2015 11:49:17 AM,OVERDUE,Closed,Case Closed NOVIO: No Violation Found/No Cause,Unsafe/Dangerous Conditions,Inspectional Services,Building,Unsafe Dangerous Conditions,ISD_Building (INTERNAL),ISD,,,595 Tremont St  Roxbury  MA  02118,4.0,1C,2.0,D4,South End,6.0,Ward 4,401.0,R4,595 Tremont St,2118.0,Address,137726.0,42.3433,-71.0733,Constituent Call,"(42.3433, -71.0733)"
522571,101001316440,02/25/2015 03:52:36 PM,02/26/2015 03:52:36 PM,03/20/2015 11:52:22 AM,OVERDUE,Closed,Case Closed NOVIO: No Violation Found/No Cause,Unsafe/Dangerous Conditions,Inspectional Services,Building,Unsafe Dangerous Conditions,ISD_Building (INTERNAL),ISD,,,65-67 Charles St  Boston  MA  02114,3.0,1B,8.0,A1,Beacon Hill,14.0,Ward 5,511.0,RC,65-67 Charles St,2114.0,Address,29170.0,42.3581,-71.0702,Constituent Call,"(42.3581, -71.0702)"
522606,101001316492,02/25/2015 04:25:41 PM,02/26/2015 04:25:41 PM,03/05/2015 08:00:33 AM,OVERDUE,Closed,Case Closed ADCLSD: Administratively Closed,Unsafe/Dangerous Conditions,Inspectional Services,Building,Unsafe Dangerous Conditions,ISD_Building (INTERNAL),ISD,,,100 Arch St  Boston  MA  02110,3.0,1C,1.0,A1,Downtown / Financial District,3.0,Ward 3,306.0,E,100 Arch St,2110.0,Address,157517.0,42.3547,-71.0586,Constituent Call,"(42.3547, -71.0586)"
522708,101001316630,02/25/2015 05:50:55 PM,02/26/2015 05:50:55 PM,03/03/2015 08:43:46 AM,OVERDUE,Closed,Case Closed REINSP: Issues Found  Re-Inspection,Unsafe/Dangerous Conditions,Inspectional Services,Building,Unsafe Dangerous Conditions,ISD_Building (INTERNAL),ISD,,,1 Howland St  Dorchester  MA  02121,9.0,10B,7.0,B2,Roxbury,13.0,Ward 12,1202.0,A,1 Howland St,2121.0,Address,75728.0,42.3114,-71.0832,Constituent Call,"(42.3114, -71.0832)"
523400,101001317632,02/26/2015 11:41:03 AM,02/27/2015 11:41:03 AM,05/11/2015 09:41:57 AM,OVERDUE,Closed,Case Closed. Closed date : 2015-05-11 09:41:57.087 NOACC: Closed-No Access,Unsafe/Dangerous Conditions,Inspectional Services,Building,Unsafe Dangerous Conditions,ISD_Building (INTERNAL),ISD,,,63 Hartford St  Dorchester  MA  02125,7.0,03,7.0,B2,Roxbury,13.0,Ward 13,1304.0,R2,63 Hartford St,2125.0,Address,70245.0,42.3141,-71.0734,Constituent Call,"(42.3141, -71.0734)"
523545,101001317828,02/26/2015 01:15:05 PM,02/27/2015 01:15:05 PM,04/08/2015 07:59:27 AM,OVERDUE,Closed,Case Closed NOVIO: No Violation Found/No Cause,Unsafe/Dangerous Conditions,Inspectional Services,Building,Unsafe Dangerous Conditions,ISD_Building (INTERNAL),ISD,,,523 Beacon St  Boston  MA  02215,4.0,10A,8.0,D4,Back Bay,14.0,Ward 5,509.0,A,523 Beacon St,2215.0,Address,184611.0,42.3503,-71.0908,Constituent Call,"(42.3503, -71.0908)"
523663,101001318002,02/26/2015 02:59:17 PM,02/27/2015 02:59:17 PM,03/03/2015 08:47:31 AM,OVERDUE,Closed,Case Closed NOACC: Closed-No Access,Unsafe/Dangerous Conditions,Inspectional Services,Building,Unsafe Dangerous Conditions,ISD_Building (INTERNAL),ISD,,,31 Harold St  Roxbury  MA  02119,9.0,10B,7.0,B2,Roxbury,13.0,Ward 12,1205.0,R3,31 Harold St,2119.0,Address,69613.0,42.3195,-71.0885,Constituent Call,"(42.3195, -71.0885)"
523668,101001318009,02/26/2015 03:01:55 PM,02/27/2015 03:01:54 PM,03/30/2015 09:23:06 AM,OVERDUE,Closed,Case Closed VIOISS: Violation Filed,Unsafe/Dangerous Conditions,Inspectional Services,Building,Unsafe Dangerous Conditions,ISD_Building (INTERNAL),ISD,,,13 Park St  Charlestown  MA  02129,3.0,1A,1.0,A15,Charlestown,2.0,Ward 2,201.0,R4,13 Park St,2129.0,Address,107198.0,42.3723,-71.0613,Constituent Call,"(42.3723, -71.0613)"
523676,101001318024,02/26/2015 03:10:30 PM,02/27/2015 03:10:29 PM,02/27/2015 03:19:09 PM,OVERDUE,Closed,Case Closed ADCLSD: Administratively Closed,Unsafe/Dangerous Conditions,Inspectional Services,Building,Unsafe Dangerous Conditions,ISD_Building (INTERNAL),ISD,,,,,,,,,,,,,,,,,42.3594,-71.0587,Constituent Call,"(0, 0)"
523680,101001318030,02/26/2015 03:13:42 PM,02/27/2015 03:13:42 PM,03/11/2015 07:50:26 AM,OVERDUE,Closed,Case Closed VIOISS: Violation Filed,Unsafe/Dangerous Conditions,Inspectional Services,Building,Unsafe Dangerous Conditions,ISD_Building (INTERNAL),ISD,,,47-49 Raldne Rd  Hyde Park  MA  02136,12.0,08,5.0,E18,Hyde Park,10.0,Ward 18,1819.0,R2,47-49 Raldne Rd,2136.0,Address,114469.0,42.2564,-71.141,Constituent Call,"(42.2564, -71.141)"
523684,101001318034,02/26/2015 03:17:29 PM,02/27/2015 03:17:29 PM,03/23/2015 08:27:06 AM,OVERDUE,Closed,Case Closed CORR: Corrected,Unsafe/Dangerous Conditions,Inspectional Services,Building,Unsafe Dangerous Conditions,ISD_Building (INTERNAL),ISD,,,1 Westinghouse Plz  Hyde Park  MA  02136,12.0,08,5.0,E18,Hyde Park,10.0,Ward 18,1819.0,CC,1 Westinghouse Plz,2136.0,Address,148472.0,42.2454,-71.132,Constituent Call,"(42.2454, -71.132)"
523704,101001318065,02/26/2015 03:35:32 PM,02/27/2015 03:35:32 PM,05/08/2015 10:23:48 AM,OVERDUE,Closed,Case Closed. Closed date : 2015-05-08 10:23:48.657 NOVIO: No Violation Found/No Cause,Unsafe/Dangerous Conditions,Inspectional Services,Building,Unsafe Dangerous Conditions,ISD_Building (INTERNAL),ISD,,,297 Meridian St  East Boston  MA  02128,1.0,09,1.0,A7,East Boston,1.0,Ward 1,107.0,R3,297 Meridian St,2128.0,Address,274448.0,42.377,-71.039,Constituent Call,"(42.377, -71.039)"
523716,101001318093,02/26/2015 03:45:20 PM,02/27/2015 03:45:20 PM,03/04/2015 03:34:23 PM,OVERDUE,Closed,Case Closed REINSP: Issues Found  Re-Inspection,Unsafe/Dangerous Conditions,Inspectional Services,Building,Unsafe Dangerous Conditions,ISD_Building (INTERNAL),ISD,,,435 Warren St  Roxbury  MA  02119,9.0,10B,7.0,B2,Roxbury,13.0,Ward 12,1206.0,E,435 Warren St,2119.0,Address,143272.0,42.3168,-71.0832,Constituent Call,"(42.3168, -71.0832)"
523719,101001318098,02/26/2015 03:47:25 PM,02/27/2015 03:47:25 PM,02/27/2015 02:50:45 PM,ONTIME,Closed,Case Closed NOVIO: No Violation Found/No Cause,Unsafe/Dangerous Conditions,Inspectional Services,Building,Unsafe Dangerous Conditions,ISD_Building (INTERNAL),ISD,,,210-212 Cambridge St  Boston  MA  02114,3.0,1B,1.0,A1,Beacon Hill,3.0,Ward 3,306.0,CM,210-212 Cambridge St,2114.0,Address,162842.0,42.3609,-71.0661,Constituent Call,"(42.3609, -71.0661)"
523725,101001318107,02/26/2015 03:50:09 PM,02/27/2015 03:50:09 PM,02/27/2015 03:34:40 PM,ONTIME,Closed,Case Closed VIOISS: Violation Filed,Unsafe/Dangerous Conditions,Inspectional Services,Building,Unsafe Dangerous Conditions,ISD_Building (INTERNAL),ISD,,,689 E Seventh St  South Boston  MA  02127,6.0,05,2.0,C6,South Boston / South Boston Waterfront,5.0,Ward 7,701.0,R2,689 E Seventh St,2127.0,Address,125511.0,42.3322,-71.0327,Constituent Call,"(42.3322, -71.0327)"
523727,101001318110,02/26/2015 03:52:53 PM,02/27/2015 03:52:53 PM,02/27/2015 08:30:30 AM,ONTIME,Closed,Case Closed PERMIS: Permit Issued,Unsafe/Dangerous Conditions,Inspectional Services,Building,Unsafe Dangerous Conditions,ISD_Building (INTERNAL),ISD,,,266 Border St  East Boston  MA  02128,1.0,09,1.0,A7,East Boston,1.0,Ward 1,106.0,I,266 Border St,2128.0,Address,162348.0,42.3771,-71.0403,Constituent Call,"(42.3771, -71.0403)"
523732,101001318116,02/26/2015 03:56:26 PM,02/27/2015 03:56:26 PM,03/23/2015 08:30:55 AM,OVERDUE,Closed,Case Closed NOVIO: No Violation Found/No Cause,Unsafe/Dangerous Conditions,Inspectional Services,Building,Unsafe Dangerous Conditions,ISD_Building (INTERNAL),ISD,,,1166 River St  Hyde Park  MA  02136,12.0,08,5.0,E18,Hyde Park,10.0,Ward 18,1813.0,RC,1166 River St,2136.0,Address,116334.0,42.2561,-71.1204,Constituent Call,"(42.2561, -71.1204)"
523738,101001318125,02/26/2015 04:01:04 PM,02/27/2015 04:01:04 PM,03/12/2015 03:38:42 PM,OVERDUE,Closed,Case Closed ROA: Refer to Other Agency/Division,Unsafe/Dangerous Conditions,Inspectional Services,Building,Unsafe Dangerous Conditions,ISD_Building (INTERNAL),ISD,,,4 Walnut St  Boston  MA  02108,3.0,1B,8.0,A1,Beacon Hill,14.0,Ward 5,503.0,CM,4 Walnut St,2108.0,Address,142057.0,42.3575,-71.0658,Constituent Call,"(42.3575, -71.0658)"
523743,101001318130,02/26/2015 04:04:12 PM,02/27/2015 04:04:12 PM,03/03/2015 03:47:37 PM,OVERDUE,Closed,Case Closed ADCLSD: Administratively Closed,Unsafe/Dangerous Conditions,Inspectional Services,Building,Unsafe Dangerous Conditions,ISD_Building (INTERNAL),ISD,,,478-482 Commercial St  Boston  MA  02109,3.0,1B,1.0,A1,Downtown / Financial District,3.0,Ward 3,302.0,CM,478-482 Commercial St,2109.0,Address,36767.0,42.3677,-71.0542,Constituent Call,"(42.3677, -71.0542)"
524412,101001319100,02/27/2015 12:16:01 PM,02/28/2015 12:16:01 PM,03/20/2015 11:55:06 AM,OVERDUE,Closed,Case Closed NOVIO: No Violation Found/No Cause,Unsafe/Dangerous Conditions,Inspectional Services,Building,Unsafe Dangerous Conditions,ISD_Building (INTERNAL),ISD,,,INTERSECTION of Gainsborough St & Huntington Ave  Boston  MA,9.0,10A,7.0,D4,Fenway / Kenmore / Audubon Circle / Longwood,13.0,Ward 4,408.0,,INTERSECTION Gainsborough St & Huntington Ave,,Intersection,5166.0,42.3414,-71.0865,Constituent Call,"(42.3414, -71.0865)"
524739,101001319582,02/27/2015 05:30:20 PM,02/28/2015 05:30:20 PM,03/20/2015 11:56:12 AM,OVERDUE,Closed,Case Closed NOVIO: No Violation Found/No Cause,Unsafe/Dangerous Conditions,Inspectional Services,Building,Unsafe Dangerous Conditions,ISD_Building (INTERNAL),ISD,,,45 River St  Boston  MA  02114,3.0,1B,8.0,A1,Boston,14.0,05,505.0,RC,45 River St,2114.0,Address,298869.0,42.3573,-71.0704,Constituent Call,"(42.3573, -71.0704)"
